ODOM  50.000  614.000  1.571  0.000  0.000 0  1735617281.910 iRoC  17.831
ODOM  50.000  614.000  1.571  0.000  0.000 0  1735617281.910 iRoC  17.831
ODOM  50.000  614.000  1.571  0.000  0.000 0  1735617281.910 iRoC  17.831
ODOM  50.000  614.000  1.571  0.000  0.000 0  1735617281.910 iRoC  17.831
ODOM  50.000  614.000  1.571  0.000  0.000 0  1735617281.910 iRoC  17.831
ODOM  50.000  614.000  1.571  0.000  0.000 0  1735617281.910 iRoC  17.831
ODOM  50.000  614.000  1.571  0.000  0.000 0  1735617281.910 iRoC  17.831
ODOM  50.000  614.000  1.571  0.000  0.000 0  1735617281.910 iRoC  17.831
ODOM  50.000  614.000  1.571  0.000  0.000 0  1735617281.910 iRoC  17.831
ODOM  50.000  614.000  1.571  0.000  0.000 0  1735617281.910 iRoC  17.831
ODOM  50.000  614.000  1.571  0.000  0.000 0  1735617281.910 iRoC  17.831
ODOM  50.000  614.000  1.571  0.000  0.000 0  1735617281.910 iRoC  17.831
ODOM  50.000  614.000  1.571  0.000  0.000 0  1735617281.910 iRoC  17.831
ODOM  50.000  614.000  1.571  0.000  0.000 0  1735617281.910 iRoC  17.831
ODOM  50.000  614.000  1.571  0.000  0.000 0  1735617281.910 iRoC  17.831
ODOM  50.000  614.000  1.571  0.000  0.000 0  1735617281.910 iRoC  17.831
ODOM  50.000  614.000  1.571  0.000  0.000 0  1735617281.910 iRoC  17.831
ODOM  50.000  614.000  1.571  0.000  0.000 0  1735617281.910 iRoC  17.831
ODOM  50.000  614.000  1.571  0.000  0.000 0  1735617281.910 iRoC  17.831
ODOM  50.000  614.000  1.571  0.000  0.000 0  1735617281.910 iRoC  17.831
ODOM  50.000  614.000  1.571  0.000  0.000 0  1735617281.910 iRoC  17.831
ODOM  50.000  614.000  1.571  0.000  0.000 0  1735617281.910 iRoC  17.831
ODOM  50.000  614.000  1.571  0.000  0.000 0  1735617281.910 iRoC  17.831
ODOM  50.000  614.000  1.571  0.000  0.000 0  1735617281.910 iRoC  17.831
ODOM  50.000  614.000  1.571  0.000  0.000 0  1735617281.910 iRoC  17.831
ODOM  50.000  614.000  1.571  0.000  0.000 0  1735617281.910 iRoC  17.831
ODOM  50.000  614.000  1.571  0.000  0.000 0  1735617281.910 iRoC  17.831
ODOM  50.000  614.000  1.571  0.000  0.000 0  1735617281.910 iRoC  17.831
ODOM  50.000  614.000  1.571  0.000  0.000 0  1735617281.910 iRoC  17.831
ODOM  50.000  614.000  1.571  0.000  0.000 0  1735617281.910 iRoC  17.831
ODOM  50.000  614.000  1.571  0.000  0.000 0  1735617281.910 iRoC  17.831
ODOM  50.000  614.000  1.571  0.000  0.000 0  1735617281.910 iRoC  17.831
ODOM  50.000  614.000  1.571  0.000  0.000 0  1735617281.910 iRoC  17.831
ODOM  50.000  614.000  1.571  0.000  0.000 0  1735617281.910 iRoC  17.831
ODOM  50.000  614.000  1.571  0.000  0.000 0  1735617281.910 iRoC  17.831
ODOM  50.000  614.000  1.571  0.000  0.000 0  1735617281.910 iRoC  17.831
ODOM  50.000  614.000  1.571  0.000  0.000 0  1735617281.910 iRoC  17.831
ODOM  50.000  614.000  1.571  0.000  0.000 0  1735617281.910 iRoC  17.831
ODOM  50.000  614.000  1.571  0.000  0.000 0  1735617281.910 iRoC  17.831
ODOM  50.000  614.000  1.571  0.000  0.000 0  1735617281.910 iRoC  17.831
ODOM  50.000  614.000  1.571  0.000  0.000 0  1735617281.910 iRoC  17.831
ODOM  50.000  614.000  1.571  0.000  0.000 0  1735617281.910 iRoC  17.831
ODOM  50.000  614.000  1.571  0.000  0.000 0  1735617281.910 iRoC  17.831
ODOM  50.000  614.000  1.571  0.000  0.000 0  1735617281.910 iRoC  17.831
ODOM  50.000  614.000  1.571  0.000  0.000 0  1735617281.910 iRoC  17.831
ODOM  50.000  614.000  1.571  0.000  0.000 0  1735617281.910 iRoC  17.831
ODOM  50.000  614.000  1.571  0.000  0.000 0  1735617281.910 iRoC  17.831
ODOM  50.000  614.000  1.571  0.000  0.000 0  1735617281.910 iRoC  17.831
ODOM  50.000  613.000  1.571  2.000  0.000 0  1735617281.910 iRoC  17.831
ODOM  50.000  612.000  1.571  2.000  0.000 0  1735617281.910 iRoC  17.831
ODOM  50.000  611.000  1.571  2.000  0.000 0  1735617281.910 iRoC  17.831
ODOM  50.000  610.000  1.571  2.000  0.000 0  1735617281.910 iRoC  17.831
ODOM  50.000  609.000  1.571  2.000  0.000 0  1735617281.910 iRoC  17.831
ODOM  50.000  608.000  1.571  2.000  0.000 0  1735617281.910 iRoC  17.831
ODOM  50.000  607.000  1.571  2.000  0.000 0  1735617281.910 iRoC  17.831
ODOM  50.000  606.000  1.571  2.000  0.000 0  1735617281.910 iRoC  17.831
ODOM  50.000  605.000  1.571  2.000  0.000 0  1735617281.910 iRoC  17.831
ODOM  50.000  604.000  1.571  2.000  0.000 0  1735617281.910 iRoC  17.831
ODOM  50.000  603.000  1.571  2.000  0.000 0  1735617281.910 iRoC  17.831
ODOM  50.000  602.000  1.571  2.000  0.000 0  1735617281.910 iRoC  17.831
ODOM  50.000  601.000  1.571  2.000  0.000 0  1735617281.910 iRoC  17.831
ODOM  50.000  600.000  1.571  2.000  0.000 0  1735617281.910 iRoC  17.831
ODOM  50.000  599.000  1.571  2.000  0.000 0  1735617281.910 iRoC  17.831
ODOM  50.000  598.000  1.571  2.000  0.000 0  1735617281.910 iRoC  17.831
ODOM  50.000  597.000  1.571  2.000  0.000 0  1735617281.910 iRoC  17.831
ODOM  50.000  596.000  1.571  2.000  0.000 0  1735617281.910 iRoC  17.831
ODOM  50.000  595.000  1.571  2.000  0.000 0  1735617281.910 iRoC  17.831
ODOM  50.000  594.000  1.571  2.000  0.000 0  1735617281.910 iRoC  17.831
ODOM  50.000  593.000  1.571  2.000  0.000 0  1735617281.910 iRoC  17.831
ODOM  50.000  592.000  1.571  2.000  0.000 0  1735617281.910 iRoC  17.831
ODOM  50.000  591.000  1.571  2.000  0.000 0  1735617281.910 iRoC  17.831
ODOM  50.000  590.000  1.571  2.000  0.000 0  1735617281.910 iRoC  17.831
ODOM  50.000  589.000  1.571  2.000  0.000 0  1735617281.910 iRoC  17.831
ODOM  50.000  588.000  1.571  2.000  0.000 0  1735617281.910 iRoC  17.831
ODOM  50.000  587.000  1.571  2.000  0.000 0  1735617281.910 iRoC  17.831
ODOM  50.000  586.000  1.571  2.000  0.000 0  1735617281.910 iRoC  17.831
ODOM  50.000  585.000  1.571  2.000  0.000 0  1735617281.910 iRoC  17.831
ODOM  50.000  584.000  1.571  2.000  0.000 0  1735617281.910 iRoC  17.831
ODOM  50.000  583.000  1.571  2.000  0.000 0  1735617281.910 iRoC  17.831
ODOM  50.000  582.000  1.571  2.000  0.000 0  1735617281.910 iRoC  17.831
ODOM  50.000  581.000  1.571  2.000  0.000 0  1735617281.910 iRoC  17.831
ODOM  50.000  580.000  1.571  2.000  0.000 0  1735617281.910 iRoC  17.831
ODOM  50.000  579.000  1.571  2.000  0.000 0  1735617281.910 iRoC  17.831
ODOM  50.000  578.000  1.571  2.000  0.000 0  1735617281.910 iRoC  17.831
ODOM  50.000  577.000  1.571  2.000  0.000 0  1735617281.910 iRoC  17.831
ODOM  50.000  576.000  1.571  2.000  0.000 0  1735617281.910 iRoC  17.831
ODOM  50.000  575.000  1.571  2.000  0.000 0  1735617281.910 iRoC  17.831
ODOM  50.000  574.000  1.571  2.000  0.000 0  1735617281.910 iRoC  17.831
ODOM  50.000  573.000  1.571  2.000  0.000 0  1735617281.910 iRoC  17.831
ODOM  50.000  572.000  1.571  2.000  0.000 0  1735617281.910 iRoC  17.831
ODOM  50.000  571.000  1.571  2.000  0.000 0  1735617281.910 iRoC  17.831
ODOM  50.000  570.000  1.571  2.000  0.000 0  1735617281.910 iRoC  17.831
ODOM  50.000  569.000  1.571  2.000  0.000 0  1735617281.910 iRoC  17.831
ODOM  50.000  568.000  1.571  2.000  0.000 0  1735617281.910 iRoC  17.831
ODOM  50.000  567.000  1.571  2.000  0.000 0  1735617281.910 iRoC  17.831
ODOM  50.000  566.000  1.571  2.000  0.000 0  1735617281.910 iRoC  17.831
ODOM  50.000  565.000  1.571  2.000  0.000 0  1735617281.910 iRoC  17.831
ODOM  50.000  564.000  1.571  2.000  0.000 0  1735617281.910 iRoC  17.831
ODOM  50.000  563.000  1.571  2.000  0.000 0  1735617281.910 iRoC  17.831
ODOM  50.000  562.000  1.571  2.000  0.000 0  1735617281.910 iRoC  17.831
ODOM  50.000  561.000  1.571  2.000  0.000 0  1735617281.910 iRoC  17.831
ODOM  50.000  560.000  1.571  2.000  0.000 0  1735617281.910 iRoC  17.831
ODOM  50.000  559.000  1.551  2.000 -2.000 0  1735617281.910 iRoC  17.831
ODOM  50.000  558.000  1.531  2.000 -2.000 0  1735617281.910 iRoC  17.831
ODOM  50.000  557.000  1.511  2.000 -2.000 0  1735617281.910 iRoC  17.831
ODOM  50.000  556.000  1.491  2.000 -2.000 0  1735617281.910 iRoC  17.831
ODOM  50.000  555.000  1.471  2.000 -2.000 0  1735617281.910 iRoC  17.831
ODOM  50.000  554.000  1.451  2.000 -2.000 0  1735617281.910 iRoC  17.831
ODOM  50.000  553.000  1.431  2.000 -2.000 0  1735617281.910 iRoC  17.831
ODOM  50.000  552.000  1.411  2.000 -2.000 0  1735617281.910 iRoC  17.831
ODOM  50.000  551.000  1.391  2.000 -2.000 0  1735617281.910 iRoC  17.831
ODOM  50.000  550.000  1.371  2.000 -2.000 0  1735617281.910 iRoC  17.831
ODOM  51.000  549.000  1.351  2.000 -2.000 0  1735617281.910 iRoC  17.831
ODOM  51.000  548.000  1.331  2.000 -2.000 0  1735617281.910 iRoC  17.831
ODOM  51.000  547.000  1.311  2.000 -2.000 0  1735617281.910 iRoC  17.831
ODOM  51.000  546.000  1.291  2.000 -2.000 0  1735617281.910 iRoC  17.831
ODOM  52.000  545.000  1.271  2.000 -2.000 0  1735617281.910 iRoC  17.831
ODOM  52.000  544.000  1.251  2.000 -2.000 0  1735617281.910 iRoC  17.831
ODOM  52.000  543.000  1.231  2.000 -2.000 0  1735617281.910 iRoC  17.831
ODOM  53.000  542.000  1.211  2.000 -2.000 0  1735617281.910 iRoC  17.831
ODOM  53.000  541.000  1.191  2.000 -2.000 0  1735617281.910 iRoC  17.831
ODOM  53.000  540.000  1.171  2.000 -2.000 0  1735617281.910 iRoC  17.831
ODOM  54.000  539.000  1.151  2.000 -2.000 0  1735617281.910 iRoC  17.831
ODOM  54.000  538.000  1.131  2.000 -2.000 0  1735617281.910 iRoC  17.831
ODOM  55.000  537.000  1.111  2.000 -2.000 0  1735617281.910 iRoC  17.831
ODOM  55.000  536.000  1.091  2.000 -2.000 0  1735617281.910 iRoC  17.831
ODOM  56.000  536.000  1.071  2.000 -2.000 0  1735617281.910 iRoC  17.831
ODOM  56.000  535.000  1.051  2.000 -2.000 0  1735617281.910 iRoC  17.831
ODOM  57.000  534.000  1.031  2.000 -2.000 0  1735617281.910 iRoC  17.831
ODOM  57.000  533.000  1.011  2.000 -2.000 0  1735617281.910 iRoC  17.831
ODOM  58.000  532.000  0.991  2.000 -2.000 0  1735617281.910 iRoC  17.831
ODOM  58.000  531.000  0.971  2.000 -2.000 0  1735617281.910 iRoC  17.831
ODOM  59.000  530.000  0.951  2.000 -2.000 0  1735617281.910 iRoC  17.831
ODOM  59.000  530.000  0.931  2.000 -2.000 0  1735617281.910 iRoC  17.831
ODOM  60.000  529.000  0.911  2.000 -2.000 0  1735617281.910 iRoC  17.831
ODOM  61.000  528.000  0.891  2.000 -2.000 0  1735617281.910 iRoC  17.831
ODOM  61.000  527.000  0.871  2.000 -2.000 0  1735617281.910 iRoC  17.831
ODOM  62.000  527.000  0.851  2.000 -2.000 0  1735617281.910 iRoC  17.831
ODOM  63.000  526.000  0.831  2.000 -2.000 0  1735617281.910 iRoC  17.831
ODOM  63.000  525.000  0.811  2.000 -2.000 0  1735617281.910 iRoC  17.831
ODOM  64.000  524.000  0.791  2.000 -2.000 0  1735617281.910 iRoC  17.831
ODOM  65.000  524.000  0.771  2.000 -2.000 0  1735617281.910 iRoC  17.831
ODOM  65.000  523.000  0.751  2.000 -2.000 0  1735617281.910 iRoC  17.831
ODOM  66.000  522.000  0.731  2.000 -2.000 0  1735617281.910 iRoC  17.831
ODOM  67.000  522.000  0.711  2.000 -2.000 0  1735617281.910 iRoC  17.831
ODOM  68.000  521.000  0.691  2.000 -2.000 0  1735617281.910 iRoC  17.831
ODOM  68.000  520.000  0.671  2.000 -2.000 0  1735617281.910 iRoC  17.831
ODOM  69.000  520.000  0.651  2.000 -2.000 0  1735617281.910 iRoC  17.831
ODOM  70.000  519.000  0.631  2.000 -2.000 0  1735617281.910 iRoC  17.831
ODOM  71.000  519.000  0.611  2.000 -2.000 0  1735617281.910 iRoC  17.831
ODOM  72.000  518.000  0.591  2.000 -2.000 0  1735617281.910 iRoC  17.831
ODOM  72.000  517.000  0.571  2.000 -2.000 0  1735617281.910 iRoC  17.831
ODOM  73.000  517.000  0.551  2.000 -2.000 0  1735617281.910 iRoC  17.831
ODOM  74.000  516.000  0.531  2.000 -2.000 0  1735617281.910 iRoC  17.831
ODOM  75.000  516.000  0.511  2.000 -2.000 0  1735617281.910 iRoC  17.831
ODOM  76.000  515.000  0.491  2.000 -2.000 0  1735617281.910 iRoC  17.831
ODOM  77.000  515.000  0.471  2.000 -2.000 0  1735617281.910 iRoC  17.831
ODOM  78.000  514.000  0.451  2.000 -2.000 0  1735617281.910 iRoC  17.831
ODOM  79.000  514.000  0.431  2.000 -2.000 0  1735617281.910 iRoC  17.831
ODOM  80.000  514.000  0.411  2.000 -2.000 0  1735617281.910 iRoC  17.831
ODOM  80.000  513.000  0.391  2.000 -2.000 0  1735617281.910 iRoC  17.831
ODOM  81.000  513.000  0.371  2.000 -2.000 0  1735617281.910 iRoC  17.831
ODOM  82.000  513.000  0.351  2.000 -2.000 0  1735617281.910 iRoC  17.831
ODOM  83.000  512.000  0.331  2.000 -2.000 0  1735617281.910 iRoC  17.831
ODOM  84.000  512.000  0.311  2.000 -2.000 0  1735617281.910 iRoC  17.831
ODOM  85.000  512.000  0.291  2.000 -2.000 0  1735617281.910 iRoC  17.831
ODOM  86.000  511.000  0.271  2.000 -2.000 0  1735617281.910 iRoC  17.831
ODOM  87.000  511.000  0.251  2.000 -2.000 0  1735617281.910 iRoC  17.831
ODOM  88.000  511.000  0.231  2.000 -2.000 0  1735617281.910 iRoC  17.831
ODOM  89.000  511.000  0.211  2.000 -2.000 0  1735617281.910 iRoC  17.831
ODOM  90.000  510.000  0.191  2.000 -2.000 0  1735617281.910 iRoC  17.831
ODOM  91.000  510.000  0.171  2.000 -2.000 0  1735617281.910 iRoC  17.831
ODOM  92.000  510.000  0.151  2.000 -2.000 0  1735617281.910 iRoC  17.831
ODOM  93.000  510.000  0.131  2.000 -2.000 0  1735617281.910 iRoC  17.831
ODOM  94.000  510.000  0.111  2.000 -2.000 0  1735617281.910 iRoC  17.831
ODOM  95.000  510.000  0.091  2.000 -2.000 0  1735617281.910 iRoC  17.831
ODOM  96.000  510.000  0.071  2.000 -2.000 0  1735617281.910 iRoC  17.831
ODOM  97.000  510.000  0.051  2.000 -2.000 0  1735617281.910 iRoC  17.831
ODOM  98.000  510.000  0.031  2.000 -2.000 0  1735617281.910 iRoC  17.831
ODOM  99.000  510.000  0.011  2.000 -2.000 0  1735617281.910 iRoC  17.831
ODOM  100.000  509.000  0.011  2.000  0.000 0  1735617281.910 iRoC  17.831
ODOM  101.000  509.000  0.011  2.000  0.000 0  1735617281.910 iRoC  17.831
ODOM  102.000  509.000  0.011  2.000  0.000 0  1735617281.910 iRoC  17.831
ODOM  103.000  509.000  0.011  2.000  0.000 0  1735617281.910 iRoC  17.831
ODOM  104.000  509.000  0.031  2.000  2.000 0  1735617281.910 iRoC  17.831
ODOM  105.000  509.000  0.051  2.000  2.000 0  1735617281.910 iRoC  17.831
ODOM  106.000  509.000  0.071  2.000  2.000 0  1735617281.910 iRoC  17.831
ODOM  107.000  509.000  0.091  2.000  2.000 0  1735617281.910 iRoC  17.831
ODOM  108.000  509.000  0.111  2.000  2.000 0  1735617281.910 iRoC  17.831
ODOM  109.000  509.000  0.131  2.000  2.000 0  1735617281.910 iRoC  17.831
ODOM  110.000  509.000  0.151  2.000  2.000 0  1735617281.910 iRoC  17.831
ODOM  111.000  509.000  0.171  2.000  2.000 0  1735617281.910 iRoC  17.831
ODOM  112.000  509.000  0.191  2.000  2.000 0  1735617281.910 iRoC  17.831
ODOM  113.000  508.000  0.211  2.000  2.000 0  1735617281.910 iRoC  17.831
ODOM  114.000  508.000  0.231  2.000  2.000 0  1735617281.910 iRoC  17.831
ODOM  115.000  508.000  0.251  2.000  2.000 0  1735617281.910 iRoC  17.831
ODOM  116.000  508.000  0.271  2.000  2.000 0  1735617281.910 iRoC  17.831
ODOM  117.000  507.000  0.291  2.000  2.000 0  1735617281.910 iRoC  17.831
ODOM  118.000  507.000  0.311  2.000  2.000 0  1735617281.910 iRoC  17.831
ODOM  119.000  507.000  0.331  2.000  2.000 0  1735617281.910 iRoC  17.831
ODOM  120.000  506.000  0.351  2.000  2.000 0  1735617281.910 iRoC  17.831
ODOM  121.000  506.000  0.371  2.000  2.000 0  1735617281.910 iRoC  17.831
ODOM  121.000  506.000  0.391  2.000  2.000 0  1735617281.910 iRoC  17.831
ODOM  122.000  505.000  0.411  2.000  2.000 0  1735617281.910 iRoC  17.831
ODOM  123.000  505.000  0.431  2.000  2.000 0  1735617281.910 iRoC  17.831
ODOM  124.000  504.000  0.451  2.000  2.000 0  1735617281.910 iRoC  17.831
ODOM  125.000  504.000  0.471  2.000  2.000 0  1735617281.910 iRoC  17.831
ODOM  126.000  504.000  0.491  2.000  2.000 0  1735617281.910 iRoC  17.831
ODOM  127.000  503.000  0.511  2.000  2.000 0  1735617281.910 iRoC  17.831
ODOM  128.000  503.000  0.531  2.000  2.000 0  1735617281.910 iRoC  17.831
ODOM  129.000  502.000  0.551  2.000  2.000 0  1735617281.910 iRoC  17.831
ODOM  129.000  502.000  0.571  2.000  2.000 0  1735617281.910 iRoC  17.831
ODOM  130.000  501.000  0.591  2.000  2.000 0  1735617281.910 iRoC  17.831
ODOM  131.000  500.000  0.611  2.000  2.000 0  1735617281.910 iRoC  17.831
ODOM  132.000  500.000  0.631  2.000  2.000 0  1735617281.910 iRoC  17.831
ODOM  133.000  499.000  0.651  2.000  2.000 0  1735617281.910 iRoC  17.831
ODOM  134.000  499.000  0.671  2.000  2.000 0  1735617281.910 iRoC  17.831
ODOM  134.000  498.000  0.691  2.000  2.000 0  1735617281.910 iRoC  17.831
ODOM  135.000  497.000  0.711  2.000  2.000 0  1735617281.910 iRoC  17.831
ODOM  136.000  497.000  0.731  2.000  2.000 0  1735617281.910 iRoC  17.831
ODOM  137.000  496.000  0.751  2.000  2.000 0  1735617281.910 iRoC  17.831
ODOM  137.000  495.000  0.771  2.000  2.000 0  1735617281.910 iRoC  17.831
ODOM  138.000  495.000  0.791  2.000  2.000 0  1735617281.910 iRoC  17.831
ODOM  139.000  494.000  0.811  2.000  2.000 0  1735617281.910 iRoC  17.831
ODOM  139.000  493.000  0.831  2.000  2.000 0  1735617281.910 iRoC  17.831
ODOM  140.000  492.000  0.851  2.000  2.000 0  1735617281.910 iRoC  17.831
ODOM  141.000  492.000  0.871  2.000  2.000 0  1735617281.910 iRoC  17.831
ODOM  141.000  491.000  0.891  2.000  2.000 0  1735617281.910 iRoC  17.831
ODOM  142.000  490.000  0.911  2.000  2.000 0  1735617281.910 iRoC  17.831
ODOM  143.000  489.000  0.931  2.000  2.000 0  1735617281.910 iRoC  17.831
ODOM  143.000  489.000  0.951  2.000  2.000 0  1735617281.910 iRoC  17.831
ODOM  144.000  488.000  0.971  2.000  2.000 0  1735617281.910 iRoC  17.831
ODOM  144.000  487.000  0.991  2.000  2.000 0  1735617281.910 iRoC  17.831
ODOM  145.000  486.000  1.011  2.000  2.000 0  1735617281.910 iRoC  17.832
ODOM  145.000  485.000  1.031  2.000  2.000 0  1735617281.910 iRoC  17.832
ODOM  146.000  484.000  1.051  2.000  2.000 0  1735617281.910 iRoC  17.832
ODOM  146.000  483.000  1.071  2.000  2.000 0  1735617281.910 iRoC  17.832
ODOM  147.000  483.000  1.091  2.000  2.000 0  1735617281.910 iRoC  17.832
ODOM  147.000  482.000  1.111  2.000  2.000 0  1735617281.910 iRoC  17.832
ODOM  148.000  481.000  1.131  2.000  2.000 0  1735617281.910 iRoC  17.832
ODOM  148.000  480.000  1.151  2.000  2.000 0  1735617281.910 iRoC  17.832
ODOM  148.000  479.000  1.171  2.000  2.000 0  1735617281.910 iRoC  17.832
ODOM  149.000  478.000  1.191  2.000  2.000 0  1735617281.910 iRoC  17.832
ODOM  149.000  477.000  1.211  2.000  2.000 0  1735617281.910 iRoC  17.832
ODOM  150.000  476.000  1.231  2.000  2.000 0  1735617281.910 iRoC  17.832
ODOM  150.000  475.000  1.231  2.000  0.000 0  1735617281.910 iRoC  17.832
ODOM  150.000  474.000  1.211  2.000 -2.000 0  1735617281.910 iRoC  17.832
ODOM  151.000  473.000  1.191  2.000 -2.000 0  1735617281.910 iRoC  17.832
ODOM  151.000  472.000  1.171  2.000 -2.000 0  1735617281.910 iRoC  17.832
ODOM  151.000  471.000  1.151  2.000 -2.000 0  1735617281.910 iRoC  17.832
ODOM  152.000  471.000  1.131  2.000 -2.000 0  1735617281.910 iRoC  17.832
ODOM  152.000  470.000  1.111  2.000 -2.000 0  1735617281.910 iRoC  17.832
ODOM  153.000  469.000  1.091  2.000 -2.000 0  1735617281.910 iRoC  17.832
ODOM  153.000  468.000  1.071  2.000 -2.000 0  1735617281.910 iRoC  17.832
ODOM  154.000  467.000  1.051  2.000 -2.000 0  1735617281.910 iRoC  17.832
ODOM  154.000  466.000  1.031  2.000 -2.000 0  1735617281.910 iRoC  17.832
ODOM  155.000  465.000  1.011  2.000 -2.000 0  1735617281.910 iRoC  17.832
ODOM  155.000  464.000  0.991  2.000 -2.000 0  1735617281.910 iRoC  17.832
ODOM  156.000  464.000  0.971  2.000 -2.000 0  1735617281.910 iRoC  17.832
ODOM  156.000  463.000  0.951  2.000 -2.000 0  1735617281.910 iRoC  17.832
ODOM  157.000  462.000  0.931  2.000 -2.000 0  1735617281.910 iRoC  17.832
ODOM  158.000  461.000  0.911  2.000 -2.000 0  1735617281.910 iRoC  17.832
ODOM  158.000  460.000  0.891  2.000 -2.000 0  1735617281.910 iRoC  17.832
ODOM  159.000  460.000  0.871  2.000 -2.000 0  1735617281.910 iRoC  17.832
ODOM  159.000  459.000  0.851  2.000 -2.000 0  1735617281.910 iRoC  17.832
ODOM  160.000  458.000  0.831  2.000 -2.000 0  1735617281.910 iRoC  17.832
ODOM  161.000  457.000  0.811  2.000 -2.000 0  1735617281.910 iRoC  17.832
ODOM  161.000  457.000  0.791  2.000 -2.000 0  1735617281.910 iRoC  17.832
ODOM  162.000  456.000  0.771  2.000 -2.000 0  1735617281.910 iRoC  17.832
ODOM  163.000  455.000  0.751  2.000 -2.000 0  1735617281.910 iRoC  17.832
ODOM  164.000  455.000  0.731  2.000 -2.000 0  1735617281.910 iRoC  17.832
ODOM  164.000  454.000  0.711  2.000 -2.000 0  1735617281.910 iRoC  17.832
ODOM  165.000  453.000  0.691  2.000 -2.000 0  1735617281.910 iRoC  17.832
ODOM  166.000  453.000  0.671  2.000 -2.000 0  1735617281.910 iRoC  17.832
ODOM  167.000  452.000  0.651  2.000 -2.000 0  1735617281.910 iRoC  17.832
ODOM  168.000  451.000  0.631  2.000 -2.000 0  1735617281.910 iRoC  17.832
ODOM  168.000  451.000  0.611  2.000 -2.000 0  1735617281.910 iRoC  17.832
ODOM  169.000  450.000  0.591  2.000 -2.000 0  1735617281.910 iRoC  17.832
ODOM  170.000  450.000  0.571  2.000 -2.000 0  1735617281.910 iRoC  17.832
ODOM  171.000  449.000  0.551  2.000 -2.000 0  1735617281.910 iRoC  17.832
ODOM  172.000  449.000  0.531  2.000 -2.000 0  1735617281.910 iRoC  17.832
ODOM  173.000  448.000  0.511  2.000 -2.000 0  1735617281.910 iRoC  17.832
ODOM  173.000  448.000  0.491  2.000 -2.000 0  1735617281.910 iRoC  17.832
ODOM  174.000  447.000  0.471  2.000 -2.000 0  1735617281.910 iRoC  17.832
ODOM  175.000  447.000  0.451  2.000 -2.000 0  1735617281.910 iRoC  17.832
ODOM  176.000  446.000  0.431  2.000 -2.000 0  1735617281.910 iRoC  17.832
ODOM  177.000  446.000  0.411  2.000 -2.000 0  1735617281.910 iRoC  17.832
ODOM  178.000  446.000  0.391  2.000 -2.000 0  1735617281.910 iRoC  17.832
ODOM  179.000  445.000  0.371  2.000 -2.000 0  1735617281.910 iRoC  17.832
ODOM  180.000  445.000  0.351  2.000 -2.000 0  1735617281.910 iRoC  17.832
ODOM  181.000  445.000  0.331  2.000 -2.000 0  1735617281.910 iRoC  17.832
ODOM  182.000  444.000  0.311  2.000 -2.000 0  1735617281.910 iRoC  17.832
ODOM  183.000  444.000  0.291  2.000 -2.000 0  1735617281.910 iRoC  17.832
ODOM  184.000  444.000  0.271  2.000 -2.000 0  1735617281.910 iRoC  17.832
ODOM  185.000  443.000  0.251  2.000 -2.000 0  1735617281.910 iRoC  17.832
ODOM  186.000  443.000  0.231  2.000 -2.000 0  1735617281.910 iRoC  17.832
ODOM  187.000  443.000  0.211  2.000 -2.000 0  1735617281.910 iRoC  17.832
ODOM  188.000  443.000  0.191  2.000 -2.000 0  1735617281.910 iRoC  17.832
ODOM  189.000  443.000  0.171  2.000 -2.000 0  1735617281.910 iRoC  17.832
ODOM  190.000  442.000  0.151  2.000 -2.000 0  1735617281.910 iRoC  17.832
ODOM  191.000  442.000  0.131  2.000 -2.000 0  1735617281.910 iRoC  17.832
ODOM  192.000  442.000  0.111  2.000 -2.000 0  1735617281.910 iRoC  17.832
ODOM  192.000  442.000  0.091  2.000 -2.000 0  1735617281.910 iRoC  17.832
ODOM  193.000  442.000  0.071  2.000 -2.000 0  1735617281.910 iRoC  17.832
ODOM  194.000  442.000  0.051  2.000 -2.000 0  1735617281.910 iRoC  17.832
ODOM  195.000  442.000  0.031  2.000 -2.000 0  1735617281.910 iRoC  17.832
ODOM  196.000  442.000  0.011  2.000 -2.000 0  1735617281.910 iRoC  17.832
ODOM  197.000  442.000 -0.009  2.000 -2.000 0  1735617281.910 iRoC  17.832
ODOM  198.000  442.000 -0.029  2.000 -2.000 0  1735617281.910 iRoC  17.832
ODOM  199.000  442.000 -0.049  2.000 -2.000 0  1735617281.910 iRoC  17.832
ODOM  200.000  442.000 -0.069  2.000 -2.000 0  1735617281.910 iRoC  17.832
ODOM  201.000  442.000 -0.089  2.000 -2.000 0  1735617281.910 iRoC  17.832
ODOM  202.000  442.000 -0.109  2.000 -2.000 0  1735617281.910 iRoC  17.832
ODOM  203.000  442.000 -0.129  2.000 -2.000 0  1735617281.910 iRoC  17.832
ODOM  204.000  442.000 -0.149  2.000 -2.000 0  1735617281.910 iRoC  17.832
ODOM  205.000  443.000 -0.169  2.000 -2.000 0  1735617281.910 iRoC  17.832
ODOM  206.000  443.000 -0.189  2.000 -2.000 0  1735617281.910 iRoC  17.832
ODOM  207.000  443.000 -0.169  2.000  2.000 0  1735617281.910 iRoC  17.832
ODOM  208.000  443.000 -0.149  2.000  2.000 0  1735617281.910 iRoC  17.832
ODOM  209.000  443.000 -0.129  2.000  2.000 0  1735617281.910 iRoC  17.832
ODOM  210.000  443.000 -0.129  2.000  0.000 0  1735617281.910 iRoC  17.832
ODOM  211.000  443.000 -0.129  2.000  0.000 0  1735617281.910 iRoC  17.832
ODOM  212.000  444.000 -0.129  2.000  0.000 0  1735617281.910 iRoC  17.832
ODOM  213.000  444.000 -0.129  2.000  0.000 0  1735617281.910 iRoC  17.832
ODOM  214.000  444.000 -0.129  2.000  0.000 0  1735617281.910 iRoC  17.832
ODOM  215.000  444.000 -0.129  2.000  0.000 0  1735617281.910 iRoC  17.832
ODOM  216.000  444.000 -0.129  2.000  0.000 0  1735617281.910 iRoC  17.832
ODOM  217.000  444.000 -0.129  2.000  0.000 0  1735617281.910 iRoC  17.832
ODOM  218.000  444.000 -0.129  2.000  0.000 0  1735617281.910 iRoC  17.832
ODOM  219.000  445.000 -0.129  2.000  0.000 0  1735617281.910 iRoC  17.832
ODOM  220.000  445.000 -0.129  2.000  0.000 0  1735617281.910 iRoC  17.832
ODOM  221.000  445.000 -0.129  2.000  0.000 0  1735617281.910 iRoC  17.832
ODOM  222.000  445.000 -0.129  2.000  0.000 0  1735617281.910 iRoC  17.832
ODOM  223.000  445.000 -0.129  2.000  0.000 0  1735617281.910 iRoC  17.832
ODOM  224.000  445.000 -0.129  2.000  0.000 0  1735617281.910 iRoC  17.832
ODOM  225.000  445.000 -0.129  2.000  0.000 0  1735617281.910 iRoC  17.832
ODOM  226.000  445.000 -0.129  2.000  0.000 0  1735617281.910 iRoC  17.832
ODOM  227.000  446.000 -0.129  2.000  0.000 0  1735617281.910 iRoC  17.832
ODOM  228.000  446.000 -0.129  2.000  0.000 0  1735617281.910 iRoC  17.832
ODOM  229.000  446.000 -0.129  2.000  0.000 0  1735617281.910 iRoC  17.832
ODOM  230.000  446.000 -0.129  2.000  0.000 0  1735617281.910 iRoC  17.832
ODOM  231.000  446.000 -0.129  2.000  0.000 0  1735617281.910 iRoC  17.832
ODOM  232.000  446.000 -0.129  2.000  0.000 0  1735617281.910 iRoC  17.832
ODOM  233.000  446.000 -0.129  2.000  0.000 0  1735617281.910 iRoC  17.832
ODOM  234.000  446.000 -0.129  2.000  0.000 0  1735617281.910 iRoC  17.832
ODOM  235.000  447.000 -0.129  2.000  0.000 0  1735617281.910 iRoC  17.832
ODOM  236.000  447.000 -0.129  2.000  0.000 0  1735617281.910 iRoC  17.832
ODOM  237.000  447.000 -0.129  2.000  0.000 0  1735617281.910 iRoC  17.832
ODOM  238.000  447.000 -0.129  2.000  0.000 0  1735617281.910 iRoC  17.832
ODOM  239.000  447.000 -0.129  2.000  0.000 0  1735617281.910 iRoC  17.832
ODOM  240.000  447.000 -0.129  2.000  0.000 0  1735617281.910 iRoC  17.832
ODOM  241.000  447.000 -0.129  2.000  0.000 0  1735617281.910 iRoC  17.832
ODOM  242.000  447.000 -0.129  2.000  0.000 0  1735617281.910 iRoC  17.832
ODOM  243.000  448.000 -0.129  2.000  0.000 0  1735617281.910 iRoC  17.832
ODOM  244.000  448.000 -0.129  2.000  0.000 0  1735617281.910 iRoC  17.832
ODOM  245.000  448.000 -0.129  2.000  0.000 0  1735617281.910 iRoC  17.832
ODOM  246.000  448.000 -0.129  2.000  0.000 0  1735617281.910 iRoC  17.832
ODOM  247.000  448.000 -0.129  2.000  0.000 0  1735617281.910 iRoC  17.832
ODOM  248.000  448.000 -0.129  2.000  0.000 0  1735617281.910 iRoC  17.832
ODOM  249.000  448.000 -0.129  2.000  0.000 0  1735617281.910 iRoC  17.832
ODOM  250.000  449.000 -0.129  2.000  0.000 0  1735617281.910 iRoC  17.832
ODOM  251.000  449.000 -0.129  2.000  0.000 0  1735617281.910 iRoC  17.832
ODOM  252.000  449.000 -0.129  2.000  0.000 0  1735617281.910 iRoC  17.832
ODOM  253.000  449.000 -0.129  2.000  0.000 0  1735617281.910 iRoC  17.832
ODOM  254.000  449.000 -0.129  2.000  0.000 0  1735617281.910 iRoC  17.832
ODOM  255.000  449.000 -0.129  2.000  0.000 0  1735617281.910 iRoC  17.832
ODOM  256.000  449.000 -0.129  2.000  0.000 0  1735617281.910 iRoC  17.832
ODOM  257.000  449.000 -0.129  2.000  0.000 0  1735617281.910 iRoC  17.832
ODOM  258.000  450.000 -0.129  2.000  0.000 0  1735617281.910 iRoC  17.832
ODOM  259.000  450.000 -0.129  2.000  0.000 0  1735617281.910 iRoC  17.832
ODOM  260.000  450.000 -0.129  2.000  0.000 0  1735617281.910 iRoC  17.832
ODOM  261.000  450.000 -0.129  2.000  0.000 0  1735617281.910 iRoC  17.832
ODOM  262.000  450.000 -0.129  2.000  0.000 0  1735617281.910 iRoC  17.832
ODOM  263.000  450.000 -0.129  2.000  0.000 0  1735617281.910 iRoC  17.832
ODOM  264.000  450.000 -0.129  2.000  0.000 0  1735617281.910 iRoC  17.832
ODOM  265.000  450.000 -0.129  2.000  0.000 0  1735617281.910 iRoC  17.832
ODOM  266.000  451.000 -0.129  2.000  0.000 0  1735617281.910 iRoC  17.832
ODOM  267.000  451.000 -0.129  2.000  0.000 0  1735617281.910 iRoC  17.832
ODOM  268.000  451.000 -0.129  2.000  0.000 0  1735617281.910 iRoC  17.832
ODOM  269.000  451.000 -0.129  2.000  0.000 0  1735617281.910 iRoC  17.832
ODOM  270.000  451.000 -0.129  2.000  0.000 0  1735617281.910 iRoC  17.832
ODOM  271.000  451.000 -0.129  2.000  0.000 0  1735617281.910 iRoC  17.832
ODOM  272.000  451.000 -0.129  2.000  0.000 0  1735617281.910 iRoC  17.832
ODOM  273.000  451.000 -0.129  2.000  0.000 0  1735617281.910 iRoC  17.832
ODOM  274.000  452.000 -0.129  2.000  0.000 0  1735617281.910 iRoC  17.832
ODOM  275.000  452.000 -0.129  2.000  0.000 0  1735617281.910 iRoC  17.832
ODOM  276.000  452.000 -0.129  2.000  0.000 0  1735617281.910 iRoC  17.832
ODOM  277.000  452.000 -0.129  2.000  0.000 0  1735617281.910 iRoC  17.832
ODOM  278.000  452.000 -0.129  2.000  0.000 0  1735617281.910 iRoC  17.832
ODOM  279.000  452.000 -0.129  2.000  0.000 0  1735617281.910 iRoC  17.832
ODOM  280.000  452.000 -0.129  2.000  0.000 0  1735617281.910 iRoC  17.832
ODOM  281.000  453.000 -0.129  2.000  0.000 0  1735617281.910 iRoC  17.832
ODOM  282.000  453.000 -0.129  2.000  0.000 0  1735617281.910 iRoC  17.832
ODOM  283.000  453.000 -0.129  2.000  0.000 0  1735617281.910 iRoC  17.832
ODOM  284.000  453.000 -0.129  2.000  0.000 0  1735617281.910 iRoC  17.832
ODOM  285.000  453.000 -0.129  2.000  0.000 0  1735617281.910 iRoC  17.832
ODOM  286.000  453.000 -0.129  2.000  0.000 0  1735617281.910 iRoC  17.832
ODOM  287.000  453.000 -0.129  2.000  0.000 0  1735617281.910 iRoC  17.832
ODOM  288.000  453.000 -0.129  2.000  0.000 0  1735617281.910 iRoC  17.832
ODOM  289.000  454.000 -0.129  2.000  0.000 0  1735617281.910 iRoC  17.832
ODOM  290.000  454.000 -0.129  2.000  0.000 0  1735617281.910 iRoC  17.832
ODOM  291.000  454.000 -0.129  2.000  0.000 0  1735617281.910 iRoC  17.832
ODOM  292.000  454.000 -0.129  2.000  0.000 0  1735617281.910 iRoC  17.832
ODOM  293.000  454.000 -0.129  2.000  0.000 0  1735617281.910 iRoC  17.832
ODOM  294.000  454.000 -0.129  2.000  0.000 0  1735617281.910 iRoC  17.832
ODOM  295.000  454.000 -0.129  2.000  0.000 0  1735617281.910 iRoC  17.832
ODOM  296.000  454.000 -0.129  2.000  0.000 0  1735617281.910 iRoC  17.832
ODOM  297.000  455.000 -0.129  2.000  0.000 0  1735617281.910 iRoC  17.832
ODOM  298.000  455.000 -0.129  2.000  0.000 0  1735617281.910 iRoC  17.832
ODOM  299.000  455.000 -0.129  2.000  0.000 0  1735617281.910 iRoC  17.832
ODOM  300.000  455.000 -0.129  2.000  0.000 0  1735617281.910 iRoC  17.832
ODOM  301.000  455.000 -0.129  2.000  0.000 0  1735617281.910 iRoC  17.832
ODOM  302.000  455.000 -0.129  2.000  0.000 0  1735617281.910 iRoC  17.832
ODOM  303.000  455.000 -0.129  2.000  0.000 0  1735617281.910 iRoC  17.832
ODOM  304.000  455.000 -0.129  2.000  0.000 0  1735617281.910 iRoC  17.832
ODOM  305.000  456.000 -0.129  2.000  0.000 0  1735617281.910 iRoC  17.832
ODOM  306.000  456.000 -0.129  2.000  0.000 0  1735617281.910 iRoC  17.832
ODOM  307.000  456.000 -0.129  2.000  0.000 0  1735617281.910 iRoC  17.832
ODOM  308.000  456.000 -0.129  2.000  0.000 0  1735617281.910 iRoC  17.832
ODOM  309.000  456.000 -0.129  2.000  0.000 0  1735617281.910 iRoC  17.832
ODOM  310.000  456.000 -0.129  2.000  0.000 0  1735617281.910 iRoC  17.832
ODOM  311.000  456.000 -0.129  2.000  0.000 0  1735617281.910 iRoC  17.832
ODOM  312.000  457.000 -0.129  2.000  0.000 0  1735617281.910 iRoC  17.832
ODOM  313.000  457.000 -0.129  2.000  0.000 0  1735617281.910 iRoC  17.832
ODOM  314.000  457.000 -0.129  2.000  0.000 0  1735617281.910 iRoC  17.832
ODOM  315.000  457.000 -0.129  2.000  0.000 0  1735617281.910 iRoC  17.832
ODOM  316.000  457.000 -0.129  2.000  0.000 0  1735617281.910 iRoC  17.832
ODOM  316.000  457.000 -0.129  2.000  0.000 0  1735617281.910 iRoC  17.832
ODOM  317.000  457.000 -0.129  2.000  0.000 0  1735617281.910 iRoC  17.832
ODOM  318.000  457.000 -0.129  2.000  0.000 0  1735617281.910 iRoC  17.832
ODOM  319.000  458.000 -0.129  2.000  0.000 0  1735617281.910 iRoC  17.832
ODOM  320.000  458.000 -0.129  2.000  0.000 0  1735617281.910 iRoC  17.832
ODOM  321.000  458.000 -0.129  2.000  0.000 0  1735617281.910 iRoC  17.832
ODOM  322.000  458.000 -0.129  2.000  0.000 0  1735617281.910 iRoC  17.832
ODOM  323.000  458.000 -0.129  2.000  0.000 0  1735617281.910 iRoC  17.832
ODOM  324.000  458.000 -0.129  2.000  0.000 0  1735617281.910 iRoC  17.832
ODOM  325.000  458.000 -0.129  2.000  0.000 0  1735617281.910 iRoC  17.832
ODOM  326.000  458.000 -0.129  2.000  0.000 0  1735617281.910 iRoC  17.832
ODOM  327.000  459.000 -0.129  2.000  0.000 0  1735617281.910 iRoC  17.832
ODOM  328.000  459.000 -0.129  2.000  0.000 0  1735617281.910 iRoC  17.832
ODOM  329.000  459.000 -0.129  2.000  0.000 0  1735617281.910 iRoC  17.832
ODOM  330.000  459.000 -0.129  2.000  0.000 0  1735617281.910 iRoC  17.832
ODOM  331.000  459.000 -0.129  2.000  0.000 0  1735617281.910 iRoC  17.832
ODOM  332.000  459.000 -0.129  2.000  0.000 0  1735617281.910 iRoC  17.832
ODOM  333.000  459.000 -0.129  2.000  0.000 0  1735617281.910 iRoC  17.832
ODOM  334.000  459.000 -0.129  2.000  0.000 0  1735617281.910 iRoC  17.832
ODOM  335.000  460.000 -0.129  2.000  0.000 0  1735617281.910 iRoC  17.832
ODOM  336.000  460.000 -0.129  2.000  0.000 0  1735617281.910 iRoC  17.832
ODOM  337.000  460.000 -0.129  2.000  0.000 0  1735617281.910 iRoC  17.832
ODOM  338.000  460.000 -0.129  2.000  0.000 0  1735617281.910 iRoC  17.832
ODOM  339.000  460.000 -0.129  2.000  0.000 0  1735617281.910 iRoC  17.832
ODOM  340.000  460.000 -0.129  2.000  0.000 0  1735617281.910 iRoC  17.832
ODOM  341.000  460.000 -0.129  2.000  0.000 0  1735617281.910 iRoC  17.832
ODOM  342.000  461.000 -0.129  2.000  0.000 0  1735617281.910 iRoC  17.832
ODOM  343.000  461.000 -0.129  2.000  0.000 0  1735617281.910 iRoC  17.832
ODOM  344.000  461.000 -0.109  2.000  2.000 0  1735617281.910 iRoC  17.832
ODOM  345.000  461.000 -0.089  2.000  2.000 0  1735617281.910 iRoC  17.832
ODOM  346.000  461.000 -0.069  2.000  2.000 0  1735617281.910 iRoC  17.832
ODOM  347.000  461.000 -0.049  2.000  2.000 0  1735617281.910 iRoC  17.832
ODOM  348.000  461.000 -0.029  2.000  2.000 0  1735617281.910 iRoC  17.832
ODOM  349.000  461.000 -0.009  2.000  2.000 0  1735617281.910 iRoC  17.832
ODOM  350.000  461.000  0.011  2.000  2.000 0  1735617281.910 iRoC  17.832
ODOM  351.000  461.000  0.031  2.000  2.000 0  1735617281.910 iRoC  17.832
ODOM  352.000  461.000  0.051  2.000  2.000 0  1735617281.910 iRoC  17.832
ODOM  353.000  461.000  0.071  2.000  2.000 0  1735617281.910 iRoC  17.832
ODOM  354.000  461.000  0.091  2.000  2.000 0  1735617281.910 iRoC  17.832
ODOM  355.000  461.000  0.111  2.000  2.000 0  1735617281.910 iRoC  17.832
ODOM  356.000  461.000  0.131  2.000  2.000 0  1735617281.910 iRoC  17.832
ODOM  357.000  460.000  0.151  2.000  2.000 0  1735617281.910 iRoC  17.832
ODOM  358.000  460.000  0.171  2.000  2.000 0  1735617281.910 iRoC  17.832
ODOM  359.000  460.000  0.191  2.000  2.000 0  1735617281.910 iRoC  17.832
ODOM  360.000  460.000  0.211  2.000  2.000 0  1735617281.910 iRoC  17.832
ODOM  361.000  460.000  0.231  2.000  2.000 0  1735617281.910 iRoC  17.832
ODOM  362.000  459.000  0.251  2.000  2.000 0  1735617281.910 iRoC  17.832
ODOM  363.000  459.000  0.271  2.000  2.000 0  1735617281.910 iRoC  17.832
ODOM  364.000  459.000  0.291  2.000  2.000 0  1735617281.910 iRoC  17.832
ODOM  365.000  459.000  0.311  2.000  2.000 0  1735617281.910 iRoC  17.832
ODOM  366.000  458.000  0.331  2.000  2.000 0  1735617281.910 iRoC  17.832
ODOM  367.000  458.000  0.351  2.000  2.000 0  1735617281.910 iRoC  17.832
ODOM  368.000  458.000  0.371  2.000  2.000 0  1735617281.910 iRoC  17.832
ODOM  369.000  457.000  0.391  2.000  2.000 0  1735617281.910 iRoC  17.832
ODOM  370.000  457.000  0.411  2.000  2.000 0  1735617281.910 iRoC  17.832
ODOM  371.000  456.000  0.431  2.000  2.000 0  1735617281.910 iRoC  17.832
ODOM  371.000  456.000  0.451  2.000  2.000 0  1735617281.910 iRoC  17.832
ODOM  372.000  456.000  0.471  2.000  2.000 0  1735617281.910 iRoC  17.832
ODOM  373.000  455.000  0.491  2.000  2.000 0  1735617281.910 iRoC  17.832
ODOM  374.000  455.000  0.511  2.000  2.000 0  1735617281.910 iRoC  17.832
ODOM  375.000  454.000  0.531  2.000  2.000 0  1735617281.910 iRoC  17.832
ODOM  376.000  454.000  0.551  2.000  2.000 0  1735617281.910 iRoC  17.832
ODOM  377.000  453.000  0.571  2.000  2.000 0  1735617281.910 iRoC  17.832
ODOM  378.000  453.000  0.591  2.000  2.000 0  1735617281.910 iRoC  17.832
ODOM  378.000  452.000  0.611  2.000  2.000 0  1735617281.910 iRoC  17.832
ODOM  379.000  451.000  0.631  2.000  2.000 0  1735617281.910 iRoC  17.832
ODOM  380.000  451.000  0.651  2.000  2.000 0  1735617281.910 iRoC  17.832
ODOM  381.000  450.000  0.671  2.000  2.000 0  1735617281.910 iRoC  17.832
ODOM  382.000  450.000  0.691  2.000  2.000 0  1735617281.910 iRoC  17.832
ODOM  382.000  449.000  0.711  2.000  2.000 0  1735617281.910 iRoC  17.832
ODOM  383.000  448.000  0.731  2.000  2.000 0  1735617281.910 iRoC  17.832
ODOM  384.000  448.000  0.751  2.000  2.000 0  1735617281.910 iRoC  17.832
ODOM  385.000  447.000  0.771  2.000  2.000 0  1735617281.910 iRoC  17.832
ODOM  385.000  446.000  0.771  2.000  0.000 0  1735617281.910 iRoC  17.832
ODOM  386.000  446.000  0.771  2.000  0.000 0  1735617281.910 iRoC  17.832
ODOM  387.000  445.000  0.771  2.000  0.000 0  1735617281.910 iRoC  17.832
ODOM  387.000  444.000  0.771  2.000  0.000 0  1735617281.910 iRoC  17.832
ODOM  388.000  443.000  0.771  2.000  0.000 0  1735617281.910 iRoC  17.832
ODOM  389.000  443.000  0.771  2.000  0.000 0  1735617281.910 iRoC  17.832
ODOM  390.000  442.000  0.771  2.000  0.000 0  1735617281.910 iRoC  17.832
ODOM  390.000  441.000  0.771  2.000  0.000 0  1735617281.910 iRoC  17.832
ODOM  391.000  441.000  0.771  2.000  0.000 0  1735617281.910 iRoC  17.832
ODOM  392.000  440.000  0.771  2.000  0.000 0  1735617281.910 iRoC  17.832
ODOM  392.000  439.000  0.771  2.000  0.000 0  1735617281.910 iRoC  17.832
ODOM  393.000  439.000  0.771  2.000  0.000 0  1735617281.910 iRoC  17.832
ODOM  394.000  438.000  0.771  2.000  0.000 0  1735617281.910 iRoC  17.832
ODOM  395.000  437.000  0.771  2.000  0.000 0  1735617281.910 iRoC  17.832
ODOM  395.000  436.000  0.771  2.000  0.000 0  1735617281.910 iRoC  17.832
ODOM  396.000  436.000  0.771  2.000  0.000 0  1735617281.910 iRoC  17.832
ODOM  397.000  435.000  0.771  2.000  0.000 0  1735617281.910 iRoC  17.832
ODOM  397.000  434.000  0.771  2.000  0.000 0  1735617281.910 iRoC  17.832
ODOM  398.000  434.000  0.771  2.000  0.000 0  1735617281.910 iRoC  17.832
ODOM  399.000  433.000  0.771  2.000  0.000 0  1735617281.910 iRoC  17.832
ODOM  400.000  432.000  0.771  2.000  0.000 0  1735617281.910 iRoC  17.832
ODOM  400.000  432.000  0.771  2.000  0.000 0  1735617281.910 iRoC  17.832
ODOM  401.000  431.000  0.771  2.000  0.000 0  1735617281.910 iRoC  17.832
ODOM  402.000  430.000  0.771  2.000  0.000 0  1735617281.910 iRoC  17.832
ODOM  402.000  429.000  0.771  2.000  0.000 0  1735617281.910 iRoC  17.832
ODOM  403.000  429.000  0.771  2.000  0.000 0  1735617281.910 iRoC  17.832
ODOM  404.000  428.000  0.771  2.000  0.000 0  1735617281.910 iRoC  17.832
ODOM  405.000  427.000  0.771  2.000  0.000 0  1735617281.910 iRoC  17.832
ODOM  405.000  427.000  0.771  2.000  0.000 0  1735617281.910 iRoC  17.832
ODOM  406.000  426.000  0.771  2.000  0.000 0  1735617281.910 iRoC  17.832
ODOM  407.000  425.000  0.771  2.000  0.000 0  1735617281.910 iRoC  17.832
ODOM  408.000  425.000  0.771  2.000  0.000 0  1735617281.910 iRoC  17.832
ODOM  408.000  424.000  0.771  2.000  0.000 0  1735617281.910 iRoC  17.832
ODOM  409.000  423.000  0.771  2.000  0.000 0  1735617281.910 iRoC  17.832
ODOM  410.000  423.000  0.771  2.000  0.000 0  1735617281.910 iRoC  17.832
ODOM  410.000  422.000  0.771  2.000  0.000 0  1735617281.910 iRoC  17.832
ODOM  411.000  421.000  0.771  2.000  0.000 0  1735617281.910 iRoC  17.832
ODOM  412.000  420.000  0.771  2.000  0.000 0  1735617281.910 iRoC  17.832
ODOM  413.000  420.000  0.771  2.000  0.000 0  1735617281.910 iRoC  17.832
ODOM  413.000  419.000  0.771  2.000  0.000 0  1735617281.910 iRoC  17.832
ODOM  414.000  418.000  0.771  2.000  0.000 0  1735617281.910 iRoC  17.832
ODOM  415.000  418.000  0.771  2.000  0.000 0  1735617281.910 iRoC  17.832
ODOM  415.000  417.000  0.771  2.000  0.000 0  1735617281.910 iRoC  17.832
ODOM  416.000  416.000  0.771  2.000  0.000 0  1735617281.910 iRoC  17.832
ODOM  417.000  416.000  0.771  2.000  0.000 0  1735617281.910 iRoC  17.832
ODOM  418.000  415.000  0.771  2.000  0.000 0  1735617281.910 iRoC  17.832
ODOM  418.000  414.000  0.771  2.000  0.000 0  1735617281.910 iRoC  17.833
ODOM  419.000  413.000  0.771  2.000  0.000 0  1735617281.910 iRoC  17.833
ODOM  420.000  413.000  0.771  2.000  0.000 0  1735617281.910 iRoC  17.833
ODOM  420.000  412.000  0.771  2.000  0.000 0  1735617281.910 iRoC  17.833
ODOM  421.000  411.000  0.771  2.000  0.000 0  1735617281.910 iRoC  17.833
ODOM  422.000  411.000  0.771  2.000  0.000 0  1735617281.910 iRoC  17.833
ODOM  423.000  410.000  0.771  2.000  0.000 0  1735617281.910 iRoC  17.833
ODOM  423.000  409.000  0.771  2.000  0.000 0  1735617281.910 iRoC  17.833
ODOM  424.000  409.000  0.771  2.000  0.000 0  1735617281.910 iRoC  17.833
ODOM  425.000  408.000  0.771  2.000  0.000 0  1735617281.910 iRoC  17.833
ODOM  425.000  407.000  0.771  2.000  0.000 0  1735617281.910 iRoC  17.833
ODOM  426.000  407.000  0.771  2.000  0.000 0  1735617281.910 iRoC  17.833
ODOM  427.000  406.000  0.771  2.000  0.000 0  1735617281.910 iRoC  17.833
ODOM  428.000  405.000  0.771  2.000  0.000 0  1735617281.910 iRoC  17.833
ODOM  428.000  404.000  0.771  2.000  0.000 0  1735617281.910 iRoC  17.833
ODOM  429.000  404.000  0.771  2.000  0.000 0  1735617281.910 iRoC  17.833
ODOM  430.000  403.000  0.771  2.000  0.000 0  1735617281.910 iRoC  17.833
ODOM  430.000  402.000  0.771  2.000  0.000 0  1735617281.910 iRoC  17.833
ODOM  431.000  402.000  0.771  2.000  0.000 0  1735617281.910 iRoC  17.833
ODOM  432.000  401.000  0.771  2.000  0.000 0  1735617281.910 iRoC  17.833
ODOM  433.000  400.000  0.771  2.000  0.000 0  1735617281.910 iRoC  17.833
ODOM  433.000  400.000  0.771  2.000  0.000 0  1735617281.910 iRoC  17.833
ODOM  434.000  399.000  0.771  2.000  0.000 0  1735617281.910 iRoC  17.833
ODOM  435.000  398.000  0.771  2.000  0.000 0  1735617281.910 iRoC  17.833
ODOM  435.000  397.000  0.771  2.000  0.000 0  1735617281.910 iRoC  17.833
ODOM  436.000  397.000  0.771  2.000  0.000 0  1735617281.910 iRoC  17.833
ODOM  437.000  396.000  0.771  2.000  0.000 0  1735617281.910 iRoC  17.833
ODOM  438.000  395.000  0.771  2.000  0.000 0  1735617281.910 iRoC  17.833
ODOM  438.000  395.000  0.771  2.000  0.000 0  1735617281.910 iRoC  17.833
ODOM  439.000  394.000  0.771  2.000  0.000 0  1735617281.910 iRoC  17.833
ODOM  440.000  393.000  0.771  2.000  0.000 0  1735617281.910 iRoC  17.833
ODOM  441.000  393.000  0.771  2.000  0.000 0  1735617281.910 iRoC  17.833
ODOM  441.000  392.000  0.771  2.000  0.000 0  1735617281.910 iRoC  17.833
ODOM  442.000  391.000  0.771  2.000  0.000 0  1735617281.910 iRoC  17.833
ODOM  443.000  390.000  0.751  2.000 -2.000 0  1735617281.910 iRoC  17.833
ODOM  443.000  390.000  0.731  2.000 -2.000 0  1735617281.910 iRoC  17.833
ODOM  444.000  389.000  0.711  2.000 -2.000 0  1735617281.910 iRoC  17.833
ODOM  445.000  389.000  0.691  2.000 -2.000 0  1735617281.910 iRoC  17.833
ODOM  446.000  388.000  0.671  2.000 -2.000 0  1735617281.910 iRoC  17.833
ODOM  446.000  387.000  0.651  2.000 -2.000 0  1735617281.910 iRoC  17.833
ODOM  447.000  387.000  0.631  2.000 -2.000 0  1735617281.910 iRoC  17.833
ODOM  448.000  386.000  0.611  2.000 -2.000 0  1735617281.910 iRoC  17.833
ODOM  449.000  386.000  0.591  2.000 -2.000 0  1735617281.910 iRoC  17.833
ODOM  450.000  385.000  0.571  2.000 -2.000 0  1735617281.910 iRoC  17.833
ODOM  451.000  384.000  0.551  2.000 -2.000 0  1735617281.910 iRoC  17.833
ODOM  451.000  384.000  0.551  2.000  0.000 0  1735617281.910 iRoC  17.833
ODOM  452.000  383.000  0.551  2.000  0.000 0  1735617281.910 iRoC  17.833
ODOM  453.000  383.000  0.551  2.000  0.000 0  1735617281.910 iRoC  17.833
ODOM  454.000  382.000  0.551  2.000  0.000 0  1735617281.910 iRoC  17.833
ODOM  455.000  382.000  0.551  2.000  0.000 0  1735617281.910 iRoC  17.833
ODOM  456.000  381.000  0.551  2.000  0.000 0  1735617281.910 iRoC  17.833
ODOM  457.000  381.000  0.551  2.000  0.000 0  1735617281.910 iRoC  17.833
ODOM  457.000  380.000  0.551  2.000  0.000 0  1735617281.910 iRoC  17.833
ODOM  458.000  380.000  0.551  2.000  0.000 0  1735617281.910 iRoC  17.833
ODOM  459.000  379.000  0.551  2.000  0.000 0  1735617281.910 iRoC  17.833
ODOM  460.000  379.000  0.551  2.000  0.000 0  1735617281.910 iRoC  17.833
ODOM  461.000  378.000  0.551  2.000  0.000 0  1735617281.910 iRoC  17.833
ODOM  462.000  378.000  0.551  2.000  0.000 0  1735617281.910 iRoC  17.833
ODOM  463.000  377.000  0.551  2.000  0.000 0  1735617281.910 iRoC  17.833
ODOM  463.000  377.000  0.551  2.000  0.000 0  1735617281.910 iRoC  17.833
ODOM  464.000  376.000  0.551  2.000  0.000 0  1735617281.910 iRoC  17.833
ODOM  465.000  376.000  0.551  2.000  0.000 0  1735617281.910 iRoC  17.833
ODOM  466.000  375.000  0.551  2.000  0.000 0  1735617281.910 iRoC  17.833
ODOM  467.000  374.000  0.551  2.000  0.000 0  1735617281.910 iRoC  17.833
ODOM  468.000  374.000  0.551  2.000  0.000 0  1735617281.910 iRoC  17.833
ODOM  468.000  373.000  0.551  2.000  0.000 0  1735617281.910 iRoC  17.833
ODOM  469.000  373.000  0.531  2.000 -2.000 0  1735617281.910 iRoC  17.833
ODOM  470.000  372.000  0.511  2.000 -2.000 0  1735617281.910 iRoC  17.833
ODOM  471.000  372.000  0.491  2.000 -2.000 0  1735617281.910 iRoC  17.833
ODOM  472.000  371.000  0.471  2.000 -2.000 0  1735617281.910 iRoC  17.833
ODOM  473.000  371.000  0.451  2.000 -2.000 0  1735617281.910 iRoC  17.833
ODOM  474.000  371.000  0.431  2.000 -2.000 0  1735617281.910 iRoC  17.833
ODOM  475.000  370.000  0.411  2.000 -2.000 0  1735617281.910 iRoC  17.833
ODOM  476.000  370.000  0.391  2.000 -2.000 0  1735617281.910 iRoC  17.833
ODOM  477.000  369.000  0.371  2.000 -2.000 0  1735617281.910 iRoC  17.833
ODOM  477.000  369.000  0.351  2.000 -2.000 0  1735617281.910 iRoC  17.833
ODOM  478.000  369.000  0.351  2.000  0.000 0  1735617281.910 iRoC  17.833
ODOM  479.000  368.000  0.351  2.000  0.000 0  1735617281.910 iRoC  17.833
ODOM  480.000  368.000  0.351  2.000  0.000 0  1735617281.910 iRoC  17.833
ODOM  481.000  368.000  0.351  2.000  0.000 0  1735617281.910 iRoC  17.833
ODOM  482.000  367.000  0.351  2.000  0.000 0  1735617281.910 iRoC  17.833
ODOM  483.000  367.000  0.351  2.000  0.000 0  1735617281.910 iRoC  17.833
ODOM  484.000  367.000  0.351  2.000  0.000 0  1735617281.910 iRoC  17.833
ODOM  485.000  366.000  0.351  2.000  0.000 0  1735617281.910 iRoC  17.833
ODOM  486.000  366.000  0.351  2.000  0.000 0  1735617281.910 iRoC  17.833
ODOM  487.000  366.000  0.351  2.000  0.000 0  1735617281.910 iRoC  17.833
ODOM  488.000  365.000  0.351  2.000  0.000 0  1735617281.910 iRoC  17.833
ODOM  489.000  365.000  0.351  2.000  0.000 0  1735617281.910 iRoC  17.833
ODOM  490.000  365.000  0.351  2.000  0.000 0  1735617281.910 iRoC  17.833
ODOM  491.000  364.000  0.351  2.000  0.000 0  1735617281.910 iRoC  17.833
ODOM  492.000  364.000  0.351  2.000  0.000 0  1735617281.910 iRoC  17.833
ODOM  493.000  364.000  0.351  2.000  0.000 0  1735617281.910 iRoC  17.833
ODOM  493.000  363.000  0.351  2.000  0.000 0  1735617281.910 iRoC  17.833
ODOM  494.000  363.000  0.351  2.000  0.000 0  1735617281.910 iRoC  17.833
ODOM  495.000  363.000  0.331  2.000 -2.000 0  1735617281.910 iRoC  17.833
ODOM  496.000  362.000  0.311  2.000 -2.000 0  1735617281.910 iRoC  17.833
ODOM  497.000  362.000  0.291  2.000 -2.000 0  1735617281.910 iRoC  17.833
ODOM  498.000  362.000  0.271  2.000 -2.000 0  1735617281.910 iRoC  17.833
ODOM  499.000  361.000  0.251  2.000 -2.000 0  1735617281.910 iRoC  17.833
ODOM  500.000  361.000  0.231  2.000 -2.000 0  1735617281.910 iRoC  17.833
ODOM  501.000  361.000  0.211  2.000 -2.000 0  1735617281.910 iRoC  17.833
ODOM  502.000  361.000  0.191  2.000 -2.000 0  1735617281.910 iRoC  17.833
ODOM  503.000  361.000  0.171  2.000 -2.000 0  1735617281.910 iRoC  17.833
ODOM  504.000  360.000  0.151  2.000 -2.000 0  1735617281.910 iRoC  17.833
ODOM  505.000  360.000  0.131  2.000 -2.000 0  1735617281.910 iRoC  17.833
ODOM  506.000  360.000  0.111  2.000 -2.000 0  1735617281.910 iRoC  17.833
ODOM  507.000  360.000  0.091  2.000 -2.000 0  1735617281.910 iRoC  17.833
ODOM  508.000  360.000  0.071  2.000 -2.000 0  1735617281.910 iRoC  17.833
ODOM  509.000  360.000  0.051  2.000 -2.000 0  1735617281.910 iRoC  17.833
ODOM  510.000  360.000  0.031  2.000 -2.000 0  1735617281.910 iRoC  17.833
ODOM  511.000  360.000  0.031  2.000  0.000 0  1735617281.910 iRoC  17.833
ODOM  512.000  360.000  0.031  2.000  0.000 0  1735617281.910 iRoC  17.833
ODOM  513.000  360.000  0.031  2.000  0.000 0  1735617281.910 iRoC  17.833
ODOM  514.000  360.000  0.031  2.000  0.000 0  1735617281.910 iRoC  17.833
ODOM  515.000  360.000  0.031  2.000  0.000 0  1735617281.910 iRoC  17.833
ODOM  516.000  360.000  0.031  2.000  0.000 0  1735617281.910 iRoC  17.833
ODOM  517.000  360.000  0.031  2.000  0.000 0  1735617281.910 iRoC  17.833
ODOM  518.000  360.000  0.031  2.000  0.000 0  1735617281.910 iRoC  17.833
ODOM  519.000  360.000  0.031  2.000  0.000 0  1735617281.910 iRoC  17.833
ODOM  520.000  360.000  0.031  2.000  0.000 0  1735617281.910 iRoC  17.833
ODOM  521.000  360.000  0.031  2.000  0.000 0  1735617281.910 iRoC  17.833
ODOM  522.000  360.000  0.031  2.000  0.000 0  1735617281.910 iRoC  17.833
ODOM  523.000  359.000  0.031  2.000  0.000 0  1735617281.910 iRoC  17.833
ODOM  524.000  359.000  0.031  2.000  0.000 0  1735617281.910 iRoC  17.833
ODOM  525.000  359.000  0.031  2.000  0.000 0  1735617281.910 iRoC  17.833
ODOM  526.000  359.000  0.031  2.000  0.000 0  1735617281.910 iRoC  17.833
ODOM  527.000  359.000  0.031  2.000  0.000 0  1735617281.910 iRoC  17.833
ODOM  528.000  359.000  0.031  2.000  0.000 0  1735617281.910 iRoC  17.833
ODOM  529.000  359.000  0.031  2.000  0.000 0  1735617281.910 iRoC  17.833
ODOM  530.000  359.000  0.031  2.000  0.000 0  1735617281.910 iRoC  17.833
ODOM  531.000  359.000  0.031  2.000  0.000 0  1735617281.910 iRoC  17.833
ODOM  532.000  359.000  0.031  2.000  0.000 0  1735617281.910 iRoC  17.833
ODOM  533.000  359.000  0.031  2.000  0.000 0  1735617281.910 iRoC  17.833
ODOM  534.000  359.000  0.031  2.000  0.000 0  1735617281.910 iRoC  17.833
ODOM  535.000  359.000  0.031  2.000  0.000 0  1735617281.910 iRoC  17.833
ODOM  536.000  359.000  0.031  2.000  0.000 0  1735617281.910 iRoC  17.833
ODOM  537.000  359.000  0.031  2.000  0.000 0  1735617281.910 iRoC  17.833
ODOM  538.000  359.000  0.031  2.000  0.000 0  1735617281.910 iRoC  17.833
ODOM  539.000  359.000  0.031  2.000  0.000 0  1735617281.910 iRoC  17.833
ODOM  540.000  359.000  0.031  2.000  0.000 0  1735617281.910 iRoC  17.833
ODOM  541.000  359.000  0.031  2.000  0.000 0  1735617281.910 iRoC  17.833
ODOM  542.000  359.000  0.031  2.000  0.000 0  1735617281.910 iRoC  17.833
ODOM  543.000  359.000  0.031  2.000  0.000 0  1735617281.910 iRoC  17.833
ODOM  544.000  359.000  0.031  2.000  0.000 0  1735617281.910 iRoC  17.833
ODOM  545.000  359.000  0.031  2.000  0.000 0  1735617281.910 iRoC  17.833
ODOM  546.000  359.000  0.031  2.000  0.000 0  1735617281.910 iRoC  17.833
ODOM  547.000  359.000  0.031  2.000  0.000 0  1735617281.910 iRoC  17.833
ODOM  548.000  359.000  0.031  2.000  0.000 0  1735617281.910 iRoC  17.833
ODOM  549.000  359.000  0.031  2.000  0.000 0  1735617281.910 iRoC  17.833
ODOM  550.000  359.000  0.031  2.000  0.000 0  1735617281.910 iRoC  17.833
ODOM  551.000  359.000  0.031  2.000  0.000 0  1735617281.910 iRoC  17.833
ODOM  552.000  359.000  0.031  2.000  0.000 0  1735617281.910 iRoC  17.833
ODOM  553.000  359.000  0.031  2.000  0.000 0  1735617281.910 iRoC  17.833
ODOM  554.000  359.000  0.031  2.000  0.000 0  1735617281.910 iRoC  17.833
ODOM  555.000  359.000  0.031  2.000  0.000 0  1735617281.910 iRoC  17.833
ODOM  556.000  358.000  0.031  2.000  0.000 0  1735617281.910 iRoC  17.833
ODOM  557.000  358.000  0.031  2.000  0.000 0  1735617281.910 iRoC  17.833
ODOM  558.000  358.000  0.031  2.000  0.000 0  1735617281.910 iRoC  17.833
ODOM  559.000  358.000  0.031  2.000  0.000 0  1735617281.910 iRoC  17.833
ODOM  560.000  358.000  0.031  2.000  0.000 0  1735617281.910 iRoC  17.833
ODOM  561.000  358.000  0.031  2.000  0.000 0  1735617281.910 iRoC  17.833
ODOM  562.000  358.000  0.031  2.000  0.000 0  1735617281.910 iRoC  17.833
ODOM  563.000  358.000  0.031  2.000  0.000 0  1735617281.910 iRoC  17.833
ODOM  564.000  358.000  0.031  2.000  0.000 0  1735617281.910 iRoC  17.833
ODOM  565.000  358.000  0.031  2.000  0.000 0  1735617281.910 iRoC  17.833
ODOM  566.000  358.000  0.031  2.000  0.000 0  1735617281.910 iRoC  17.833
ODOM  567.000  358.000  0.031  2.000  0.000 0  1735617281.910 iRoC  17.833
ODOM  568.000  358.000  0.031  2.000  0.000 0  1735617281.910 iRoC  17.833
ODOM  569.000  358.000  0.031  2.000  0.000 0  1735617281.910 iRoC  17.833
ODOM  570.000  358.000  0.031  2.000  0.000 0  1735617281.910 iRoC  17.833
ODOM  571.000  358.000  0.031  2.000  0.000 0  1735617281.910 iRoC  17.833
ODOM  572.000  358.000  0.031  2.000  0.000 0  1735617281.910 iRoC  17.833
ODOM  573.000  358.000  0.031  2.000  0.000 0  1735617281.910 iRoC  17.833
ODOM  574.000  358.000  0.031  2.000  0.000 0  1735617281.910 iRoC  17.833
ODOM  575.000  358.000  0.031  2.000  0.000 0  1735617281.910 iRoC  17.833
ODOM  576.000  358.000  0.031  2.000  0.000 0  1735617281.910 iRoC  17.833
ODOM  577.000  358.000  0.031  2.000  0.000 0  1735617281.910 iRoC  17.833
ODOM  578.000  358.000  0.031  2.000  0.000 0  1735617281.910 iRoC  17.833
ODOM  579.000  358.000  0.031  2.000  0.000 0  1735617281.910 iRoC  17.833
ODOM  580.000  358.000  0.031  2.000  0.000 0  1735617281.910 iRoC  17.833
ODOM  581.000  358.000  0.031  2.000  0.000 0  1735617281.910 iRoC  17.833
ODOM  582.000  358.000  0.031  2.000  0.000 0  1735617281.910 iRoC  17.833
ODOM  583.000  358.000  0.031  2.000  0.000 0  1735617281.910 iRoC  17.833
ODOM  584.000  358.000  0.031  2.000  0.000 0  1735617281.910 iRoC  17.833
ODOM  585.000  358.000  0.031  2.000  0.000 0  1735617281.910 iRoC  17.833
ODOM  586.000  358.000  0.031  2.000  0.000 0  1735617281.910 iRoC  17.833
ODOM  587.000  358.000  0.031  2.000  0.000 0  1735617281.910 iRoC  17.833
ODOM  588.000  357.000  0.031  2.000  0.000 0  1735617281.910 iRoC  17.833
ODOM  589.000  357.000  0.031  2.000  0.000 0  1735617281.910 iRoC  17.833
ODOM  590.000  357.000  0.031  2.000  0.000 0  1735617281.910 iRoC  17.833
ODOM  591.000  357.000  0.031  2.000  0.000 0  1735617281.910 iRoC  17.833
ODOM  592.000  357.000  0.031  2.000  0.000 0  1735617281.910 iRoC  17.833
ODOM  593.000  357.000  0.031  2.000  0.000 0  1735617281.910 iRoC  17.833
ODOM  594.000  357.000  0.031  2.000  0.000 0  1735617281.910 iRoC  17.833
ODOM  595.000  357.000  0.031  2.000  0.000 0  1735617281.910 iRoC  17.833
ODOM  596.000  357.000  0.031  2.000  0.000 0  1735617281.910 iRoC  17.833
ODOM  597.000  357.000  0.031  2.000  0.000 0  1735617281.910 iRoC  17.833
ODOM  598.000  357.000  0.031  2.000  0.000 0  1735617281.910 iRoC  17.833
ODOM  599.000  357.000  0.031  2.000  0.000 0  1735617281.910 iRoC  17.833
ODOM  600.000  357.000  0.031  2.000  0.000 0  1735617281.910 iRoC  17.833
ODOM  601.000  357.000  0.031  2.000  0.000 0  1735617281.910 iRoC  17.833
ODOM  602.000  357.000  0.031  2.000  0.000 0  1735617281.910 iRoC  17.833
ODOM  603.000  357.000  0.031  2.000  0.000 0  1735617281.910 iRoC  17.833
ODOM  604.000  357.000  0.031  2.000  0.000 0  1735617281.910 iRoC  17.833
ODOM  605.000  357.000  0.031  2.000  0.000 0  1735617281.910 iRoC  17.833
ODOM  606.000  357.000  0.031  2.000  0.000 0  1735617281.910 iRoC  17.833
ODOM  607.000  357.000  0.031  2.000  0.000 0  1735617281.910 iRoC  17.833
ODOM  608.000  357.000  0.031  2.000  0.000 0  1735617281.910 iRoC  17.833
ODOM  609.000  357.000  0.031  2.000  0.000 0  1735617281.910 iRoC  17.833
ODOM  610.000  357.000  0.031  2.000  0.000 0  1735617281.910 iRoC  17.833
ODOM  611.000  357.000  0.031  2.000  0.000 0  1735617281.910 iRoC  17.833
ODOM  612.000  357.000  0.031  2.000  0.000 0  1735617281.910 iRoC  17.833
ODOM  613.000  357.000  0.031  2.000  0.000 0  1735617281.910 iRoC  17.833
ODOM  614.000  357.000  0.031  2.000  0.000 0  1735617281.910 iRoC  17.833
ODOM  615.000  357.000  0.031  2.000  0.000 0  1735617281.910 iRoC  17.833
ODOM  616.000  357.000  0.031  2.000  0.000 0  1735617281.910 iRoC  17.833
ODOM  617.000  357.000  0.031  2.000  0.000 0  1735617281.910 iRoC  17.833
ODOM  618.000  357.000  0.031  2.000  0.000 0  1735617281.910 iRoC  17.833
ODOM  619.000  357.000  0.031  2.000  0.000 0  1735617281.910 iRoC  17.833
ODOM  620.000  357.000  0.031  2.000  0.000 0  1735617281.910 iRoC  17.833
ODOM  621.000  356.000  0.031  2.000  0.000 0  1735617281.910 iRoC  17.833
ODOM  622.000  356.000  0.031  2.000  0.000 0  1735617281.910 iRoC  17.833
ODOM  623.000  356.000  0.011  2.000 -2.000 0  1735617281.910 iRoC  17.833
ODOM  624.000  356.000 -0.009  2.000 -2.000 0  1735617281.910 iRoC  17.833
ODOM  625.000  356.000 -0.029  2.000 -2.000 0  1735617281.910 iRoC  17.833
ODOM  626.000  356.000 -0.049  2.000 -2.000 0  1735617281.910 iRoC  17.833
ODOM  627.000  357.000 -0.069  2.000 -2.000 0  1735617281.910 iRoC  17.833
ODOM  628.000  357.000 -0.089  2.000 -2.000 0  1735617281.910 iRoC  17.833
ODOM  629.000  357.000 -0.109  2.000 -2.000 0  1735617281.910 iRoC  17.833
ODOM  630.000  357.000 -0.129  2.000 -2.000 0  1735617281.910 iRoC  17.833
ODOM  631.000  357.000 -0.129  2.000  0.000 0  1735617281.910 iRoC  17.833
ODOM  632.000  357.000 -0.129  2.000  0.000 0  1735617281.910 iRoC  17.833
ODOM  633.000  357.000 -0.129  2.000  0.000 0  1735617281.910 iRoC  17.833
ODOM  634.000  357.000 -0.129  2.000  0.000 0  1735617281.910 iRoC  17.833
ODOM  635.000  357.000 -0.129  2.000  0.000 0  1735617281.910 iRoC  17.833
ODOM  636.000  358.000 -0.129  2.000  0.000 0  1735617281.910 iRoC  17.833
ODOM  637.000  358.000 -0.129  2.000  0.000 0  1735617281.910 iRoC  17.833
ODOM  638.000  358.000 -0.129  2.000  0.000 0  1735617281.910 iRoC  17.833
ODOM  639.000  358.000 -0.129  2.000  0.000 0  1735617281.910 iRoC  17.833
ODOM  640.000  358.000 -0.129  2.000  0.000 0  1735617281.910 iRoC  17.833
ODOM  641.000  358.000 -0.129  2.000  0.000 0  1735617281.910 iRoC  17.833
ODOM  642.000  358.000 -0.129  2.000  0.000 0  1735617281.910 iRoC  17.833
ODOM  643.000  359.000 -0.129  2.000  0.000 0  1735617281.910 iRoC  17.833
ODOM  644.000  359.000 -0.129  2.000  0.000 0  1735617281.910 iRoC  17.833
ODOM  645.000  359.000 -0.129  2.000  0.000 0  1735617281.910 iRoC  17.833
ODOM  646.000  359.000 -0.129  2.000  0.000 0  1735617281.910 iRoC  17.833
ODOM  647.000  359.000 -0.129  2.000  0.000 0  1735617281.910 iRoC  17.833
ODOM  648.000  359.000 -0.129  2.000  0.000 0  1735617281.910 iRoC  17.833
ODOM  649.000  359.000 -0.129  2.000  0.000 0  1735617281.910 iRoC  17.833
ODOM  650.000  359.000 -0.129  2.000  0.000 0  1735617281.910 iRoC  17.833
ODOM  651.000  360.000 -0.129  2.000  0.000 0  1735617281.910 iRoC  17.833
ODOM  652.000  360.000 -0.129  2.000  0.000 0  1735617281.910 iRoC  17.833
ODOM  653.000  360.000 -0.129  2.000  0.000 0  1735617281.910 iRoC  17.833
ODOM  654.000  360.000 -0.129  2.000  0.000 0  1735617281.910 iRoC  17.833
ODOM  655.000  360.000 -0.129  2.000  0.000 0  1735617281.910 iRoC  17.833
ODOM  656.000  360.000 -0.129  2.000  0.000 0  1735617281.910 iRoC  17.833
