ODOM  1.000  1.000  1.571  0.000  0.000 0  1735617281.910 iRoC  17.835
ODOM  1.000  1.000  1.571  0.000  0.000 0  1735617281.910 iRoC  17.835
ODOM  1.000  1.000  1.571  0.000  0.000 0  1735617281.910 iRoC  17.835
ODOM  1.000  1.000  1.571  0.000  0.000 0  1735617281.910 iRoC  17.835
ODOM  1.000  1.000  1.571  0.000  0.000 0  1735617281.910 iRoC  17.835
ODOM  1.000  1.000  1.571  0.000  0.000 0  1735617281.910 iRoC  17.835
ODOM  1.000  1.000  1.571  0.000  0.000 0  1735617281.910 iRoC  17.835
ODOM  1.000  1.000  1.571  0.000  0.000 0  1735617281.910 iRoC  17.835
ODOM  1.000  1.000  1.571  0.000  0.000 0  1735617281.910 iRoC  17.835
ODOM  1.000  1.000  1.571  0.000  0.000 0  1735617281.910 iRoC  17.835
ODOM  1.000  1.000  1.571  0.000  0.000 0  1735617281.910 iRoC  17.835
ODOM  1.000  1.000  1.571  0.000  0.000 0  1735617281.910 iRoC  17.835
ODOM  1.000  1.000  1.571  0.000  0.000 0  1735617281.910 iRoC  17.835
ODOM  1.000  1.000  1.571  0.000  0.000 0  1735617281.910 iRoC  17.835
ODOM  1.000  1.000  1.571  0.000  0.000 0  1735617281.910 iRoC  17.835
ODOM  1.000  1.000  1.571  0.000  0.000 0  1735617281.910 iRoC  17.835
ODOM  1.000  1.000  1.571  0.000  0.000 0  1735617281.910 iRoC  17.835
ODOM  1.000  1.000  1.571  0.000  0.000 0  1735617281.910 iRoC  17.835
ODOM  1.000  1.000  1.571  0.000  0.000 0  1735617281.910 iRoC  17.835
ODOM  1.000  1.000  1.571  0.000  0.000 0  1735617281.910 iRoC  17.835
ODOM  1.000  1.000  1.571  0.000  0.000 0  1735617281.910 iRoC  17.835
ODOM  1.000  1.000  1.571  0.000  0.000 0  1735617281.910 iRoC  17.835
ODOM  1.000  1.000  1.571  0.000  0.000 0  1735617281.910 iRoC  17.835
ODOM  1.000  1.000  1.571  0.000  0.000 0  1735617281.910 iRoC  17.835
ODOM  1.000  1.000  1.571  0.000  0.000 0  1735617281.910 iRoC  17.835
ODOM  1.000  1.000  1.571  0.000  0.000 0  1735617281.910 iRoC  17.835
ODOM  1.000  1.000  1.571  0.000  0.000 0  1735617281.910 iRoC  17.835
ODOM  1.000  1.000  1.571  0.000  0.000 0  1735617281.910 iRoC  17.835
ODOM  1.000  1.000  1.571  0.000  0.000 0  1735617281.910 iRoC  17.835
ODOM  1.000  1.000  1.571  0.000  0.000 0  1735617281.910 iRoC  17.835
ODOM  1.000  1.000  1.571  0.000  0.000 0  1735617281.910 iRoC  17.835
ODOM  1.000  1.000  1.571  0.000  0.000 0  1735617281.910 iRoC  17.835
ODOM  1.000  1.000  1.571  0.000  0.000 0  1735617281.910 iRoC  17.835
ODOM  1.000  1.000  1.571  0.000  0.000 0  1735617281.910 iRoC  17.835
ODOM  1.000  1.000  1.571  0.000  0.000 0  1735617281.910 iRoC  17.835
ODOM  1.000  1.000  1.571  0.000  0.000 0  1735617281.910 iRoC  17.835
ODOM  1.000  1.000  1.571  0.000  0.000 0  1735617281.910 iRoC  17.835
ODOM  1.000  1.000  1.571  0.000  0.000 0  1735617281.910 iRoC  17.835
ODOM  1.000  1.000  1.571  0.000  0.000 0  1735617281.910 iRoC  17.835
ODOM  1.000  1.000  1.571  0.000  0.000 0  1735617281.910 iRoC  17.835
ODOM  1.000  1.000  1.571  0.000  0.000 0  1735617281.910 iRoC  17.835
ODOM  1.000  1.000  1.571  0.000  0.000 0  1735617281.910 iRoC  17.835
ODOM  1.000  1.000  1.571  0.000  0.000 0  1735617281.910 iRoC  17.835
ODOM  1.000  1.000  1.571  0.000  0.000 0  1735617281.910 iRoC  17.835
ODOM  1.000  1.000  1.571  0.000  0.000 0  1735617281.910 iRoC  17.835
ODOM  1.000  1.000  1.571  0.000  0.000 0  1735617281.910 iRoC  17.835
ODOM  1.000  1.000  1.571  0.000  0.000 0  1735617281.910 iRoC  17.835
ODOM  1.000  1.000  1.571  0.000  0.000 0  1735617281.910 iRoC  17.835
ODOM  1.000  1.020  1.571  2.000  0.000 0  1735617281.910 iRoC  17.835
ODOM  1.000  1.040  1.571  2.000  0.000 0  1735617281.910 iRoC  17.835
ODOM  1.000  1.060  1.571  2.000  0.000 0  1735617281.910 iRoC  17.835
ODOM  1.000  1.080  1.571  2.000  0.000 0  1735617281.910 iRoC  17.835
ODOM  1.000  1.100  1.571  2.000  0.000 0  1735617281.910 iRoC  17.835
ODOM  1.000  1.120  1.571  2.000  0.000 0  1735617281.910 iRoC  17.835
ODOM  1.000  1.140  1.571  2.000  0.000 0  1735617281.910 iRoC  17.835
ODOM  1.000  1.160  1.571  2.000  0.000 0  1735617281.910 iRoC  17.835
ODOM  1.000  1.180  1.571  2.000  0.000 0  1735617281.910 iRoC  17.835
ODOM  1.000  1.200  1.571  2.000  0.000 0  1735617281.910 iRoC  17.835
ODOM  1.000  1.220  1.571  2.000  0.000 0  1735617281.910 iRoC  17.835
ODOM  1.000  1.240  1.571  2.000  0.000 0  1735617281.910 iRoC  17.835
ODOM  1.000  1.260  1.571  2.000  0.000 0  1735617281.910 iRoC  17.835
ODOM  1.000  1.280  1.571  2.000  0.000 0  1735617281.910 iRoC  17.835
ODOM  1.000  1.300  1.571  2.000  0.000 0  1735617281.910 iRoC  17.835
ODOM  1.000  1.320  1.571  2.000  0.000 0  1735617281.910 iRoC  17.835
ODOM  1.000  1.340  1.571  2.000  0.000 0  1735617281.910 iRoC  17.835
ODOM  1.000  1.360  1.571  2.000  0.000 0  1735617281.910 iRoC  17.835
ODOM  1.000  1.380  1.571  2.000  0.000 0  1735617281.910 iRoC  17.835
ODOM  1.000  1.400  1.571  2.000  0.000 0  1735617281.910 iRoC  17.835
ODOM  1.000  1.420  1.571  2.000  0.000 0  1735617281.910 iRoC  17.835
ODOM  1.000  1.440  1.571  2.000  0.000 0  1735617281.910 iRoC  17.835
ODOM  1.000  1.460  1.571  2.000  0.000 0  1735617281.910 iRoC  17.835
ODOM  1.000  1.480  1.571  2.000  0.000 0  1735617281.910 iRoC  17.835
ODOM  1.000  1.500  1.571  2.000  0.000 0  1735617281.910 iRoC  17.835
ODOM  1.000  1.520  1.571  2.000  0.000 0  1735617281.910 iRoC  17.835
ODOM  1.000  1.540  1.571  2.000  0.000 0  1735617281.910 iRoC  17.835
ODOM  1.000  1.560  1.571  2.000  0.000 0  1735617281.910 iRoC  17.835
ODOM  1.000  1.580  1.571  2.000  0.000 0  1735617281.910 iRoC  17.835
ODOM  1.000  1.600  1.571  2.000  0.000 0  1735617281.910 iRoC  17.835
ODOM  1.000  1.620  1.571  2.000  0.000 0  1735617281.910 iRoC  17.835
ODOM  1.000  1.640  1.571  2.000  0.000 0  1735617281.910 iRoC  17.835
ODOM  1.000  1.660  1.571  2.000  0.000 0  1735617281.910 iRoC  17.835
ODOM  1.000  1.680  1.571  2.000  0.000 0  1735617281.910 iRoC  17.835
ODOM  1.000  1.700  1.571  2.000  0.000 0  1735617281.910 iRoC  17.835
ODOM  1.000  1.720  1.571  2.000  0.000 0  1735617281.910 iRoC  17.835
ODOM  1.000  1.740  1.571  2.000  0.000 0  1735617281.910 iRoC  17.835
ODOM  1.000  1.760  1.571  2.000  0.000 0  1735617281.910 iRoC  17.835
ODOM  1.000  1.780  1.571  2.000  0.000 0  1735617281.910 iRoC  17.835
ODOM  1.000  1.800  1.571  2.000  0.000 0  1735617281.910 iRoC  17.835
ODOM  1.000  1.820  1.571  2.000  0.000 0  1735617281.910 iRoC  17.835
ODOM  1.000  1.840  1.571  2.000  0.000 0  1735617281.910 iRoC  17.835
ODOM  1.000  1.860  1.571  2.000  0.000 0  1735617281.910 iRoC  17.835
ODOM  1.000  1.880  1.571  2.000  0.000 0  1735617281.910 iRoC  17.835
ODOM  1.000  1.900  1.571  2.000  0.000 0  1735617281.910 iRoC  17.835
ODOM  1.000  1.920  1.571  2.000  0.000 0  1735617281.910 iRoC  17.835
ODOM  1.000  1.940  1.571  2.000  0.000 0  1735617281.910 iRoC  17.835
ODOM  1.000  1.960  1.571  2.000  0.000 0  1735617281.910 iRoC  17.835
ODOM  1.000  1.980  1.571  2.000  0.000 0  1735617281.910 iRoC  17.835
ODOM  1.000  2.000  1.571  2.000  0.000 0  1735617281.910 iRoC  17.835
ODOM  1.000  2.020  1.571  2.000  0.000 0  1735617281.910 iRoC  17.835
ODOM  1.000  2.040  1.571  2.000  0.000 0  1735617281.910 iRoC  17.835
ODOM  1.000  2.060  1.571  2.000  0.000 0  1735617281.910 iRoC  17.835
ODOM  1.000  2.080  1.571  2.000  0.000 0  1735617281.910 iRoC  17.835
ODOM  1.000  2.100  1.551  2.000 -2.000 0  1735617281.910 iRoC  17.835
ODOM  1.000  2.120  1.531  2.000 -2.000 0  1735617281.910 iRoC  17.835
ODOM  1.000  2.140  1.511  2.000 -2.000 0  1735617281.910 iRoC  17.835
ODOM  1.000  2.160  1.491  2.000 -2.000 0  1735617281.910 iRoC  17.835
ODOM  1.000  2.180  1.471  2.000 -2.000 0  1735617281.910 iRoC  17.835
ODOM  1.000  2.200  1.451  2.000 -2.000 0  1735617281.910 iRoC  17.835
ODOM  1.000  2.220  1.431  2.000 -2.000 0  1735617281.910 iRoC  17.835
ODOM  1.000  2.240  1.411  2.000 -2.000 0  1735617281.910 iRoC  17.835
ODOM  1.000  2.260  1.391  2.000 -2.000 0  1735617281.910 iRoC  17.835
ODOM  1.000  2.280  1.371  2.000 -2.000 0  1735617281.910 iRoC  17.835
ODOM  1.020  2.300  1.351  2.000 -2.000 0  1735617281.910 iRoC  17.835
ODOM  1.020  2.320  1.331  2.000 -2.000 0  1735617281.910 iRoC  17.835
ODOM  1.020  2.340  1.311  2.000 -2.000 0  1735617281.910 iRoC  17.835
ODOM  1.020  2.360  1.291  2.000 -2.000 0  1735617281.910 iRoC  17.835
ODOM  1.040  2.380  1.271  2.000 -2.000 0  1735617281.910 iRoC  17.835
ODOM  1.040  2.400  1.251  2.000 -2.000 0  1735617281.910 iRoC  17.835
ODOM  1.040  2.420  1.231  2.000 -2.000 0  1735617281.910 iRoC  17.835
ODOM  1.060  2.440  1.211  2.000 -2.000 0  1735617281.910 iRoC  17.835
ODOM  1.060  2.460  1.191  2.000 -2.000 0  1735617281.910 iRoC  17.835
ODOM  1.060  2.480  1.171  2.000 -2.000 0  1735617281.910 iRoC  17.835
ODOM  1.080  2.500  1.151  2.000 -2.000 0  1735617281.910 iRoC  17.835
ODOM  1.080  2.520  1.131  2.000 -2.000 0  1735617281.910 iRoC  17.835
ODOM  1.100  2.540  1.111  2.000 -2.000 0  1735617281.910 iRoC  17.835
ODOM  1.100  2.560  1.091  2.000 -2.000 0  1735617281.910 iRoC  17.835
ODOM  1.120  2.560  1.071  2.000 -2.000 0  1735617281.910 iRoC  17.835
ODOM  1.120  2.580  1.051  2.000 -2.000 0  1735617281.910 iRoC  17.835
ODOM  1.140  2.600  1.031  2.000 -2.000 0  1735617281.910 iRoC  17.835
ODOM  1.140  2.620  1.011  2.000 -2.000 0  1735617281.910 iRoC  17.835
ODOM  1.160  2.640  0.991  2.000 -2.000 0  1735617281.910 iRoC  17.835
ODOM  1.160  2.660  0.971  2.000 -2.000 0  1735617281.910 iRoC  17.835
ODOM  1.180  2.680  0.951  2.000 -2.000 0  1735617281.910 iRoC  17.835
ODOM  1.180  2.680  0.931  2.000 -2.000 0  1735617281.910 iRoC  17.835
ODOM  1.200  2.700  0.911  2.000 -2.000 0  1735617281.910 iRoC  17.835
ODOM  1.220  2.720  0.891  2.000 -2.000 0  1735617281.910 iRoC  17.835
ODOM  1.220  2.740  0.871  2.000 -2.000 0  1735617281.910 iRoC  17.835
ODOM  1.240  2.740  0.851  2.000 -2.000 0  1735617281.910 iRoC  17.835
ODOM  1.260  2.760  0.831  2.000 -2.000 0  1735617281.910 iRoC  17.835
ODOM  1.260  2.780  0.811  2.000 -2.000 0  1735617281.910 iRoC  17.835
ODOM  1.280  2.800  0.791  2.000 -2.000 0  1735617281.910 iRoC  17.835
ODOM  1.300  2.800  0.771  2.000 -2.000 0  1735617281.910 iRoC  17.835
ODOM  1.300  2.820  0.751  2.000 -2.000 0  1735617281.910 iRoC  17.835
ODOM  1.320  2.840  0.731  2.000 -2.000 0  1735617281.910 iRoC  17.835
ODOM  1.340  2.840  0.711  2.000 -2.000 0  1735617281.910 iRoC  17.835
ODOM  1.360  2.860  0.691  2.000 -2.000 0  1735617281.910 iRoC  17.835
ODOM  1.360  2.880  0.671  2.000 -2.000 0  1735617281.910 iRoC  17.835
ODOM  1.380  2.880  0.651  2.000 -2.000 0  1735617281.910 iRoC  17.835
ODOM  1.400  2.900  0.631  2.000 -2.000 0  1735617281.910 iRoC  17.835
ODOM  1.420  2.900  0.611  2.000 -2.000 0  1735617281.910 iRoC  17.835
ODOM  1.440  2.920  0.591  2.000 -2.000 0  1735617281.910 iRoC  17.835
ODOM  1.440  2.940  0.571  2.000 -2.000 0  1735617281.910 iRoC  17.835
ODOM  1.460  2.940  0.551  2.000 -2.000 0  1735617281.910 iRoC  17.835
ODOM  1.480  2.960  0.531  2.000 -2.000 0  1735617281.910 iRoC  17.835
ODOM  1.500  2.960  0.511  2.000 -2.000 0  1735617281.910 iRoC  17.835
ODOM  1.520  2.980  0.491  2.000 -2.000 0  1735617281.910 iRoC  17.835
ODOM  1.540  2.980  0.471  2.000 -2.000 0  1735617281.910 iRoC  17.835
ODOM  1.560  3.000  0.451  2.000 -2.000 0  1735617281.910 iRoC  17.835
ODOM  1.580  3.000  0.431  2.000 -2.000 0  1735617281.910 iRoC  17.835
ODOM  1.600  3.000  0.411  2.000 -2.000 0  1735617281.910 iRoC  17.835
ODOM  1.600  3.020  0.391  2.000 -2.000 0  1735617281.910 iRoC  17.835
ODOM  1.620  3.020  0.371  2.000 -2.000 0  1735617281.910 iRoC  17.835
ODOM  1.640  3.020  0.351  2.000 -2.000 0  1735617281.910 iRoC  17.835
ODOM  1.660  3.040  0.331  2.000 -2.000 0  1735617281.910 iRoC  17.835
ODOM  1.680  3.040  0.311  2.000 -2.000 0  1735617281.910 iRoC  17.835
ODOM  1.700  3.040  0.291  2.000 -2.000 0  1735617281.910 iRoC  17.836
ODOM  1.720  3.060  0.271  2.000 -2.000 0  1735617281.910 iRoC  17.836
ODOM  1.740  3.060  0.251  2.000 -2.000 0  1735617281.910 iRoC  17.836
ODOM  1.760  3.060  0.231  2.000 -2.000 0  1735617281.910 iRoC  17.836
ODOM  1.780  3.060  0.211  2.000 -2.000 0  1735617281.910 iRoC  17.836
ODOM  1.800  3.080  0.191  2.000 -2.000 0  1735617281.910 iRoC  17.836
ODOM  1.820  3.080  0.171  2.000 -2.000 0  1735617281.910 iRoC  17.836
ODOM  1.840  3.080  0.151  2.000 -2.000 0  1735617281.910 iRoC  17.836
ODOM  1.860  3.080  0.131  2.000 -2.000 0  1735617281.910 iRoC  17.836
ODOM  1.880  3.080  0.111  2.000 -2.000 0  1735617281.910 iRoC  17.836
ODOM  1.900  3.080  0.091  2.000 -2.000 0  1735617281.910 iRoC  17.836
ODOM  1.920  3.080  0.071  2.000 -2.000 0  1735617281.910 iRoC  17.836
ODOM  1.940  3.080  0.051  2.000 -2.000 0  1735617281.910 iRoC  17.836
ODOM  1.960  3.080  0.031  2.000 -2.000 0  1735617281.910 iRoC  17.836
ODOM  1.980  3.080  0.011  2.000 -2.000 0  1735617281.910 iRoC  17.836
ODOM  2.000  3.100  0.011  2.000  0.000 0  1735617281.910 iRoC  17.836
ODOM  2.020  3.100  0.011  2.000  0.000 0  1735617281.910 iRoC  17.836
ODOM  2.040  3.100  0.011  2.000  0.000 0  1735617281.910 iRoC  17.836
ODOM  2.060  3.100  0.011  2.000  0.000 0  1735617281.910 iRoC  17.836
ODOM  2.080  3.100  0.031  2.000  2.000 0  1735617281.910 iRoC  17.836
ODOM  2.100  3.100  0.051  2.000  2.000 0  1735617281.910 iRoC  17.836
ODOM  2.120  3.100  0.071  2.000  2.000 0  1735617281.910 iRoC  17.836
ODOM  2.140  3.100  0.091  2.000  2.000 0  1735617281.910 iRoC  17.836
ODOM  2.160  3.100  0.111  2.000  2.000 0  1735617281.910 iRoC  17.836
ODOM  2.180  3.100  0.131  2.000  2.000 0  1735617281.910 iRoC  17.836
ODOM  2.200  3.100  0.151  2.000  2.000 0  1735617281.910 iRoC  17.836
ODOM  2.220  3.100  0.171  2.000  2.000 0  1735617281.910 iRoC  17.836
ODOM  2.240  3.100  0.191  2.000  2.000 0  1735617281.910 iRoC  17.836
ODOM  2.260  3.120  0.211  2.000  2.000 0  1735617281.910 iRoC  17.836
ODOM  2.280  3.120  0.231  2.000  2.000 0  1735617281.910 iRoC  17.836
ODOM  2.300  3.120  0.251  2.000  2.000 0  1735617281.910 iRoC  17.836
ODOM  2.320  3.120  0.271  2.000  2.000 0  1735617281.910 iRoC  17.836
ODOM  2.340  3.140  0.291  2.000  2.000 0  1735617281.910 iRoC  17.836
ODOM  2.360  3.140  0.311  2.000  2.000 0  1735617281.910 iRoC  17.836
ODOM  2.380  3.140  0.331  2.000  2.000 0  1735617281.910 iRoC  17.836
ODOM  2.400  3.160  0.351  2.000  2.000 0  1735617281.910 iRoC  17.836
ODOM  2.420  3.160  0.371  2.000  2.000 0  1735617281.910 iRoC  17.836
ODOM  2.420  3.160  0.391  2.000  2.000 0  1735617281.910 iRoC  17.836
ODOM  2.440  3.180  0.411  2.000  2.000 0  1735617281.910 iRoC  17.836
ODOM  2.460  3.180  0.431  2.000  2.000 0  1735617281.910 iRoC  17.836
ODOM  2.480  3.200  0.451  2.000  2.000 0  1735617281.910 iRoC  17.836
ODOM  2.500  3.200  0.471  2.000  2.000 0  1735617281.910 iRoC  17.836
ODOM  2.520  3.200  0.491  2.000  2.000 0  1735617281.910 iRoC  17.836
ODOM  2.540  3.220  0.511  2.000  2.000 0  1735617281.910 iRoC  17.836
ODOM  2.560  3.220  0.531  2.000  2.000 0  1735617281.910 iRoC  17.836
ODOM  2.580  3.240  0.551  2.000  2.000 0  1735617281.910 iRoC  17.836
ODOM  2.580  3.240  0.571  2.000  2.000 0  1735617281.910 iRoC  17.836
ODOM  2.600  3.260  0.591  2.000  2.000 0  1735617281.910 iRoC  17.836
ODOM  2.620  3.280  0.611  2.000  2.000 0  1735617281.910 iRoC  17.836
ODOM  2.640  3.280  0.631  2.000  2.000 0  1735617281.910 iRoC  17.836
ODOM  2.660  3.300  0.651  2.000  2.000 0  1735617281.910 iRoC  17.836
ODOM  2.680  3.300  0.671  2.000  2.000 0  1735617281.910 iRoC  17.836
ODOM  2.680  3.320  0.691  2.000  2.000 0  1735617281.910 iRoC  17.836
ODOM  2.700  3.340  0.711  2.000  2.000 0  1735617281.910 iRoC  17.836
ODOM  2.720  3.340  0.731  2.000  2.000 0  1735617281.910 iRoC  17.836
ODOM  2.740  3.360  0.751  2.000  2.000 0  1735617281.910 iRoC  17.836
ODOM  2.740  3.380  0.771  2.000  2.000 0  1735617281.910 iRoC  17.836
ODOM  2.760  3.380  0.791  2.000  2.000 0  1735617281.910 iRoC  17.836
ODOM  2.780  3.400  0.811  2.000  2.000 0  1735617281.910 iRoC  17.836
ODOM  2.780  3.420  0.831  2.000  2.000 0  1735617281.910 iRoC  17.836
ODOM  2.800  3.440  0.851  2.000  2.000 0  1735617281.910 iRoC  17.836
ODOM  2.820  3.440  0.871  2.000  2.000 0  1735617281.910 iRoC  17.836
ODOM  2.820  3.460  0.891  2.000  2.000 0  1735617281.910 iRoC  17.836
ODOM  2.840  3.480  0.911  2.000  2.000 0  1735617281.910 iRoC  17.836
ODOM  2.860  3.500  0.931  2.000  2.000 0  1735617281.910 iRoC  17.836
ODOM  2.860  3.500  0.951  2.000  2.000 0  1735617281.910 iRoC  17.836
ODOM  2.880  3.520  0.971  2.000  2.000 0  1735617281.910 iRoC  17.836
ODOM  2.880  3.540  0.991  2.000  2.000 0  1735617281.910 iRoC  17.836
ODOM  2.900  3.560  1.011  2.000  2.000 0  1735617281.910 iRoC  17.836
ODOM  2.900  3.580  1.031  2.000  2.000 0  1735617281.910 iRoC  17.836
ODOM  2.920  3.600  1.051  2.000  2.000 0  1735617281.910 iRoC  17.836
ODOM  2.920  3.620  1.071  2.000  2.000 0  1735617281.910 iRoC  17.836
ODOM  2.940  3.620  1.091  2.000  2.000 0  1735617281.910 iRoC  17.836
ODOM  2.940  3.640  1.111  2.000  2.000 0  1735617281.910 iRoC  17.836
ODOM  2.960  3.660  1.131  2.000  2.000 0  1735617281.910 iRoC  17.836
ODOM  2.960  3.680  1.151  2.000  2.000 0  1735617281.910 iRoC  17.836
ODOM  2.960  3.700  1.171  2.000  2.000 0  1735617281.910 iRoC  17.836
ODOM  2.980  3.720  1.191  2.000  2.000 0  1735617281.910 iRoC  17.836
ODOM  2.980  3.740  1.211  2.000  2.000 0  1735617281.910 iRoC  17.836
ODOM  3.000  3.760  1.231  2.000  2.000 0  1735617281.910 iRoC  17.836
ODOM  3.000  3.780  1.231  2.000  0.000 0  1735617281.910 iRoC  17.836
ODOM  3.000  3.800  1.211  2.000 -2.000 0  1735617281.910 iRoC  17.836
ODOM  3.020  3.820  1.191  2.000 -2.000 0  1735617281.910 iRoC  17.836
ODOM  3.020  3.840  1.171  2.000 -2.000 0  1735617281.910 iRoC  17.836
ODOM  3.020  3.860  1.151  2.000 -2.000 0  1735617281.910 iRoC  17.836
ODOM  3.040  3.860  1.131  2.000 -2.000 0  1735617281.910 iRoC  17.836
ODOM  3.040  3.880  1.111  2.000 -2.000 0  1735617281.910 iRoC  17.836
ODOM  3.060  3.900  1.091  2.000 -2.000 0  1735617281.910 iRoC  17.836
ODOM  3.060  3.920  1.071  2.000 -2.000 0  1735617281.910 iRoC  17.836
ODOM  3.080  3.940  1.051  2.000 -2.000 0  1735617281.910 iRoC  17.836
ODOM  3.080  3.960  1.031  2.000 -2.000 0  1735617281.910 iRoC  17.836
ODOM  3.100  3.980  1.011  2.000 -2.000 0  1735617281.910 iRoC  17.836
ODOM  3.100  4.000  0.991  2.000 -2.000 0  1735617281.910 iRoC  17.836
ODOM  3.120  4.000  0.971  2.000 -2.000 0  1735617281.910 iRoC  17.836
ODOM  3.120  4.020  0.951  2.000 -2.000 0  1735617281.910 iRoC  17.836
ODOM  3.140  4.040  0.931  2.000 -2.000 0  1735617281.910 iRoC  17.836
ODOM  3.160  4.060  0.911  2.000 -2.000 0  1735617281.910 iRoC  17.836
ODOM  3.160  4.080  0.891  2.000 -2.000 0  1735617281.910 iRoC  17.836
ODOM  3.180  4.080  0.871  2.000 -2.000 0  1735617281.910 iRoC  17.836
ODOM  3.180  4.100  0.851  2.000 -2.000 0  1735617281.910 iRoC  17.836
ODOM  3.200  4.120  0.831  2.000 -2.000 0  1735617281.910 iRoC  17.836
ODOM  3.220  4.140  0.811  2.000 -2.000 0  1735617281.910 iRoC  17.836
ODOM  3.220  4.140  0.791  2.000 -2.000 0  1735617281.910 iRoC  17.836
ODOM  3.240  4.160  0.771  2.000 -2.000 0  1735617281.910 iRoC  17.836
ODOM  3.260  4.180  0.751  2.000 -2.000 0  1735617281.910 iRoC  17.836
ODOM  3.280  4.180  0.731  2.000 -2.000 0  1735617281.910 iRoC  17.836
ODOM  3.280  4.200  0.711  2.000 -2.000 0  1735617281.910 iRoC  17.836
ODOM  3.300  4.220  0.691  2.000 -2.000 0  1735617281.910 iRoC  17.836
ODOM  3.320  4.220  0.671  2.000 -2.000 0  1735617281.910 iRoC  17.836
ODOM  3.340  4.240  0.651  2.000 -2.000 0  1735617281.910 iRoC  17.836
ODOM  3.360  4.260  0.631  2.000 -2.000 0  1735617281.910 iRoC  17.836
ODOM  3.360  4.260  0.611  2.000 -2.000 0  1735617281.910 iRoC  17.836
ODOM  3.380  4.280  0.591  2.000 -2.000 0  1735617281.910 iRoC  17.836
ODOM  3.400  4.280  0.571  2.000 -2.000 0  1735617281.910 iRoC  17.836
ODOM  3.420  4.300  0.551  2.000 -2.000 0  1735617281.910 iRoC  17.836
ODOM  3.440  4.300  0.531  2.000 -2.000 0  1735617281.910 iRoC  17.836
ODOM  3.460  4.320  0.511  2.000 -2.000 0  1735617281.910 iRoC  17.836
ODOM  3.460  4.320  0.491  2.000 -2.000 0  1735617281.910 iRoC  17.836
ODOM  3.480  4.340  0.471  2.000 -2.000 0  1735617281.910 iRoC  17.836
ODOM  3.500  4.340  0.451  2.000 -2.000 0  1735617281.910 iRoC  17.836
ODOM  3.520  4.360  0.431  2.000 -2.000 0  1735617281.910 iRoC  17.836
ODOM  3.540  4.360  0.411  2.000 -2.000 0  1735617281.910 iRoC  17.836
ODOM  3.560  4.360  0.391  2.000 -2.000 0  1735617281.910 iRoC  17.836
ODOM  3.580  4.380  0.371  2.000 -2.000 0  1735617281.910 iRoC  17.836
ODOM  3.600  4.380  0.351  2.000 -2.000 0  1735617281.910 iRoC  17.836
ODOM  3.620  4.380  0.331  2.000 -2.000 0  1735617281.910 iRoC  17.836
ODOM  3.640  4.400  0.311  2.000 -2.000 0  1735617281.910 iRoC  17.836
ODOM  3.660  4.400  0.291  2.000 -2.000 0  1735617281.910 iRoC  17.836
ODOM  3.680  4.400  0.271  2.000 -2.000 0  1735617281.910 iRoC  17.836
ODOM  3.700  4.420  0.251  2.000 -2.000 0  1735617281.910 iRoC  17.836
ODOM  3.720  4.420  0.231  2.000 -2.000 0  1735617281.910 iRoC  17.836
ODOM  3.740  4.420  0.211  2.000 -2.000 0  1735617281.910 iRoC  17.836
ODOM  3.760  4.420  0.191  2.000 -2.000 0  1735617281.910 iRoC  17.836
ODOM  3.780  4.420  0.171  2.000 -2.000 0  1735617281.910 iRoC  17.836
ODOM  3.800  4.440  0.151  2.000 -2.000 0  1735617281.910 iRoC  17.836
ODOM  3.820  4.440  0.131  2.000 -2.000 0  1735617281.910 iRoC  17.836
ODOM  3.840  4.440  0.111  2.000 -2.000 0  1735617281.910 iRoC  17.836
ODOM  3.840  4.440  0.091  2.000 -2.000 0  1735617281.910 iRoC  17.836
ODOM  3.860  4.440  0.071  2.000 -2.000 0  1735617281.910 iRoC  17.836
ODOM  3.880  4.440  0.051  2.000 -2.000 0  1735617281.910 iRoC  17.836
ODOM  3.900  4.440  0.031  2.000 -2.000 0  1735617281.910 iRoC  17.836
ODOM  3.920  4.440  0.011  2.000 -2.000 0  1735617281.910 iRoC  17.836
ODOM  3.940  4.440 -0.009  2.000 -2.000 0  1735617281.910 iRoC  17.836
ODOM  3.960  4.440 -0.029  2.000 -2.000 0  1735617281.910 iRoC  17.836
ODOM  3.980  4.440 -0.049  2.000 -2.000 0  1735617281.910 iRoC  17.836
ODOM  4.000  4.440 -0.069  2.000 -2.000 0  1735617281.910 iRoC  17.836
ODOM  4.020  4.440 -0.089  2.000 -2.000 0  1735617281.910 iRoC  17.836
ODOM  4.040  4.440 -0.109  2.000 -2.000 0  1735617281.910 iRoC  17.836
ODOM  4.060  4.440 -0.129  2.000 -2.000 0  1735617281.910 iRoC  17.836
ODOM  4.080  4.440 -0.149  2.000 -2.000 0  1735617281.910 iRoC  17.836
ODOM  4.100  4.420 -0.169  2.000 -2.000 0  1735617281.910 iRoC  17.836
ODOM  4.120  4.420 -0.189  2.000 -2.000 0  1735617281.910 iRoC  17.836
ODOM  4.140  4.420 -0.169  2.000  2.000 0  1735617281.910 iRoC  17.836
ODOM  4.160  4.420 -0.149  2.000  2.000 0  1735617281.910 iRoC  17.836
ODOM  4.180  4.420 -0.129  2.000  2.000 0  1735617281.910 iRoC  17.836
ODOM  4.200  4.420 -0.129  2.000  0.000 0  1735617281.910 iRoC  17.836
ODOM  4.220  4.420 -0.129  2.000  0.000 0  1735617281.910 iRoC  17.836
ODOM  4.240  4.400 -0.129  2.000  0.000 0  1735617281.910 iRoC  17.836
ODOM  4.260  4.400 -0.129  2.000  0.000 0  1735617281.910 iRoC  17.836
ODOM  4.280  4.400 -0.129  2.000  0.000 0  1735617281.910 iRoC  17.836
ODOM  4.300  4.400 -0.129  2.000  0.000 0  1735617281.910 iRoC  17.836
ODOM  4.320  4.400 -0.129  2.000  0.000 0  1735617281.910 iRoC  17.836
ODOM  4.340  4.400 -0.129  2.000  0.000 0  1735617281.910 iRoC  17.836
ODOM  4.360  4.400 -0.129  2.000  0.000 0  1735617281.910 iRoC  17.836
ODOM  4.380  4.380 -0.129  2.000  0.000 0  1735617281.910 iRoC  17.836
ODOM  4.400  4.380 -0.129  2.000  0.000 0  1735617281.910 iRoC  17.836
ODOM  4.420  4.380 -0.129  2.000  0.000 0  1735617281.910 iRoC  17.836
ODOM  4.440  4.380 -0.129  2.000  0.000 0  1735617281.910 iRoC  17.836
ODOM  4.460  4.380 -0.129  2.000  0.000 0  1735617281.910 iRoC  17.836
ODOM  4.480  4.380 -0.129  2.000  0.000 0  1735617281.910 iRoC  17.836
ODOM  4.500  4.380 -0.129  2.000  0.000 0  1735617281.910 iRoC  17.836
ODOM  4.520  4.380 -0.129  2.000  0.000 0  1735617281.910 iRoC  17.836
ODOM  4.540  4.360 -0.129  2.000  0.000 0  1735617281.910 iRoC  17.836
ODOM  4.560  4.360 -0.129  2.000  0.000 0  1735617281.910 iRoC  17.836
ODOM  4.580  4.360 -0.129  2.000  0.000 0  1735617281.910 iRoC  17.836
ODOM  4.600  4.360 -0.129  2.000  0.000 0  1735617281.910 iRoC  17.836
ODOM  4.620  4.360 -0.129  2.000  0.000 0  1735617281.910 iRoC  17.836
ODOM  4.640  4.360 -0.129  2.000  0.000 0  1735617281.910 iRoC  17.836
ODOM  4.660  4.360 -0.129  2.000  0.000 0  1735617281.910 iRoC  17.836
ODOM  4.680  4.360 -0.129  2.000  0.000 0  1735617281.910 iRoC  17.836
ODOM  4.700  4.340 -0.129  2.000  0.000 0  1735617281.910 iRoC  17.836
ODOM  4.720  4.340 -0.129  2.000  0.000 0  1735617281.910 iRoC  17.836
ODOM  4.740  4.340 -0.129  2.000  0.000 0  1735617281.910 iRoC  17.836
ODOM  4.760  4.340 -0.129  2.000  0.000 0  1735617281.910 iRoC  17.836
ODOM  4.780  4.340 -0.129  2.000  0.000 0  1735617281.910 iRoC  17.836
ODOM  4.800  4.340 -0.129  2.000  0.000 0  1735617281.910 iRoC  17.836
ODOM  4.820  4.340 -0.129  2.000  0.000 0  1735617281.910 iRoC  17.836
ODOM  4.840  4.340 -0.129  2.000  0.000 0  1735617281.910 iRoC  17.836
ODOM  4.860  4.320 -0.129  2.000  0.000 0  1735617281.910 iRoC  17.836
ODOM  4.880  4.320 -0.129  2.000  0.000 0  1735617281.910 iRoC  17.836
ODOM  4.900  4.320 -0.129  2.000  0.000 0  1735617281.910 iRoC  17.836
ODOM  4.920  4.320 -0.129  2.000  0.000 0  1735617281.910 iRoC  17.836
ODOM  4.940  4.320 -0.129  2.000  0.000 0  1735617281.910 iRoC  17.836
ODOM  4.960  4.320 -0.129  2.000  0.000 0  1735617281.910 iRoC  17.836
ODOM  4.980  4.320 -0.129  2.000  0.000 0  1735617281.910 iRoC  17.836
ODOM  5.000  4.300 -0.129  2.000  0.000 0  1735617281.910 iRoC  17.836
ODOM  5.020  4.300 -0.129  2.000  0.000 0  1735617281.910 iRoC  17.836
ODOM  5.040  4.300 -0.129  2.000  0.000 0  1735617281.910 iRoC  17.836
ODOM  5.060  4.300 -0.129  2.000  0.000 0  1735617281.910 iRoC  17.836
ODOM  5.080  4.300 -0.129  2.000  0.000 0  1735617281.910 iRoC  17.836
ODOM  5.100  4.300 -0.129  2.000  0.000 0  1735617281.910 iRoC  17.836
ODOM  5.120  4.300 -0.129  2.000  0.000 0  1735617281.910 iRoC  17.836
ODOM  5.140  4.300 -0.129  2.000  0.000 0  1735617281.910 iRoC  17.836
ODOM  5.160  4.280 -0.129  2.000  0.000 0  1735617281.910 iRoC  17.836
ODOM  5.180  4.280 -0.129  2.000  0.000 0  1735617281.910 iRoC  17.836
ODOM  5.200  4.280 -0.129  2.000  0.000 0  1735617281.910 iRoC  17.836
ODOM  5.220  4.280 -0.129  2.000  0.000 0  1735617281.910 iRoC  17.836
ODOM  5.240  4.280 -0.129  2.000  0.000 0  1735617281.910 iRoC  17.836
ODOM  5.260  4.280 -0.129  2.000  0.000 0  1735617281.910 iRoC  17.836
ODOM  5.280  4.280 -0.129  2.000  0.000 0  1735617281.910 iRoC  17.836
ODOM  5.300  4.280 -0.129  2.000  0.000 0  1735617281.910 iRoC  17.836
ODOM  5.320  4.260 -0.129  2.000  0.000 0  1735617281.910 iRoC  17.836
ODOM  5.340  4.260 -0.129  2.000  0.000 0  1735617281.910 iRoC  17.836
ODOM  5.360  4.260 -0.129  2.000  0.000 0  1735617281.910 iRoC  17.836
ODOM  5.380  4.260 -0.129  2.000  0.000 0  1735617281.910 iRoC  17.836
ODOM  5.400  4.260 -0.129  2.000  0.000 0  1735617281.910 iRoC  17.836
ODOM  5.420  4.260 -0.129  2.000  0.000 0  1735617281.910 iRoC  17.836
ODOM  5.440  4.260 -0.129  2.000  0.000 0  1735617281.910 iRoC  17.836
ODOM  5.460  4.260 -0.129  2.000  0.000 0  1735617281.910 iRoC  17.836
ODOM  5.480  4.240 -0.129  2.000  0.000 0  1735617281.910 iRoC  17.836
ODOM  5.500  4.240 -0.129  2.000  0.000 0  1735617281.910 iRoC  17.836
ODOM  5.520  4.240 -0.129  2.000  0.000 0  1735617281.910 iRoC  17.836
ODOM  5.540  4.240 -0.129  2.000  0.000 0  1735617281.910 iRoC  17.836
ODOM  5.560  4.240 -0.129  2.000  0.000 0  1735617281.910 iRoC  17.836
ODOM  5.580  4.240 -0.129  2.000  0.000 0  1735617281.910 iRoC  17.836
ODOM  5.600  4.240 -0.129  2.000  0.000 0  1735617281.910 iRoC  17.836
ODOM  5.620  4.220 -0.129  2.000  0.000 0  1735617281.910 iRoC  17.836
ODOM  5.640  4.220 -0.129  2.000  0.000 0  1735617281.910 iRoC  17.836
ODOM  5.660  4.220 -0.129  2.000  0.000 0  1735617281.910 iRoC  17.836
ODOM  5.680  4.220 -0.129  2.000  0.000 0  1735617281.910 iRoC  17.836
ODOM  5.700  4.220 -0.129  2.000  0.000 0  1735617281.910 iRoC  17.836
ODOM  5.720  4.220 -0.129  2.000  0.000 0  1735617281.910 iRoC  17.836
ODOM  5.740  4.220 -0.129  2.000  0.000 0  1735617281.910 iRoC  17.836
ODOM  5.760  4.220 -0.129  2.000  0.000 0  1735617281.910 iRoC  17.836
ODOM  5.780  4.200 -0.129  2.000  0.000 0  1735617281.910 iRoC  17.836
ODOM  5.800  4.200 -0.129  2.000  0.000 0  1735617281.910 iRoC  17.836
ODOM  5.820  4.200 -0.129  2.000  0.000 0  1735617281.910 iRoC  17.836
ODOM  5.840  4.200 -0.129  2.000  0.000 0  1735617281.910 iRoC  17.836
ODOM  5.860  4.200 -0.129  2.000  0.000 0  1735617281.910 iRoC  17.836
ODOM  5.880  4.200 -0.129  2.000  0.000 0  1735617281.910 iRoC  17.836
ODOM  5.900  4.200 -0.129  2.000  0.000 0  1735617281.910 iRoC  17.836
ODOM  5.920  4.200 -0.129  2.000  0.000 0  1735617281.910 iRoC  17.836
ODOM  5.940  4.180 -0.129  2.000  0.000 0  1735617281.910 iRoC  17.836
ODOM  5.960  4.180 -0.129  2.000  0.000 0  1735617281.910 iRoC  17.836
ODOM  5.980  4.180 -0.129  2.000  0.000 0  1735617281.910 iRoC  17.836
ODOM  6.000  4.180 -0.129  2.000  0.000 0  1735617281.910 iRoC  17.836
ODOM  6.020  4.180 -0.129  2.000  0.000 0  1735617281.910 iRoC  17.836
ODOM  6.040  4.180 -0.129  2.000  0.000 0  1735617281.910 iRoC  17.836
ODOM  6.060  4.180 -0.129  2.000  0.000 0  1735617281.910 iRoC  17.836
ODOM  6.080  4.180 -0.129  2.000  0.000 0  1735617281.910 iRoC  17.836
ODOM  6.100  4.160 -0.129  2.000  0.000 0  1735617281.910 iRoC  17.836
ODOM  6.120  4.160 -0.129  2.000  0.000 0  1735617281.910 iRoC  17.836
ODOM  6.140  4.160 -0.129  2.000  0.000 0  1735617281.910 iRoC  17.836
ODOM  6.160  4.160 -0.129  2.000  0.000 0  1735617281.910 iRoC  17.836
ODOM  6.180  4.160 -0.129  2.000  0.000 0  1735617281.910 iRoC  17.836
ODOM  6.200  4.160 -0.129  2.000  0.000 0  1735617281.910 iRoC  17.836
ODOM  6.220  4.160 -0.129  2.000  0.000 0  1735617281.910 iRoC  17.836
ODOM  6.240  4.140 -0.129  2.000  0.000 0  1735617281.910 iRoC  17.836
ODOM  6.260  4.140 -0.129  2.000  0.000 0  1735617281.910 iRoC  17.836
ODOM  6.280  4.140 -0.129  2.000  0.000 0  1735617281.910 iRoC  17.836
ODOM  6.300  4.140 -0.129  2.000  0.000 0  1735617281.910 iRoC  17.836
ODOM  6.320  4.140 -0.129  2.000  0.000 0  1735617281.910 iRoC  17.836
ODOM  6.320  4.140 -0.129  2.000  0.000 0  1735617281.910 iRoC  17.836
ODOM  6.340  4.140 -0.129  2.000  0.000 0  1735617281.910 iRoC  17.836
ODOM  6.360  4.140 -0.129  2.000  0.000 0  1735617281.910 iRoC  17.836
ODOM  6.380  4.120 -0.129  2.000  0.000 0  1735617281.910 iRoC  17.836
ODOM  6.400  4.120 -0.129  2.000  0.000 0  1735617281.910 iRoC  17.836
ODOM  6.420  4.120 -0.129  2.000  0.000 0  1735617281.910 iRoC  17.836
ODOM  6.440  4.120 -0.129  2.000  0.000 0  1735617281.910 iRoC  17.836
ODOM  6.460  4.120 -0.129  2.000  0.000 0  1735617281.910 iRoC  17.836
ODOM  6.480  4.120 -0.129  2.000  0.000 0  1735617281.910 iRoC  17.836
ODOM  6.500  4.120 -0.129  2.000  0.000 0  1735617281.910 iRoC  17.836
ODOM  6.520  4.120 -0.129  2.000  0.000 0  1735617281.910 iRoC  17.836
ODOM  6.540  4.100 -0.129  2.000  0.000 0  1735617281.910 iRoC  17.836
ODOM  6.560  4.100 -0.129  2.000  0.000 0  1735617281.910 iRoC  17.836
ODOM  6.580  4.100 -0.129  2.000  0.000 0  1735617281.910 iRoC  17.836
ODOM  6.600  4.100 -0.129  2.000  0.000 0  1735617281.910 iRoC  17.836
ODOM  6.620  4.100 -0.129  2.000  0.000 0  1735617281.910 iRoC  17.836
ODOM  6.640  4.100 -0.129  2.000  0.000 0  1735617281.910 iRoC  17.836
ODOM  6.660  4.100 -0.129  2.000  0.000 0  1735617281.910 iRoC  17.836
ODOM  6.680  4.100 -0.129  2.000  0.000 0  1735617281.910 iRoC  17.836
ODOM  6.700  4.080 -0.129  2.000  0.000 0  1735617281.910 iRoC  17.836
ODOM  6.720  4.080 -0.129  2.000  0.000 0  1735617281.910 iRoC  17.836
ODOM  6.740  4.080 -0.129  2.000  0.000 0  1735617281.910 iRoC  17.836
ODOM  6.760  4.080 -0.129  2.000  0.000 0  1735617281.910 iRoC  17.836
ODOM  6.780  4.080 -0.129  2.000  0.000 0  1735617281.910 iRoC  17.836
ODOM  6.800  4.080 -0.129  2.000  0.000 0  1735617281.910 iRoC  17.836
ODOM  6.820  4.080 -0.129  2.000  0.000 0  1735617281.910 iRoC  17.836
ODOM  6.840  4.060 -0.129  2.000  0.000 0  1735617281.910 iRoC  17.836
ODOM  6.860  4.060 -0.129  2.000  0.000 0  1735617281.910 iRoC  17.836
ODOM  6.880  4.060 -0.109  2.000  2.000 0  1735617281.910 iRoC  17.836
ODOM  6.900  4.060 -0.089  2.000  2.000 0  1735617281.910 iRoC  17.836
ODOM  6.920  4.060 -0.069  2.000  2.000 0  1735617281.910 iRoC  17.836
ODOM  6.940  4.060 -0.049  2.000  2.000 0  1735617281.910 iRoC  17.836
ODOM  6.960  4.060 -0.029  2.000  2.000 0  1735617281.910 iRoC  17.836
ODOM  6.980  4.060 -0.009  2.000  2.000 0  1735617281.910 iRoC  17.836
ODOM  7.000  4.060  0.011  2.000  2.000 0  1735617281.910 iRoC  17.836
ODOM  7.020  4.060  0.031  2.000  2.000 0  1735617281.910 iRoC  17.836
ODOM  7.040  4.060  0.051  2.000  2.000 0  1735617281.910 iRoC  17.836
ODOM  7.060  4.060  0.071  2.000  2.000 0  1735617281.910 iRoC  17.836
ODOM  7.080  4.060  0.091  2.000  2.000 0  1735617281.910 iRoC  17.836
ODOM  7.100  4.060  0.111  2.000  2.000 0  1735617281.910 iRoC  17.836
ODOM  7.120  4.060  0.131  2.000  2.000 0  1735617281.910 iRoC  17.836
ODOM  7.140  4.080  0.151  2.000  2.000 0  1735617281.910 iRoC  17.836
ODOM  7.160  4.080  0.171  2.000  2.000 0  1735617281.910 iRoC  17.836
ODOM  7.180  4.080  0.191  2.000  2.000 0  1735617281.910 iRoC  17.836
ODOM  7.200  4.080  0.211  2.000  2.000 0  1735617281.910 iRoC  17.836
ODOM  7.220  4.080  0.231  2.000  2.000 0  1735617281.910 iRoC  17.836
ODOM  7.240  4.100  0.251  2.000  2.000 0  1735617281.910 iRoC  17.836
ODOM  7.260  4.100  0.271  2.000  2.000 0  1735617281.910 iRoC  17.836
ODOM  7.280  4.100  0.291  2.000  2.000 0  1735617281.910 iRoC  17.836
ODOM  7.300  4.100  0.311  2.000  2.000 0  1735617281.910 iRoC  17.836
ODOM  7.320  4.120  0.331  2.000  2.000 0  1735617281.910 iRoC  17.836
ODOM  7.340  4.120  0.351  2.000  2.000 0  1735617281.910 iRoC  17.836
ODOM  7.360  4.120  0.371  2.000  2.000 0  1735617281.910 iRoC  17.836
ODOM  7.380  4.140  0.391  2.000  2.000 0  1735617281.910 iRoC  17.836
ODOM  7.400  4.140  0.411  2.000  2.000 0  1735617281.910 iRoC  17.837
ODOM  7.420  4.160  0.431  2.000  2.000 0  1735617281.910 iRoC  17.837
ODOM  7.420  4.160  0.451  2.000  2.000 0  1735617281.910 iRoC  17.837
ODOM  7.440  4.160  0.471  2.000  2.000 0  1735617281.910 iRoC  17.837
ODOM  7.460  4.180  0.491  2.000  2.000 0  1735617281.910 iRoC  17.837
ODOM  7.480  4.180  0.511  2.000  2.000 0  1735617281.910 iRoC  17.837
ODOM  7.500  4.200  0.531  2.000  2.000 0  1735617281.910 iRoC  17.837
ODOM  7.520  4.200  0.551  2.000  2.000 0  1735617281.910 iRoC  17.837
ODOM  7.540  4.220  0.571  2.000  2.000 0  1735617281.910 iRoC  17.837
ODOM  7.560  4.220  0.591  2.000  2.000 0  1735617281.910 iRoC  17.837
ODOM  7.560  4.240  0.611  2.000  2.000 0  1735617281.910 iRoC  17.837
ODOM  7.580  4.260  0.631  2.000  2.000 0  1735617281.910 iRoC  17.837
ODOM  7.600  4.260  0.651  2.000  2.000 0  1735617281.910 iRoC  17.837
ODOM  7.620  4.280  0.671  2.000  2.000 0  1735617281.910 iRoC  17.837
ODOM  7.640  4.280  0.691  2.000  2.000 0  1735617281.910 iRoC  17.837
ODOM  7.640  4.300  0.711  2.000  2.000 0  1735617281.910 iRoC  17.837
ODOM  7.660  4.320  0.731  2.000  2.000 0  1735617281.910 iRoC  17.837
ODOM  7.680  4.320  0.751  2.000  2.000 0  1735617281.910 iRoC  17.837
ODOM  7.700  4.340  0.771  2.000  2.000 0  1735617281.910 iRoC  17.837
ODOM  7.700  4.360  0.771  2.000  0.000 0  1735617281.910 iRoC  17.837
ODOM  7.720  4.360  0.771  2.000  0.000 0  1735617281.910 iRoC  17.837
ODOM  7.740  4.380  0.771  2.000  0.000 0  1735617281.910 iRoC  17.837
ODOM  7.740  4.400  0.771  2.000  0.000 0  1735617281.910 iRoC  17.837
ODOM  7.760  4.420  0.771  2.000  0.000 0  1735617281.910 iRoC  17.837
ODOM  7.780  4.420  0.771  2.000  0.000 0  1735617281.910 iRoC  17.837
ODOM  7.800  4.440  0.771  2.000  0.000 0  1735617281.910 iRoC  17.837
ODOM  7.800  4.460  0.771  2.000  0.000 0  1735617281.910 iRoC  17.837
ODOM  7.820  4.460  0.771  2.000  0.000 0  1735617281.910 iRoC  17.837
ODOM  7.840  4.480  0.771  2.000  0.000 0  1735617281.910 iRoC  17.837
ODOM  7.840  4.500  0.771  2.000  0.000 0  1735617281.910 iRoC  17.837
ODOM  7.860  4.500  0.771  2.000  0.000 0  1735617281.910 iRoC  17.837
ODOM  7.880  4.520  0.771  2.000  0.000 0  1735617281.910 iRoC  17.837
ODOM  7.900  4.540  0.771  2.000  0.000 0  1735617281.910 iRoC  17.837
ODOM  7.900  4.560  0.771  2.000  0.000 0  1735617281.910 iRoC  17.837
ODOM  7.920  4.560  0.771  2.000  0.000 0  1735617281.910 iRoC  17.837
ODOM  7.940  4.580  0.771  2.000  0.000 0  1735617281.910 iRoC  17.837
ODOM  7.940  4.600  0.771  2.000  0.000 0  1735617281.910 iRoC  17.837
ODOM  7.960  4.600  0.771  2.000  0.000 0  1735617281.910 iRoC  17.837
ODOM  7.980  4.620  0.771  2.000  0.000 0  1735617281.910 iRoC  17.837
ODOM  8.000  4.640  0.771  2.000  0.000 0  1735617281.910 iRoC  17.837
ODOM  8.000  4.640  0.771  2.000  0.000 0  1735617281.910 iRoC  17.837
ODOM  8.020  4.660  0.771  2.000  0.000 0  1735617281.910 iRoC  17.837
ODOM  8.040  4.680  0.771  2.000  0.000 0  1735617281.910 iRoC  17.837
ODOM  8.040  4.700  0.771  2.000  0.000 0  1735617281.910 iRoC  17.837
ODOM  8.060  4.700  0.771  2.000  0.000 0  1735617281.910 iRoC  17.837
ODOM  8.080  4.720  0.771  2.000  0.000 0  1735617281.910 iRoC  17.837
ODOM  8.100  4.740  0.771  2.000  0.000 0  1735617281.910 iRoC  17.837
ODOM  8.100  4.740  0.771  2.000  0.000 0  1735617281.910 iRoC  17.837
ODOM  8.120  4.760  0.771  2.000  0.000 0  1735617281.910 iRoC  17.837
ODOM  8.140  4.780  0.771  2.000  0.000 0  1735617281.910 iRoC  17.837
ODOM  8.160  4.780  0.771  2.000  0.000 0  1735617281.910 iRoC  17.837
ODOM  8.160  4.800  0.771  2.000  0.000 0  1735617281.910 iRoC  17.837
ODOM  8.180  4.820  0.771  2.000  0.000 0  1735617281.910 iRoC  17.837
ODOM  8.200  4.820  0.771  2.000  0.000 0  1735617281.910 iRoC  17.837
ODOM  8.200  4.840  0.771  2.000  0.000 0  1735617281.910 iRoC  17.837
ODOM  8.220  4.860  0.771  2.000  0.000 0  1735617281.910 iRoC  17.837
ODOM  8.240  4.880  0.771  2.000  0.000 0  1735617281.910 iRoC  17.837
ODOM  8.260  4.880  0.771  2.000  0.000 0  1735617281.910 iRoC  17.837
ODOM  8.260  4.900  0.771  2.000  0.000 0  1735617281.910 iRoC  17.837
ODOM  8.280  4.920  0.771  2.000  0.000 0  1735617281.910 iRoC  17.837
ODOM  8.300  4.920  0.771  2.000  0.000 0  1735617281.910 iRoC  17.837
ODOM  8.300  4.940  0.771  2.000  0.000 0  1735617281.910 iRoC  17.837
ODOM  8.320  4.960  0.771  2.000  0.000 0  1735617281.910 iRoC  17.837
ODOM  8.340  4.960  0.771  2.000  0.000 0  1735617281.910 iRoC  17.837
ODOM  8.360  4.980  0.771  2.000  0.000 0  1735617281.910 iRoC  17.837
ODOM  8.360  5.000  0.771  2.000  0.000 0  1735617281.910 iRoC  17.837
ODOM  8.380  5.020  0.771  2.000  0.000 0  1735617281.910 iRoC  17.837
ODOM  8.400  5.020  0.771  2.000  0.000 0  1735617281.910 iRoC  17.837
ODOM  8.400  5.040  0.771  2.000  0.000 0  1735617281.910 iRoC  17.837
ODOM  8.420  5.060  0.771  2.000  0.000 0  1735617281.910 iRoC  17.837
ODOM  8.440  5.060  0.771  2.000  0.000 0  1735617281.910 iRoC  17.837
ODOM  8.460  5.080  0.771  2.000  0.000 0  1735617281.910 iRoC  17.837
ODOM  8.460  5.100  0.771  2.000  0.000 0  1735617281.910 iRoC  17.837
ODOM  8.480  5.100  0.771  2.000  0.000 0  1735617281.910 iRoC  17.837
ODOM  8.500  5.120  0.771  2.000  0.000 0  1735617281.910 iRoC  17.837
ODOM  8.500  5.140  0.771  2.000  0.000 0  1735617281.910 iRoC  17.837
ODOM  8.520  5.140  0.771  2.000  0.000 0  1735617281.910 iRoC  17.837
ODOM  8.540  5.160  0.771  2.000  0.000 0  1735617281.910 iRoC  17.837
ODOM  8.560  5.180  0.771  2.000  0.000 0  1735617281.910 iRoC  17.837
ODOM  8.560  5.200  0.771  2.000  0.000 0  1735617281.910 iRoC  17.837
ODOM  8.580  5.200  0.771  2.000  0.000 0  1735617281.910 iRoC  17.837
ODOM  8.600  5.220  0.771  2.000  0.000 0  1735617281.910 iRoC  17.837
ODOM  8.600  5.240  0.771  2.000  0.000 0  1735617281.910 iRoC  17.837
ODOM  8.620  5.240  0.771  2.000  0.000 0  1735617281.910 iRoC  17.837
ODOM  8.640  5.260  0.771  2.000  0.000 0  1735617281.910 iRoC  17.837
ODOM  8.660  5.280  0.771  2.000  0.000 0  1735617281.910 iRoC  17.837
ODOM  8.660  5.280  0.771  2.000  0.000 0  1735617281.910 iRoC  17.837
ODOM  8.680  5.300  0.771  2.000  0.000 0  1735617281.910 iRoC  17.837
ODOM  8.700  5.320  0.771  2.000  0.000 0  1735617281.910 iRoC  17.837
ODOM  8.700  5.340  0.771  2.000  0.000 0  1735617281.910 iRoC  17.837
ODOM  8.720  5.340  0.771  2.000  0.000 0  1735617281.910 iRoC  17.837
ODOM  8.740  5.360  0.771  2.000  0.000 0  1735617281.910 iRoC  17.837
ODOM  8.760  5.380  0.771  2.000  0.000 0  1735617281.910 iRoC  17.837
ODOM  8.760  5.380  0.771  2.000  0.000 0  1735617281.910 iRoC  17.837
ODOM  8.780  5.400  0.771  2.000  0.000 0  1735617281.910 iRoC  17.837
ODOM  8.800  5.420  0.771  2.000  0.000 0  1735617281.910 iRoC  17.837
ODOM  8.820  5.420  0.771  2.000  0.000 0  1735617281.910 iRoC  17.837
ODOM  8.820  5.440  0.771  2.000  0.000 0  1735617281.910 iRoC  17.837
ODOM  8.840  5.460  0.771  2.000  0.000 0  1735617281.910 iRoC  17.837
ODOM  8.860  5.480  0.751  2.000 -2.000 0  1735617281.910 iRoC  17.837
ODOM  8.860  5.480  0.731  2.000 -2.000 0  1735617281.910 iRoC  17.837
ODOM  8.880  5.500  0.711  2.000 -2.000 0  1735617281.910 iRoC  17.837
ODOM  8.900  5.500  0.691  2.000 -2.000 0  1735617281.910 iRoC  17.837
ODOM  8.920  5.520  0.671  2.000 -2.000 0  1735617281.910 iRoC  17.837
ODOM  8.920  5.540  0.651  2.000 -2.000 0  1735617281.910 iRoC  17.837
ODOM  8.940  5.540  0.631  2.000 -2.000 0  1735617281.910 iRoC  17.837
ODOM  8.960  5.560  0.611  2.000 -2.000 0  1735617281.910 iRoC  17.837
ODOM  8.980  5.560  0.591  2.000 -2.000 0  1735617281.910 iRoC  17.837
ODOM  9.000  5.580  0.571  2.000 -2.000 0  1735617281.910 iRoC  17.837
ODOM  9.020  5.600  0.551  2.000 -2.000 0  1735617281.910 iRoC  17.837
ODOM  9.020  5.600  0.551  2.000  0.000 0  1735617281.910 iRoC  17.837
ODOM  9.040  5.620  0.551  2.000  0.000 0  1735617281.910 iRoC  17.837
ODOM  9.060  5.620  0.551  2.000  0.000 0  1735617281.910 iRoC  17.837
ODOM  9.080  5.640  0.551  2.000  0.000 0  1735617281.910 iRoC  17.837
ODOM  9.100  5.640  0.551  2.000  0.000 0  1735617281.910 iRoC  17.837
ODOM  9.120  5.660  0.551  2.000  0.000 0  1735617281.910 iRoC  17.837
ODOM  9.140  5.660  0.551  2.000  0.000 0  1735617281.910 iRoC  17.837
ODOM  9.140  5.680  0.551  2.000  0.000 0  1735617281.910 iRoC  17.837
ODOM  9.160  5.680  0.551  2.000  0.000 0  1735617281.910 iRoC  17.837
ODOM  9.180  5.700  0.551  2.000  0.000 0  1735617281.910 iRoC  17.837
ODOM  9.200  5.700  0.551  2.000  0.000 0  1735617281.910 iRoC  17.837
ODOM  9.220  5.720  0.551  2.000  0.000 0  1735617281.910 iRoC  17.837
ODOM  9.240  5.720  0.551  2.000  0.000 0  1735617281.910 iRoC  17.837
ODOM  9.260  5.740  0.551  2.000  0.000 0  1735617281.910 iRoC  17.837
ODOM  9.260  5.740  0.551  2.000  0.000 0  1735617281.910 iRoC  17.837
ODOM  9.280  5.760  0.551  2.000  0.000 0  1735617281.910 iRoC  17.837
ODOM  9.300  5.760  0.551  2.000  0.000 0  1735617281.910 iRoC  17.837
ODOM  9.320  5.780  0.551  2.000  0.000 0  1735617281.910 iRoC  17.837
ODOM  9.340  5.800  0.551  2.000  0.000 0  1735617281.910 iRoC  17.837
ODOM  9.360  5.800  0.551  2.000  0.000 0  1735617281.910 iRoC  17.837
ODOM  9.360  5.820  0.551  2.000  0.000 0  1735617281.910 iRoC  17.837
ODOM  9.380  5.820  0.531  2.000 -2.000 0  1735617281.910 iRoC  17.837
ODOM  9.400  5.840  0.511  2.000 -2.000 0  1735617281.910 iRoC  17.837
ODOM  9.420  5.840  0.491  2.000 -2.000 0  1735617281.910 iRoC  17.837
ODOM  9.440  5.860  0.471  2.000 -2.000 0  1735617281.910 iRoC  17.837
ODOM  9.460  5.860  0.451  2.000 -2.000 0  1735617281.910 iRoC  17.837
ODOM  9.480  5.860  0.431  2.000 -2.000 0  1735617281.910 iRoC  17.837
ODOM  9.500  5.880  0.411  2.000 -2.000 0  1735617281.910 iRoC  17.837
ODOM  9.520  5.880  0.391  2.000 -2.000 0  1735617281.910 iRoC  17.837
ODOM  9.540  5.900  0.371  2.000 -2.000 0  1735617281.910 iRoC  17.837
ODOM  9.540  5.900  0.351  2.000 -2.000 0  1735617281.910 iRoC  17.837
ODOM  9.560  5.900  0.351  2.000  0.000 0  1735617281.910 iRoC  17.837
ODOM  9.580  5.920  0.351  2.000  0.000 0  1735617281.910 iRoC  17.837
ODOM  9.600  5.920  0.351  2.000  0.000 0  1735617281.910 iRoC  17.837
ODOM  9.620  5.920  0.351  2.000  0.000 0  1735617281.910 iRoC  17.837
ODOM  9.640  5.940  0.351  2.000  0.000 0  1735617281.910 iRoC  17.837
ODOM  9.660  5.940  0.351  2.000  0.000 0  1735617281.910 iRoC  17.837
ODOM  9.680  5.940  0.351  2.000  0.000 0  1735617281.910 iRoC  17.837
ODOM  9.700  5.960  0.351  2.000  0.000 0  1735617281.910 iRoC  17.837
ODOM  9.720  5.960  0.351  2.000  0.000 0  1735617281.910 iRoC  17.837
ODOM  9.740  5.960  0.351  2.000  0.000 0  1735617281.910 iRoC  17.837
ODOM  9.760  5.980  0.351  2.000  0.000 0  1735617281.910 iRoC  17.837
ODOM  9.780  5.980  0.351  2.000  0.000 0  1735617281.910 iRoC  17.837
ODOM  9.800  5.980  0.351  2.000  0.000 0  1735617281.910 iRoC  17.837
ODOM  9.820  6.000  0.351  2.000  0.000 0  1735617281.910 iRoC  17.837
ODOM  9.840  6.000  0.351  2.000  0.000 0  1735617281.910 iRoC  17.837
ODOM  9.860  6.000  0.351  2.000  0.000 0  1735617281.910 iRoC  17.837
ODOM  9.860  6.020  0.351  2.000  0.000 0  1735617281.910 iRoC  17.837
ODOM  9.880  6.020  0.351  2.000  0.000 0  1735617281.910 iRoC  17.837
ODOM  9.900  6.020  0.331  2.000 -2.000 0  1735617281.910 iRoC  17.837
ODOM  9.920  6.040  0.311  2.000 -2.000 0  1735617281.910 iRoC  17.837
ODOM  9.940  6.040  0.291  2.000 -2.000 0  1735617281.910 iRoC  17.837
ODOM  9.960  6.040  0.271  2.000 -2.000 0  1735617281.910 iRoC  17.837
ODOM  9.980  6.060  0.251  2.000 -2.000 0  1735617281.910 iRoC  17.837
ODOM  10.000  6.060  0.231  2.000 -2.000 0  1735617281.910 iRoC  17.837
ODOM  10.020  6.060  0.211  2.000 -2.000 0  1735617281.910 iRoC  17.837
ODOM  10.040  6.060  0.191  2.000 -2.000 0  1735617281.910 iRoC  17.837
ODOM  10.060  6.060  0.171  2.000 -2.000 0  1735617281.910 iRoC  17.837
ODOM  10.080  6.080  0.151  2.000 -2.000 0  1735617281.910 iRoC  17.837
ODOM  10.100  6.080  0.131  2.000 -2.000 0  1735617281.910 iRoC  17.837
ODOM  10.120  6.080  0.111  2.000 -2.000 0  1735617281.910 iRoC  17.837
ODOM  10.140  6.080  0.091  2.000 -2.000 0  1735617281.910 iRoC  17.837
ODOM  10.160  6.080  0.071  2.000 -2.000 0  1735617281.910 iRoC  17.837
ODOM  10.180  6.080  0.051  2.000 -2.000 0  1735617281.910 iRoC  17.837
ODOM  10.200  6.080  0.031  2.000 -2.000 0  1735617281.910 iRoC  17.837
ODOM  10.220  6.080  0.031  2.000  0.000 0  1735617281.910 iRoC  17.837
ODOM  10.240  6.080  0.031  2.000  0.000 0  1735617281.910 iRoC  17.837
ODOM  10.260  6.080  0.031  2.000  0.000 0  1735617281.910 iRoC  17.837
ODOM  10.280  6.080  0.031  2.000  0.000 0  1735617281.910 iRoC  17.837
ODOM  10.300  6.080  0.031  2.000  0.000 0  1735617281.910 iRoC  17.837
ODOM  10.320  6.080  0.031  2.000  0.000 0  1735617281.910 iRoC  17.837
ODOM  10.340  6.080  0.031  2.000  0.000 0  1735617281.910 iRoC  17.837
ODOM  10.360  6.080  0.031  2.000  0.000 0  1735617281.910 iRoC  17.837
ODOM  10.380  6.080  0.031  2.000  0.000 0  1735617281.910 iRoC  17.837
ODOM  10.400  6.080  0.031  2.000  0.000 0  1735617281.910 iRoC  17.837
ODOM  10.420  6.080  0.031  2.000  0.000 0  1735617281.910 iRoC  17.837
ODOM  10.440  6.080  0.031  2.000  0.000 0  1735617281.910 iRoC  17.837
ODOM  10.460  6.100  0.031  2.000  0.000 0  1735617281.910 iRoC  17.837
ODOM  10.480  6.100  0.031  2.000  0.000 0  1735617281.910 iRoC  17.837
ODOM  10.500  6.100  0.031  2.000  0.000 0  1735617281.910 iRoC  17.837
ODOM  10.520  6.100  0.031  2.000  0.000 0  1735617281.910 iRoC  17.837
ODOM  10.540  6.100  0.031  2.000  0.000 0  1735617281.910 iRoC  17.837
ODOM  10.560  6.100  0.031  2.000  0.000 0  1735617281.910 iRoC  17.837
ODOM  10.580  6.100  0.031  2.000  0.000 0  1735617281.910 iRoC  17.837
ODOM  10.600  6.100  0.031  2.000  0.000 0  1735617281.910 iRoC  17.837
ODOM  10.620  6.100  0.031  2.000  0.000 0  1735617281.910 iRoC  17.837
ODOM  10.640  6.100  0.031  2.000  0.000 0  1735617281.910 iRoC  17.837
ODOM  10.660  6.100  0.031  2.000  0.000 0  1735617281.910 iRoC  17.837
ODOM  10.680  6.100  0.031  2.000  0.000 0  1735617281.910 iRoC  17.837
ODOM  10.700  6.100  0.031  2.000  0.000 0  1735617281.910 iRoC  17.837
ODOM  10.720  6.100  0.031  2.000  0.000 0  1735617281.910 iRoC  17.837
ODOM  10.740  6.100  0.031  2.000  0.000 0  1735617281.910 iRoC  17.837
ODOM  10.760  6.100  0.031  2.000  0.000 0  1735617281.910 iRoC  17.837
ODOM  10.780  6.100  0.031  2.000  0.000 0  1735617281.910 iRoC  17.837
ODOM  10.800  6.100  0.031  2.000  0.000 0  1735617281.910 iRoC  17.837
ODOM  10.820  6.100  0.031  2.000  0.000 0  1735617281.910 iRoC  17.837
ODOM  10.840  6.100  0.031  2.000  0.000 0  1735617281.910 iRoC  17.837
ODOM  10.860  6.100  0.031  2.000  0.000 0  1735617281.910 iRoC  17.837
ODOM  10.880  6.100  0.031  2.000  0.000 0  1735617281.910 iRoC  17.837
ODOM  10.900  6.100  0.031  2.000  0.000 0  1735617281.910 iRoC  17.837
ODOM  10.920  6.100  0.031  2.000  0.000 0  1735617281.910 iRoC  17.837
ODOM  10.940  6.100  0.031  2.000  0.000 0  1735617281.910 iRoC  17.837
ODOM  10.960  6.100  0.031  2.000  0.000 0  1735617281.910 iRoC  17.837
ODOM  10.980  6.100  0.031  2.000  0.000 0  1735617281.910 iRoC  17.837
ODOM  11.000  6.100  0.031  2.000  0.000 0  1735617281.910 iRoC  17.837
ODOM  11.020  6.100  0.031  2.000  0.000 0  1735617281.910 iRoC  17.837
ODOM  11.040  6.100  0.031  2.000  0.000 0  1735617281.910 iRoC  17.837
ODOM  11.060  6.100  0.031  2.000  0.000 0  1735617281.910 iRoC  17.837
ODOM  11.080  6.100  0.031  2.000  0.000 0  1735617281.910 iRoC  17.837
ODOM  11.100  6.100  0.031  2.000  0.000 0  1735617281.910 iRoC  17.837
ODOM  11.120  6.120  0.031  2.000  0.000 0  1735617281.910 iRoC  17.837
ODOM  11.140  6.120  0.031  2.000  0.000 0  1735617281.910 iRoC  17.837
ODOM  11.160  6.120  0.031  2.000  0.000 0  1735617281.910 iRoC  17.837
ODOM  11.180  6.120  0.031  2.000  0.000 0  1735617281.910 iRoC  17.837
ODOM  11.200  6.120  0.031  2.000  0.000 0  1735617281.910 iRoC  17.837
ODOM  11.220  6.120  0.031  2.000  0.000 0  1735617281.910 iRoC  17.837
ODOM  11.240  6.120  0.031  2.000  0.000 0  1735617281.910 iRoC  17.837
ODOM  11.260  6.120  0.031  2.000  0.000 0  1735617281.910 iRoC  17.837
ODOM  11.280  6.120  0.031  2.000  0.000 0  1735617281.910 iRoC  17.837
ODOM  11.300  6.120  0.031  2.000  0.000 0  1735617281.910 iRoC  17.837
ODOM  11.320  6.120  0.031  2.000  0.000 0  1735617281.910 iRoC  17.837
ODOM  11.340  6.120  0.031  2.000  0.000 0  1735617281.910 iRoC  17.837
ODOM  11.360  6.120  0.031  2.000  0.000 0  1735617281.910 iRoC  17.837
ODOM  11.380  6.120  0.031  2.000  0.000 0  1735617281.910 iRoC  17.837
ODOM  11.400  6.120  0.031  2.000  0.000 0  1735617281.910 iRoC  17.837
ODOM  11.420  6.120  0.031  2.000  0.000 0  1735617281.910 iRoC  17.837
ODOM  11.440  6.120  0.031  2.000  0.000 0  1735617281.910 iRoC  17.837
ODOM  11.460  6.120  0.031  2.000  0.000 0  1735617281.910 iRoC  17.837
ODOM  11.480  6.120  0.031  2.000  0.000 0  1735617281.910 iRoC  17.837
ODOM  11.500  6.120  0.031  2.000  0.000 0  1735617281.910 iRoC  17.837
ODOM  11.520  6.120  0.031  2.000  0.000 0  1735617281.910 iRoC  17.837
ODOM  11.540  6.120  0.031  2.000  0.000 0  1735617281.910 iRoC  17.837
ODOM  11.560  6.120  0.031  2.000  0.000 0  1735617281.910 iRoC  17.837
ODOM  11.580  6.120  0.031  2.000  0.000 0  1735617281.910 iRoC  17.837
ODOM  11.600  6.120  0.031  2.000  0.000 0  1735617281.910 iRoC  17.837
ODOM  11.620  6.120  0.031  2.000  0.000 0  1735617281.910 iRoC  17.837
ODOM  11.640  6.120  0.031  2.000  0.000 0  1735617281.910 iRoC  17.837
ODOM  11.660  6.120  0.031  2.000  0.000 0  1735617281.910 iRoC  17.837
ODOM  11.680  6.120  0.031  2.000  0.000 0  1735617281.910 iRoC  17.837
ODOM  11.700  6.120  0.031  2.000  0.000 0  1735617281.910 iRoC  17.837
ODOM  11.720  6.120  0.031  2.000  0.000 0  1735617281.910 iRoC  17.837
ODOM  11.740  6.120  0.031  2.000  0.000 0  1735617281.910 iRoC  17.837
ODOM  11.760  6.140  0.031  2.000  0.000 0  1735617281.910 iRoC  17.837
ODOM  11.780  6.140  0.031  2.000  0.000 0  1735617281.910 iRoC  17.837
ODOM  11.800  6.140  0.031  2.000  0.000 0  1735617281.910 iRoC  17.837
ODOM  11.820  6.140  0.031  2.000  0.000 0  1735617281.910 iRoC  17.837
ODOM  11.840  6.140  0.031  2.000  0.000 0  1735617281.910 iRoC  17.837
ODOM  11.860  6.140  0.031  2.000  0.000 0  1735617281.910 iRoC  17.837
ODOM  11.880  6.140  0.031  2.000  0.000 0  1735617281.910 iRoC  17.837
ODOM  11.900  6.140  0.031  2.000  0.000 0  1735617281.910 iRoC  17.837
ODOM  11.920  6.140  0.031  2.000  0.000 0  1735617281.910 iRoC  17.837
ODOM  11.940  6.140  0.031  2.000  0.000 0  1735617281.910 iRoC  17.837
ODOM  11.960  6.140  0.031  2.000  0.000 0  1735617281.910 iRoC  17.837
ODOM  11.980  6.140  0.031  2.000  0.000 0  1735617281.910 iRoC  17.837
ODOM  12.000  6.140  0.031  2.000  0.000 0  1735617281.910 iRoC  17.837
ODOM  12.020  6.140  0.031  2.000  0.000 0  1735617281.910 iRoC  17.837
ODOM  12.040  6.140  0.031  2.000  0.000 0  1735617281.910 iRoC  17.837
ODOM  12.060  6.140  0.031  2.000  0.000 0  1735617281.910 iRoC  17.837
ODOM  12.080  6.140  0.031  2.000  0.000 0  1735617281.910 iRoC  17.837
ODOM  12.100  6.140  0.031  2.000  0.000 0  1735617281.910 iRoC  17.837
ODOM  12.120  6.140  0.031  2.000  0.000 0  1735617281.910 iRoC  17.837
ODOM  12.140  6.140  0.031  2.000  0.000 0  1735617281.910 iRoC  17.837
ODOM  12.160  6.140  0.031  2.000  0.000 0  1735617281.910 iRoC  17.837
ODOM  12.180  6.140  0.031  2.000  0.000 0  1735617281.910 iRoC  17.837
ODOM  12.200  6.140  0.031  2.000  0.000 0  1735617281.910 iRoC  17.837
ODOM  12.220  6.140  0.031  2.000  0.000 0  1735617281.910 iRoC  17.837
ODOM  12.240  6.140  0.031  2.000  0.000 0  1735617281.910 iRoC  17.837
ODOM  12.260  6.140  0.031  2.000  0.000 0  1735617281.910 iRoC  17.837
ODOM  12.280  6.140  0.031  2.000  0.000 0  1735617281.910 iRoC  17.837
ODOM  12.300  6.140  0.031  2.000  0.000 0  1735617281.910 iRoC  17.837
ODOM  12.320  6.140  0.031  2.000  0.000 0  1735617281.910 iRoC  17.837
ODOM  12.340  6.140  0.031  2.000  0.000 0  1735617281.910 iRoC  17.837
ODOM  12.360  6.140  0.031  2.000  0.000 0  1735617281.910 iRoC  17.837
ODOM  12.380  6.140  0.031  2.000  0.000 0  1735617281.910 iRoC  17.837
ODOM  12.400  6.140  0.031  2.000  0.000 0  1735617281.910 iRoC  17.837
ODOM  12.420  6.160  0.031  2.000  0.000 0  1735617281.910 iRoC  17.837
ODOM  12.440  6.160  0.031  2.000  0.000 0  1735617281.910 iRoC  17.837
ODOM  12.460  6.160  0.011  2.000 -2.000 0  1735617281.910 iRoC  17.837
ODOM  12.480  6.160 -0.009  2.000 -2.000 0  1735617281.910 iRoC  17.837
ODOM  12.500  6.160 -0.029  2.000 -2.000 0  1735617281.910 iRoC  17.837
ODOM  12.520  6.160 -0.049  2.000 -2.000 0  1735617281.910 iRoC  17.837
ODOM  12.540  6.140 -0.069  2.000 -2.000 0  1735617281.910 iRoC  17.837
ODOM  12.560  6.140 -0.089  2.000 -2.000 0  1735617281.910 iRoC  17.837
ODOM  12.580  6.140 -0.109  2.000 -2.000 0  1735617281.910 iRoC  17.837
ODOM  12.600  6.140 -0.129  2.000 -2.000 0  1735617281.910 iRoC  17.837
ODOM  12.620  6.140 -0.129  2.000  0.000 0  1735617281.910 iRoC  17.837
ODOM  12.640  6.140 -0.129  2.000  0.000 0  1735617281.910 iRoC  17.837
ODOM  12.660  6.140 -0.129  2.000  0.000 0  1735617281.910 iRoC  17.837
ODOM  12.680  6.140 -0.129  2.000  0.000 0  1735617281.910 iRoC  17.837
ODOM  12.700  6.140 -0.129  2.000  0.000 0  1735617281.910 iRoC  17.837
ODOM  12.720  6.120 -0.129  2.000  0.000 0  1735617281.910 iRoC  17.837
ODOM  12.740  6.120 -0.129  2.000  0.000 0  1735617281.910 iRoC  17.837
ODOM  12.760  6.120 -0.129  2.000  0.000 0  1735617281.910 iRoC  17.837
ODOM  12.780  6.120 -0.129  2.000  0.000 0  1735617281.910 iRoC  17.837
ODOM  12.800  6.120 -0.129  2.000  0.000 0  1735617281.910 iRoC  17.837
ODOM  12.820  6.120 -0.129  2.000  0.000 0  1735617281.910 iRoC  17.837
ODOM  12.840  6.120 -0.129  2.000  0.000 0  1735617281.910 iRoC  17.837
ODOM  12.860  6.100 -0.129  2.000  0.000 0  1735617281.910 iRoC  17.837
ODOM  12.880  6.100 -0.129  2.000  0.000 0  1735617281.910 iRoC  17.837
ODOM  12.900  6.100 -0.129  2.000  0.000 0  1735617281.910 iRoC  17.837
ODOM  12.920  6.100 -0.129  2.000  0.000 0  1735617281.910 iRoC  17.837
ODOM  12.940  6.100 -0.129  2.000  0.000 0  1735617281.910 iRoC  17.837
ODOM  12.960  6.100 -0.129  2.000  0.000 0  1735617281.910 iRoC  17.837
ODOM  12.980  6.100 -0.129  2.000  0.000 0  1735617281.910 iRoC  17.837
ODOM  13.000  6.100 -0.129  2.000  0.000 0  1735617281.910 iRoC  17.837
ODOM  13.020  6.080 -0.129  2.000  0.000 0  1735617281.910 iRoC  17.837
ODOM  13.040  6.080 -0.129  2.000  0.000 0  1735617281.910 iRoC  17.837
ODOM  13.060  6.080 -0.129  2.000  0.000 0  1735617281.910 iRoC  17.837
ODOM  13.080  6.080 -0.129  2.000  0.000 0  1735617281.910 iRoC  17.837
ODOM  13.100  6.080 -0.129  2.000  0.000 0  1735617281.910 iRoC  17.837
ODOM  13.120  6.080 -0.129  2.000  0.000 0  1735617281.910 iRoC  17.837
ODOM  13.140  6.080 -0.129  2.000  0.000 0  1735617281.910 iRoC  17.837
ODOM  13.160  6.080 -0.129  2.000  0.000 0  1735617281.910 iRoC  17.837
ODOM  13.180  6.060 -0.129  2.000  0.000 0  1735617281.910 iRoC  17.837
ODOM  13.200  6.060 -0.129  2.000  0.000 0  1735617281.910 iRoC  17.838
ODOM  13.220  6.060 -0.129  2.000  0.000 0  1735617281.910 iRoC  17.838
ODOM  13.240  6.060 -0.129  2.000  0.000 0  1735617281.910 iRoC  17.838
ODOM  13.260  6.060 -0.129  2.000  0.000 0  1735617281.910 iRoC  17.838
ODOM  13.280  6.060 -0.129  2.000  0.000 0  1735617281.910 iRoC  17.838
ODOM  13.300  6.060 -0.129  2.000  0.000 0  1735617281.910 iRoC  17.838
ODOM  13.320  6.060 -0.129  2.000  0.000 0  1735617281.910 iRoC  17.838
ODOM  13.340  6.040 -0.129  2.000  0.000 0  1735617281.910 iRoC  17.838
ODOM  13.360  6.040 -0.129  2.000  0.000 0  1735617281.910 iRoC  17.838
ODOM  13.380  6.040 -0.129  2.000  0.000 0  1735617281.910 iRoC  17.838
ODOM  13.400  6.040 -0.129  2.000  0.000 0  1735617281.910 iRoC  17.838
ODOM  13.420  6.040 -0.129  2.000  0.000 0  1735617281.910 iRoC  17.838
ODOM  13.440  6.040 -0.129  2.000  0.000 0  1735617281.910 iRoC  17.838
ODOM  13.460  6.040 -0.129  2.000  0.000 0  1735617281.910 iRoC  17.838
ODOM  13.480  6.020 -0.129  2.000  0.000 0  1735617281.910 iRoC  17.838
ODOM  13.500  6.020 -0.109  2.000  2.000 0  1735617281.910 iRoC  17.838
ODOM  13.520  6.020 -0.089  2.000  2.000 0  1735617281.910 iRoC  17.838
ODOM  13.540  6.020 -0.069  2.000  2.000 0  1735617281.910 iRoC  17.838
ODOM  13.560  6.020 -0.069  2.000  0.000 0  1735617281.910 iRoC  17.838
ODOM  13.580  6.020 -0.069  2.000  0.000 0  1735617281.910 iRoC  17.838
ODOM  13.600  6.020 -0.069  2.000  0.000 0  1735617281.910 iRoC  17.838
ODOM  13.620  6.020 -0.069  2.000  0.000 0  1735617281.910 iRoC  17.838
ODOM  13.640  6.020 -0.069  2.000  0.000 0  1735617281.910 iRoC  17.838
ODOM  13.660  6.020 -0.069  2.000  0.000 0  1735617281.910 iRoC  17.838
ODOM  13.680  6.020 -0.069  2.000  0.000 0  1735617281.910 iRoC  17.838
ODOM  13.700  6.020 -0.069  2.000  0.000 0  1735617281.910 iRoC  17.838
ODOM  13.720  6.020 -0.069  2.000  0.000 0  1735617281.910 iRoC  17.838
ODOM  13.740  6.020 -0.069  2.000  0.000 0  1735617281.910 iRoC  17.838
ODOM  13.760  6.000 -0.069  2.000  0.000 0  1735617281.910 iRoC  17.838
ODOM  13.780  6.000 -0.069  2.000  0.000 0  1735617281.910 iRoC  17.838
ODOM  13.800  6.000 -0.069  2.000  0.000 0  1735617281.910 iRoC  17.838
ODOM  13.820  6.000 -0.069  2.000  0.000 0  1735617281.910 iRoC  17.838
ODOM  13.840  6.000 -0.069  2.000  0.000 0  1735617281.910 iRoC  17.838
ODOM  13.860  6.000 -0.069  2.000  0.000 0  1735617281.910 iRoC  17.838
ODOM  13.880  6.000 -0.069  2.000  0.000 0  1735617281.910 iRoC  17.838
ODOM  13.900  6.000 -0.069  2.000  0.000 0  1735617281.910 iRoC  17.838
ODOM  13.920  6.000 -0.069  2.000  0.000 0  1735617281.910 iRoC  17.838
