ODOM  1.000  1.000  1.571  0.000  0.000 0  1735634756.925 iRoC  0.010
ODOM  1.000  1.000  1.571  0.000  0.000 0  1735634756.935 iRoC  0.020
ODOM  1.000  1.000  1.571  0.000  0.000 0  1735634756.945 iRoC  0.030
ODOM  1.000  1.000  1.571  0.000  0.000 0  1735634756.955 iRoC  0.040
ODOM  1.000  1.000  1.571  0.000  0.000 0  1735634756.965 iRoC  0.050
ODOM  1.000  1.000  1.571  0.000  0.000 0  1735634756.975 iRoC  0.060
ODOM  1.000  1.000  1.571  0.000  0.000 0  1735634756.985 iRoC  0.070
ODOM  1.000  1.000  1.571  0.000  0.000 0  1735634756.995 iRoC  0.080
ODOM  1.000  1.000  1.571  0.000  0.000 0  1735634757.005 iRoC  0.090
ODOM  1.000  1.000  1.571  0.000  0.000 0  1735634757.015 iRoC  0.100
ODOM  1.000  1.000  1.571  0.000  0.000 0  1735634757.025 iRoC  0.110
ODOM  1.000  1.000  1.571  0.000  0.000 0  1735634757.035 iRoC  0.120
ODOM  1.000  1.000  1.571  0.000  0.000 0  1735634757.045 iRoC  0.130
ODOM  1.000  1.000  1.571  0.000  0.000 0  1735634757.055 iRoC  0.140
ODOM  1.000  1.000  1.571  0.000  0.000 0  1735634757.065 iRoC  0.150
ODOM  1.000  1.000  1.571  0.000  0.000 0  1735634757.075 iRoC  0.160
ODOM  1.000  1.000  1.571  0.000  0.000 0  1735634757.085 iRoC  0.170
ODOM  1.000  1.000  1.571  0.000  0.000 0  1735634757.095 iRoC  0.180
ODOM  1.000  1.000  1.571  0.000  0.000 0  1735634757.105 iRoC  0.190
ODOM  1.000  1.000  1.571  0.000  0.000 0  1735634757.115 iRoC  0.200
ODOM  1.000  1.000  1.571  0.000  0.000 0  1735634757.125 iRoC  0.210
ODOM  1.000  1.000  1.571  0.000  0.000 0  1735634757.135 iRoC  0.220
ODOM  1.000  1.000  1.571  0.000  0.000 0  1735634757.145 iRoC  0.230
ODOM  1.000  1.000  1.571  0.000  0.000 0  1735634757.155 iRoC  0.240
ODOM  1.000  1.000  1.571  0.000  0.000 0  1735634757.165 iRoC  0.250
ODOM  1.000  1.000  1.571  0.000  0.000 0  1735634757.175 iRoC  0.260
ODOM  1.000  1.000  1.571  0.000  0.000 0  1735634757.185 iRoC  0.270
ODOM  1.000  1.000  1.571  0.000  0.000 0  1735634757.195 iRoC  0.280
ODOM  1.000  1.000  1.571  0.000  0.000 0  1735634757.205 iRoC  0.290
ODOM  1.000  1.000  1.571  0.000  0.000 0  1735634757.215 iRoC  0.300
ODOM  1.000  1.000  1.571  0.000  0.000 0  1735634757.225 iRoC  0.310
ODOM  1.000  1.000  1.571  0.000  0.000 0  1735634757.235 iRoC  0.320
ODOM  1.000  1.000  1.571  0.000  0.000 0  1735634757.245 iRoC  0.330
ODOM  1.000  1.000  1.571  0.000  0.000 0  1735634757.255 iRoC  0.340
ODOM  1.000  1.000  1.571  0.000  0.000 0  1735634757.265 iRoC  0.350
ODOM  1.000  1.000  1.571  0.000  0.000 0  1735634757.275 iRoC  0.360
ODOM  1.000  1.000  1.571  0.000  0.000 0  1735634757.285 iRoC  0.370
ODOM  1.000  1.000  1.571  0.000  0.000 0  1735634757.295 iRoC  0.380
ODOM  1.000  1.000  1.571  0.000  0.000 0  1735634757.305 iRoC  0.390
ODOM  1.000  1.000  1.571  0.000  0.000 0  1735634757.315 iRoC  0.400
ODOM  1.000  1.000  1.571  0.000  0.000 0  1735634757.325 iRoC  0.410
ODOM  1.000  1.000  1.571  0.000  0.000 0  1735634757.335 iRoC  0.420
ODOM  1.000  1.000  1.571  0.000  0.000 0  1735634757.345 iRoC  0.430
ODOM  1.000  1.000  1.571  0.000  0.000 0  1735634757.355 iRoC  0.440
ODOM  1.000  1.000  1.571  0.000  0.000 0  1735634757.365 iRoC  0.450
ODOM  1.000  1.000  1.571  0.000  0.000 0  1735634757.375 iRoC  0.460
ODOM  1.000  1.000  1.571  0.000  0.000 0  1735634757.385 iRoC  0.470
ODOM  1.000  1.000  1.571  0.000  0.000 0  1735634757.395 iRoC  0.480
ODOM  1.000  1.000  1.571  0.000  0.000 0  1735634757.405 iRoC  0.490
ODOM  1.000  1.000  1.571  0.000  0.000 0  1735634757.415 iRoC  0.500
ODOM  1.000  1.000  1.571  0.000  0.000 0  1735634757.425 iRoC  0.510
ODOM  1.000  1.000  1.571  0.000  0.000 0  1735634757.435 iRoC  0.520
ODOM  1.000  1.000  1.571  0.000  0.000 0  1735634757.445 iRoC  0.530
ODOM  1.000  1.000  1.571  0.000  0.000 0  1735634757.455 iRoC  0.540
ODOM  1.000  1.000  1.571  0.000  0.000 0  1735634757.465 iRoC  0.550
ODOM  1.000  1.000  1.571  0.000  0.000 0  1735634757.475 iRoC  0.560
ODOM  1.000  1.000  1.571  0.000  0.000 0  1735634757.485 iRoC  0.570
ODOM  1.000  1.000  1.571  0.000  0.000 0  1735634757.495 iRoC  0.580
ODOM  1.000  1.000  1.571  0.000  0.000 0  1735634757.505 iRoC  0.590
ODOM  1.000  1.000  1.571  0.000  0.000 0  1735634757.515 iRoC  0.600
ODOM  1.000  1.000  1.571  0.000  0.000 0  1735634757.525 iRoC  0.610
ODOM  1.000  1.000  1.571  0.000  0.000 0  1735634757.535 iRoC  0.620
ODOM  1.000  1.000  1.571  0.000  0.000 0  1735634757.545 iRoC  0.630
ODOM  1.000  1.000  1.571  0.000  0.000 0  1735634757.555 iRoC  0.640
ODOM  1.000  1.000  1.571  0.000  0.000 0  1735634757.565 iRoC  0.650
ODOM  1.000  1.000  1.571  0.000  0.000 0  1735634757.575 iRoC  0.660
ODOM  1.000  1.000  1.571  0.000  0.000 0  1735634757.585 iRoC  0.670
ODOM  1.000  1.000  1.571  0.000  0.000 0  1735634757.595 iRoC  0.680
ODOM  1.000  1.000  1.571  0.000  0.000 0  1735634757.605 iRoC  0.690
ODOM  1.000  1.000  1.571  0.000  0.000 0  1735634757.615 iRoC  0.700
ODOM  1.000  1.000  1.571  0.000  0.000 0  1735634757.625 iRoC  0.710
ODOM  1.000  1.000  1.571  0.000  0.000 0  1735634757.635 iRoC  0.720
ODOM  1.000  1.000  1.571  0.000  0.000 0  1735634757.645 iRoC  0.730
ODOM  1.000  1.000  1.571  0.000  0.000 0  1735634757.655 iRoC  0.740
ODOM  1.000  1.000  1.571  0.000  0.000 0  1735634757.665 iRoC  0.750
ODOM  1.000  1.000  1.571  0.000  0.000 0  1735634757.675 iRoC  0.760
ODOM  1.000  1.000  1.571  0.000  0.000 0  1735634757.685 iRoC  0.770
ODOM  1.000  1.000  1.571  0.000  0.000 0  1735634757.695 iRoC  0.780
ODOM  1.000  1.000  1.571  0.000  0.000 0  1735634757.705 iRoC  0.790
ODOM  1.000  1.000  1.571  0.000  0.000 0  1735634757.715 iRoC  0.800
ODOM  1.000  1.000  1.571  0.000  0.000 0  1735634757.725 iRoC  0.810
ODOM  1.000  1.000  1.571  0.000  0.000 0  1735634757.735 iRoC  0.820
ODOM  1.000  1.000  1.571  0.000  0.000 0  1735634757.745 iRoC  0.830
ODOM  1.000  1.000  1.571  0.000  0.000 0  1735634757.755 iRoC  0.840
ODOM  1.000  1.000  1.571  0.000  0.000 0  1735634757.765 iRoC  0.850
ODOM  1.000  1.000  1.571  0.000  0.000 0  1735634757.775 iRoC  0.860
ODOM  1.000  1.000  1.571  0.000  0.000 0  1735634757.785 iRoC  0.870
ODOM  1.000  1.000  1.571  0.000  0.000 0  1735634757.795 iRoC  0.880
ODOM  1.000  1.000  1.571  0.000  0.000 0  1735634757.805 iRoC  0.890
ODOM  1.000  1.000  1.571  0.000  0.000 0  1735634757.815 iRoC  0.900
ODOM  1.000  1.000  1.571  0.000  0.000 0  1735634757.825 iRoC  0.910
ODOM  1.000  1.000  1.571  0.000  0.000 0  1735634757.835 iRoC  0.920
ODOM  1.000  1.000  1.571  0.000  0.000 0  1735634757.845 iRoC  0.930
ODOM  1.000  1.000  1.571  0.000  0.000 0  1735634757.855 iRoC  0.940
ODOM  1.000  1.000  1.571  0.000  0.000 0  1735634757.865 iRoC  0.950
ODOM  1.000  1.000  1.571  0.000  0.000 0  1735634757.875 iRoC  0.960
ODOM  1.000  1.000  1.571  0.000  0.000 0  1735634757.885 iRoC  0.970
ODOM  1.000  1.000  1.571  0.000  0.000 0  1735634757.895 iRoC  0.980
ODOM  1.000  1.000  1.571  0.000  0.000 0  1735634757.905 iRoC  0.990
ODOM  1.000  1.000  1.571  0.000  0.000 0  1735634757.915 iRoC  1.000
ODOM  1.000  1.000  1.571  0.000  0.000 0  1735634757.925 iRoC  1.010
ODOM  1.000  1.000  1.571  0.000  0.000 0  1735634757.935 iRoC  1.020
ODOM  1.000  1.000  1.571  0.000  0.000 0  1735634757.945 iRoC  1.030
ODOM  1.000  1.000  1.571  0.000  0.000 0  1735634757.955 iRoC  1.040
ODOM  1.000  1.000  1.571  0.000  0.000 0  1735634757.965 iRoC  1.050
ODOM  1.000  1.000  1.571  0.000  0.000 0  1735634757.975 iRoC  1.060
ODOM  1.000  1.000  1.571  0.000  0.000 0  1735634757.985 iRoC  1.070
ODOM  1.000  1.000  1.571  0.000  0.000 0  1735634757.995 iRoC  1.080
ODOM  1.000  1.000  1.571  0.000  0.000 0  1735634758.005 iRoC  1.090
ODOM  1.000  1.000  1.571  0.000  0.000 0  1735634758.015 iRoC  1.100
ODOM  1.000  1.000  1.571  0.000  0.000 0  1735634758.025 iRoC  1.110
ODOM  1.000  1.000  1.571  0.000  0.000 0  1735634758.035 iRoC  1.120
ODOM  1.000  1.000  1.571  0.000  0.000 0  1735634758.045 iRoC  1.130
ODOM  1.000  1.000  1.571  0.000  0.000 0  1735634758.055 iRoC  1.140
ODOM  1.000  1.000  1.571  0.000  0.000 0  1735634758.065 iRoC  1.150
ODOM  1.000  1.000  1.571  0.000  0.000 0  1735634758.075 iRoC  1.160
ODOM  1.000  1.000  1.571  0.000  0.000 0  1735634758.085 iRoC  1.170
ODOM  1.000  1.000  1.571  0.000  0.000 0  1735634758.095 iRoC  1.180
ODOM  1.000  1.000  1.571  0.000  0.000 0  1735634758.105 iRoC  1.190
ODOM  1.000  1.000  1.571  0.000  0.000 0  1735634758.115 iRoC  1.200
ODOM  1.000  1.000  1.571  0.000  0.000 0  1735634758.125 iRoC  1.210
ODOM  1.000  1.000  1.571  0.000  0.000 0  1735634758.135 iRoC  1.220
ODOM  1.000  1.000  1.571  0.000  0.000 0  1735634758.145 iRoC  1.230
ODOM  1.000  1.000  1.571  0.000  0.000 0  1735634758.155 iRoC  1.240
ODOM  1.000  1.000  1.571  0.000  0.000 0  1735634758.165 iRoC  1.250
ODOM  1.000  1.000  1.571  0.000  0.000 0  1735634758.175 iRoC  1.260
ODOM  1.000  1.000  1.571  0.000  0.000 0  1735634758.185 iRoC  1.270
ODOM  1.000  1.000  1.571  0.000  0.000 0  1735634758.195 iRoC  1.280
ODOM  1.000  1.000  1.571  0.000  0.000 0  1735634758.205 iRoC  1.290
ODOM  1.000  1.000  1.571  0.000  0.000 0  1735634758.215 iRoC  1.300
ODOM  1.000  1.000  1.571  0.000  0.000 0  1735634758.225 iRoC  1.310
ODOM  1.000  1.000  1.571  0.000  0.000 0  1735634758.235 iRoC  1.320
ODOM  1.000  1.000  1.571  0.000  0.000 0  1735634758.245 iRoC  1.330
ODOM  1.000  1.000  1.571  0.000  0.000 0  1735634758.255 iRoC  1.340
ODOM  1.000  1.000  1.571  0.000  0.000 0  1735634758.265 iRoC  1.350
ODOM  1.000  1.000  1.571  0.000  0.000 0  1735634758.275 iRoC  1.360
ODOM  1.000  1.000  1.571  0.000  0.000 0  1735634758.285 iRoC  1.370
ODOM  1.000  1.000  1.571  0.000  0.000 0  1735634758.295 iRoC  1.380
ODOM  1.000  1.000  1.571  0.000  0.000 0  1735634758.305 iRoC  1.390
ODOM  1.000  1.000  1.571  0.000  0.000 0  1735634758.315 iRoC  1.400
ODOM  1.000  1.000  1.571  0.000  0.000 0  1735634758.325 iRoC  1.410
ODOM  1.000  1.000  1.571  0.000  0.000 0  1735634758.335 iRoC  1.420
ODOM  1.000  1.000  1.571  0.000  0.000 0  1735634758.345 iRoC  1.430
ODOM  1.000  1.000  1.571  0.000  0.000 0  1735634758.355 iRoC  1.440
ODOM  1.000  1.000  1.571  0.000  0.000 0  1735634758.365 iRoC  1.450
ODOM  1.000  1.000  1.571  0.000  0.000 0  1735634758.375 iRoC  1.460
ODOM  1.000  1.000  1.571  0.000  0.000 0  1735634758.385 iRoC  1.470
ODOM  1.000  1.000  1.571  0.000  0.000 0  1735634758.395 iRoC  1.480
ODOM  1.000  1.000  1.571  0.000  0.000 0  1735634758.405 iRoC  1.490
ODOM  1.000  1.000  1.571  0.000  0.000 0  1735634758.415 iRoC  1.500
ODOM  1.000  1.000  1.571  0.000  0.000 0  1735634758.425 iRoC  1.510
ODOM  1.000  1.000  1.571  0.000  0.000 0  1735634758.435 iRoC  1.520
ODOM  1.000  1.000  1.571  0.000  0.000 0  1735634758.445 iRoC  1.530
ODOM  1.000  1.000  1.571  0.000  0.000 0  1735634758.455 iRoC  1.540
ODOM  1.000  1.000  1.571  0.000  0.000 0  1735634758.465 iRoC  1.550
ODOM  1.000  1.000  1.571  0.000  0.000 0  1735634758.475 iRoC  1.560
ODOM  1.000  1.000  1.571  0.000  0.000 0  1735634758.485 iRoC  1.570
ODOM  1.000  1.000  1.571  0.000  0.000 0  1735634758.495 iRoC  1.580
ODOM  1.000  1.000  1.571  0.000  0.000 0  1735634758.505 iRoC  1.590
ODOM  1.000  1.000  1.571  0.000  0.000 0  1735634758.515 iRoC  1.600
ODOM  1.000  1.020  1.571  2.000  0.000 0  1735634758.525 iRoC  1.610
ODOM  1.000  1.040  1.571  2.000  0.000 0  1735634758.535 iRoC  1.620
ODOM  1.000  1.060  1.571  2.000  0.000 0  1735634758.545 iRoC  1.630
ODOM  1.000  1.080  1.571  2.000  0.000 0  1735634758.555 iRoC  1.640
ODOM  1.000  1.100  1.571  2.000  0.000 0  1735634758.565 iRoC  1.650
ODOM  1.000  1.120  1.571  2.000  0.000 0  1735634758.575 iRoC  1.660
ODOM  1.000  1.140  1.571  2.000  0.000 0  1735634758.585 iRoC  1.670
ODOM  1.000  1.160  1.571  2.000  0.000 0  1735634758.595 iRoC  1.680
ODOM  1.000  1.180  1.571  2.000  0.000 0  1735634758.605 iRoC  1.690
ODOM  1.000  1.200  1.571  2.000  0.000 0  1735634758.615 iRoC  1.700
ODOM  1.000  1.220  1.571  2.000  0.000 0  1735634758.625 iRoC  1.710
ODOM  1.000  1.240  1.571  2.000  0.000 0  1735634758.635 iRoC  1.720
ODOM  1.000  1.260  1.571  2.000  0.000 0  1735634758.645 iRoC  1.730
ODOM  1.000  1.280  1.571  2.000  0.000 0  1735634758.655 iRoC  1.740
ODOM  1.000  1.300  1.571  2.000  0.000 0  1735634758.665 iRoC  1.750
ODOM  1.000  1.320  1.571  2.000  0.000 0  1735634758.675 iRoC  1.760
ODOM  1.000  1.340  1.571  2.000  0.000 0  1735634758.685 iRoC  1.770
ODOM  1.000  1.360  1.571  2.000  0.000 0  1735634758.695 iRoC  1.780
ODOM  1.000  1.380  1.571  2.000  0.000 0  1735634758.705 iRoC  1.790
ODOM  1.000  1.400  1.571  2.000  0.000 0  1735634758.715 iRoC  1.800
ODOM  1.000  1.420  1.551  2.000 -2.000 0  1735634758.725 iRoC  1.810
ODOM  1.000  1.440  1.531  2.000 -2.000 0  1735634758.735 iRoC  1.820
ODOM  1.000  1.460  1.511  2.000 -2.000 0  1735634758.745 iRoC  1.830
ODOM  1.000  1.480  1.491  2.000 -2.000 0  1735634758.755 iRoC  1.840
ODOM  1.000  1.500  1.471  2.000 -2.000 0  1735634758.765 iRoC  1.850
ODOM  1.000  1.520  1.451  2.000 -2.000 0  1735634758.775 iRoC  1.860
ODOM  1.000  1.540  1.431  2.000 -2.000 0  1735634758.785 iRoC  1.870
ODOM  1.000  1.560  1.411  2.000 -2.000 0  1735634758.795 iRoC  1.880
ODOM  1.000  1.580  1.391  2.000 -2.000 0  1735634758.805 iRoC  1.890
ODOM  1.000  1.600  1.371  2.000 -2.000 0  1735634758.815 iRoC  1.900
ODOM  1.020  1.620  1.351  2.000 -2.000 0  1735634758.825 iRoC  1.910
ODOM  1.020  1.640  1.331  2.000 -2.000 0  1735634758.835 iRoC  1.920
ODOM  1.020  1.660  1.311  2.000 -2.000 0  1735634758.845 iRoC  1.930
ODOM  1.020  1.680  1.291  2.000 -2.000 0  1735634758.855 iRoC  1.940
ODOM  1.040  1.700  1.271  2.000 -2.000 0  1735634758.865 iRoC  1.950
ODOM  1.040  1.720  1.251  2.000 -2.000 0  1735634758.875 iRoC  1.960
ODOM  1.040  1.740  1.231  2.000 -2.000 0  1735634758.885 iRoC  1.970
ODOM  1.060  1.760  1.211  2.000 -2.000 0  1735634758.895 iRoC  1.980
ODOM  1.060  1.780  1.191  2.000 -2.000 0  1735634758.905 iRoC  1.990
ODOM  1.060  1.800  1.171  2.000 -2.000 0  1735634758.915 iRoC  2.000
ODOM  1.080  1.820  1.151  2.000 -2.000 0  1735634758.925 iRoC  2.010
ODOM  1.080  1.840  1.131  2.000 -2.000 0  1735634758.935 iRoC  2.020
ODOM  1.100  1.860  1.111  2.000 -2.000 0  1735634758.945 iRoC  2.030
ODOM  1.100  1.880  1.091  2.000 -2.000 0  1735634758.955 iRoC  2.040
ODOM  1.120  1.880  1.071  2.000 -2.000 0  1735634758.965 iRoC  2.050
ODOM  1.120  1.900  1.051  2.000 -2.000 0  1735634758.975 iRoC  2.060
ODOM  1.140  1.920  1.031  2.000 -2.000 0  1735634758.985 iRoC  2.070
ODOM  1.140  1.940  1.011  2.000 -2.000 0  1735634758.995 iRoC  2.080
ODOM  1.160  1.960  0.991  2.000 -2.000 0  1735634759.005 iRoC  2.090
ODOM  1.160  1.980  0.971  2.000 -2.000 0  1735634759.015 iRoC  2.100
ODOM  1.180  2.000  0.951  2.000 -2.000 0  1735634759.025 iRoC  2.110
ODOM  1.180  2.000  0.931  2.000 -2.000 0  1735634759.035 iRoC  2.120
ODOM  1.200  2.020  0.911  2.000 -2.000 0  1735634759.045 iRoC  2.130
ODOM  1.220  2.040  0.891  2.000 -2.000 0  1735634759.055 iRoC  2.140
ODOM  1.220  2.060  0.871  2.000 -2.000 0  1735634759.065 iRoC  2.150
ODOM  1.240  2.060  0.851  2.000 -2.000 0  1735634759.075 iRoC  2.160
ODOM  1.260  2.080  0.831  2.000 -2.000 0  1735634759.085 iRoC  2.170
ODOM  1.260  2.100  0.811  2.000 -2.000 0  1735634759.095 iRoC  2.180
ODOM  1.280  2.120  0.791  2.000 -2.000 0  1735634759.105 iRoC  2.190
ODOM  1.300  2.120  0.771  2.000 -2.000 0  1735634759.115 iRoC  2.200
ODOM  1.300  2.140  0.751  2.000 -2.000 0  1735634759.125 iRoC  2.210
ODOM  1.320  2.160  0.731  2.000 -2.000 0  1735634759.135 iRoC  2.220
ODOM  1.340  2.160  0.711  2.000 -2.000 0  1735634759.145 iRoC  2.230
ODOM  1.360  2.180  0.691  2.000 -2.000 0  1735634759.155 iRoC  2.240
ODOM  1.360  2.200  0.671  2.000 -2.000 0  1735634759.165 iRoC  2.250
ODOM  1.380  2.200  0.651  2.000 -2.000 0  1735634759.175 iRoC  2.260
ODOM  1.400  2.220  0.631  2.000 -2.000 0  1735634759.185 iRoC  2.270
ODOM  1.420  2.220  0.611  2.000 -2.000 0  1735634759.195 iRoC  2.280
ODOM  1.440  2.240  0.591  2.000 -2.000 0  1735634759.205 iRoC  2.290
ODOM  1.440  2.260  0.571  2.000 -2.000 0  1735634759.215 iRoC  2.300
ODOM  1.460  2.260  0.551  2.000 -2.000 0  1735634759.225 iRoC  2.310
ODOM  1.480  2.280  0.531  2.000 -2.000 0  1735634759.235 iRoC  2.320
ODOM  1.500  2.280  0.511  2.000 -2.000 0  1735634759.245 iRoC  2.330
ODOM  1.520  2.300  0.491  2.000 -2.000 0  1735634759.255 iRoC  2.340
ODOM  1.540  2.300  0.471  2.000 -2.000 0  1735634759.265 iRoC  2.350
ODOM  1.560  2.320  0.451  2.000 -2.000 0  1735634759.275 iRoC  2.360
ODOM  1.580  2.320  0.431  2.000 -2.000 0  1735634759.285 iRoC  2.370
ODOM  1.600  2.320  0.411  2.000 -2.000 0  1735634759.295 iRoC  2.380
ODOM  1.600  2.340  0.391  2.000 -2.000 0  1735634759.305 iRoC  2.390
ODOM  1.620  2.340  0.371  2.000 -2.000 0  1735634759.315 iRoC  2.400
ODOM  1.640  2.340  0.351  2.000 -2.000 0  1735634759.325 iRoC  2.410
ODOM  1.660  2.360  0.331  2.000 -2.000 0  1735634759.335 iRoC  2.420
ODOM  1.680  2.360  0.311  2.000 -2.000 0  1735634759.345 iRoC  2.430
ODOM  1.700  2.360  0.291  2.000 -2.000 0  1735634759.355 iRoC  2.440
ODOM  1.720  2.380  0.271  2.000 -2.000 0  1735634759.365 iRoC  2.450
ODOM  1.740  2.380  0.251  2.000 -2.000 0  1735634759.375 iRoC  2.460
ODOM  1.760  2.380  0.231  2.000 -2.000 0  1735634759.385 iRoC  2.470
ODOM  1.780  2.380  0.211  2.000 -2.000 0  1735634759.395 iRoC  2.480
ODOM  1.800  2.400  0.191  2.000 -2.000 0  1735634759.405 iRoC  2.490
ODOM  1.820  2.400  0.171  2.000 -2.000 0  1735634759.415 iRoC  2.500
ODOM  1.840  2.400  0.151  2.000 -2.000 0  1735634759.425 iRoC  2.510
ODOM  1.860  2.400  0.131  2.000 -2.000 0  1735634759.435 iRoC  2.520
ODOM  1.880  2.400  0.111  2.000 -2.000 0  1735634759.445 iRoC  2.530
ODOM  1.900  2.400  0.091  2.000 -2.000 0  1735634759.455 iRoC  2.540
ODOM  1.920  2.400  0.071  2.000 -2.000 0  1735634759.465 iRoC  2.550
ODOM  1.940  2.400  0.051  2.000 -2.000 0  1735634759.475 iRoC  2.560
ODOM  1.960  2.400  0.031  2.000 -2.000 0  1735634759.485 iRoC  2.570
ODOM  1.980  2.400  0.011  2.000 -2.000 0  1735634759.495 iRoC  2.580
ODOM  2.000  2.400 -0.009  2.000 -2.000 0  1735634759.505 iRoC  2.590
ODOM  2.020  2.400 -0.029  2.000 -2.000 0  1735634759.515 iRoC  2.600
ODOM  2.040  2.400 -0.029  2.000  0.000 0  1735634759.525 iRoC  2.610
ODOM  2.060  2.400 -0.029  2.000  0.000 0  1735634759.535 iRoC  2.620
ODOM  2.080  2.400 -0.029  2.000  0.000 0  1735634759.545 iRoC  2.630
ODOM  2.100  2.400 -0.029  2.000  0.000 0  1735634759.555 iRoC  2.640
ODOM  2.120  2.400 -0.029  2.000  0.000 0  1735634759.565 iRoC  2.650
ODOM  2.140  2.400 -0.029  2.000  0.000 0  1735634759.575 iRoC  2.660
ODOM  2.160  2.400 -0.029  2.000  0.000 0  1735634759.585 iRoC  2.670
ODOM  2.180  2.400 -0.029  2.000  0.000 0  1735634759.595 iRoC  2.680
ODOM  2.200  2.400 -0.029  2.000  0.000 0  1735634759.605 iRoC  2.690
ODOM  2.220  2.400 -0.029  2.000  0.000 0  1735634759.615 iRoC  2.700
ODOM  2.240  2.400 -0.029  2.000  0.000 0  1735634759.625 iRoC  2.710
ODOM  2.260  2.400 -0.029  2.000  0.000 0  1735634759.635 iRoC  2.720
ODOM  2.280  2.400 -0.029  2.000  0.000 0  1735634759.645 iRoC  2.730
ODOM  2.300  2.400 -0.029  2.000  0.000 0  1735634759.655 iRoC  2.740
ODOM  2.320  2.400 -0.029  2.000  0.000 0  1735634759.665 iRoC  2.750
ODOM  2.340  2.400 -0.029  2.000  0.000 0  1735634759.675 iRoC  2.760
ODOM  2.360  2.400 -0.029  2.000  0.000 0  1735634759.685 iRoC  2.770
ODOM  2.380  2.400 -0.029  2.000  0.000 0  1735634759.695 iRoC  2.780
ODOM  2.400  2.400 -0.029  2.000  0.000 0  1735634759.705 iRoC  2.790
ODOM  2.420  2.400 -0.029  2.000  0.000 0  1735634759.715 iRoC  2.800
ODOM  2.440  2.400 -0.029  2.000  0.000 0  1735634759.725 iRoC  2.810
ODOM  2.460  2.400 -0.029  2.000  0.000 0  1735634759.735 iRoC  2.820
ODOM  2.480  2.400 -0.029  2.000  0.000 0  1735634759.745 iRoC  2.830
ODOM  2.500  2.400 -0.029  2.000  0.000 0  1735634759.755 iRoC  2.840
ODOM  2.520  2.400 -0.029  2.000  0.000 0  1735634759.765 iRoC  2.850
ODOM  2.540  2.400 -0.029  2.000  0.000 0  1735634759.775 iRoC  2.860
ODOM  2.560  2.400 -0.029  2.000  0.000 0  1735634759.785 iRoC  2.870
ODOM  2.580  2.400 -0.029  2.000  0.000 0  1735634759.795 iRoC  2.880
ODOM  2.600  2.400 -0.029  2.000  0.000 0  1735634759.805 iRoC  2.890
ODOM  2.620  2.400 -0.029  2.000  0.000 0  1735634759.815 iRoC  2.900
ODOM  2.640  2.400 -0.029  2.000  0.000 0  1735634759.825 iRoC  2.910
ODOM  2.660  2.400 -0.029  2.000  0.000 0  1735634759.835 iRoC  2.920
ODOM  2.680  2.400 -0.029  2.000  0.000 0  1735634759.845 iRoC  2.930
ODOM  2.700  2.380 -0.029  2.000  0.000 0  1735634759.855 iRoC  2.940
ODOM  2.720  2.380 -0.029  2.000  0.000 0  1735634759.865 iRoC  2.950
ODOM  2.740  2.380 -0.029  2.000  0.000 0  1735634759.875 iRoC  2.960
ODOM  2.760  2.380 -0.029  2.000  0.000 0  1735634759.885 iRoC  2.970
ODOM  2.780  2.380 -0.029  2.000  0.000 0  1735634759.895 iRoC  2.980
ODOM  2.800  2.380 -0.029  2.000  0.000 0  1735634759.905 iRoC  2.990
ODOM  2.820  2.380 -0.029  2.000  0.000 0  1735634759.915 iRoC  3.000
ODOM  2.840  2.380 -0.029  2.000  0.000 0  1735634759.925 iRoC  3.010
ODOM  2.860  2.380 -0.029  2.000  0.000 0  1735634759.935 iRoC  3.020
ODOM  2.880  2.380 -0.029  2.000  0.000 0  1735634759.945 iRoC  3.030
ODOM  2.900  2.380 -0.029  2.000  0.000 0  1735634759.955 iRoC  3.040
ODOM  2.920  2.380 -0.029  2.000  0.000 0  1735634759.965 iRoC  3.050
ODOM  2.940  2.380 -0.029  2.000  0.000 0  1735634759.975 iRoC  3.060
ODOM  2.960  2.380 -0.029  2.000  0.000 0  1735634759.985 iRoC  3.070
ODOM  2.980  2.380 -0.029  2.000  0.000 0  1735634759.995 iRoC  3.080
ODOM  3.000  2.380 -0.029  2.000  0.000 0  1735634760.005 iRoC  3.090
ODOM  3.020  2.380 -0.029  2.000  0.000 0  1735634760.015 iRoC  3.100
ODOM  3.040  2.380 -0.029  2.000  0.000 0  1735634760.025 iRoC  3.110
ODOM  3.060  2.380 -0.029  2.000  0.000 0  1735634760.035 iRoC  3.120
ODOM  3.080  2.380 -0.029  2.000  0.000 0  1735634760.045 iRoC  3.130
ODOM  3.100  2.380 -0.029  2.000  0.000 0  1735634760.055 iRoC  3.140
ODOM  3.120  2.380 -0.029  2.000  0.000 0  1735634760.065 iRoC  3.150
ODOM  3.140  2.380 -0.029  2.000  0.000 0  1735634760.075 iRoC  3.160
ODOM  3.160  2.380 -0.029  2.000  0.000 0  1735634760.085 iRoC  3.170
ODOM  3.180  2.380 -0.029  2.000  0.000 0  1735634760.095 iRoC  3.180
ODOM  3.200  2.380 -0.029  2.000  0.000 0  1735634760.105 iRoC  3.190
ODOM  3.220  2.380 -0.029  2.000  0.000 0  1735634760.115 iRoC  3.200
ODOM  3.240  2.380 -0.029  2.000  0.000 0  1735634760.125 iRoC  3.210
ODOM  3.260  2.380 -0.029  2.000  0.000 0  1735634760.135 iRoC  3.220
ODOM  3.280  2.380 -0.029  2.000  0.000 0  1735634760.145 iRoC  3.230
ODOM  3.300  2.380 -0.029  2.000  0.000 0  1735634760.155 iRoC  3.240
ODOM  3.320  2.380 -0.029  2.000  0.000 0  1735634760.165 iRoC  3.250
ODOM  3.340  2.380 -0.029  2.000  0.000 0  1735634760.175 iRoC  3.260
ODOM  3.360  2.380 -0.029  2.000  0.000 0  1735634760.185 iRoC  3.270
ODOM  3.380  2.360 -0.029  2.000  0.000 0  1735634760.195 iRoC  3.280
ODOM  3.400  2.360 -0.029  2.000  0.000 0  1735634760.205 iRoC  3.290
ODOM  3.420  2.360 -0.029  2.000  0.000 0  1735634760.215 iRoC  3.300
ODOM  3.440  2.360 -0.029  2.000  0.000 0  1735634760.225 iRoC  3.310
ODOM  3.460  2.360 -0.029  2.000  0.000 0  1735634760.235 iRoC  3.320
ODOM  3.480  2.360 -0.029  2.000  0.000 0  1735634760.245 iRoC  3.330
ODOM  3.500  2.360 -0.029  2.000  0.000 0  1735634760.255 iRoC  3.340
ODOM  3.520  2.360 -0.029  2.000  0.000 0  1735634760.265 iRoC  3.350
ODOM  3.540  2.360 -0.029  2.000  0.000 0  1735634760.275 iRoC  3.360
ODOM  3.560  2.360 -0.029  2.000  0.000 0  1735634760.285 iRoC  3.370
ODOM  3.580  2.360 -0.029  2.000  0.000 0  1735634760.295 iRoC  3.380
ODOM  3.600  2.360 -0.029  2.000  0.000 0  1735634760.305 iRoC  3.390
ODOM  3.620  2.360 -0.029  2.000  0.000 0  1735634760.315 iRoC  3.400
ODOM  3.640  2.360 -0.029  2.000  0.000 0  1735634760.325 iRoC  3.410
ODOM  3.660  2.360 -0.029  2.000  0.000 0  1735634760.335 iRoC  3.420
ODOM  3.680  2.360 -0.029  2.000  0.000 0  1735634760.345 iRoC  3.430
ODOM  3.700  2.360 -0.029  2.000  0.000 0  1735634760.355 iRoC  3.440
ODOM  3.720  2.360 -0.029  2.000  0.000 0  1735634760.365 iRoC  3.450
ODOM  3.740  2.360 -0.029  2.000  0.000 0  1735634760.375 iRoC  3.460
ODOM  3.760  2.360 -0.029  2.000  0.000 0  1735634760.385 iRoC  3.470
ODOM  3.780  2.360 -0.029  2.000  0.000 0  1735634760.395 iRoC  3.480
ODOM  3.800  2.360 -0.029  2.000  0.000 0  1735634760.405 iRoC  3.490
ODOM  3.820  2.360 -0.029  2.000  0.000 0  1735634760.415 iRoC  3.500
ODOM  3.840  2.360 -0.029  2.000  0.000 0  1735634760.425 iRoC  3.510
ODOM  3.860  2.360 -0.029  2.000  0.000 0  1735634760.435 iRoC  3.520
ODOM  3.880  2.360 -0.029  2.000  0.000 0  1735634760.445 iRoC  3.530
ODOM  3.900  2.360 -0.029  2.000  0.000 0  1735634760.455 iRoC  3.540
ODOM  3.920  2.360 -0.029  2.000  0.000 0  1735634760.465 iRoC  3.550
ODOM  3.940  2.360 -0.029  2.000  0.000 0  1735634760.475 iRoC  3.560
ODOM  3.960  2.360 -0.029  2.000  0.000 0  1735634760.485 iRoC  3.570
ODOM  3.980  2.360 -0.029  2.000  0.000 0  1735634760.495 iRoC  3.580
ODOM  4.000  2.360 -0.029  2.000  0.000 0  1735634760.505 iRoC  3.590
ODOM  4.020  2.360 -0.029  2.000  0.000 0  1735634760.515 iRoC  3.600
ODOM  4.040  2.360 -0.029  2.000  0.000 0  1735634760.525 iRoC  3.610
ODOM  4.060  2.360 -0.029  2.000  0.000 0  1735634760.535 iRoC  3.620
ODOM  4.080  2.340 -0.029  2.000  0.000 0  1735634760.545 iRoC  3.630
ODOM  4.100  2.340 -0.029  2.000  0.000 0  1735634760.555 iRoC  3.640
ODOM  4.120  2.340 -0.029  2.000  0.000 0  1735634760.565 iRoC  3.650
ODOM  4.140  2.340 -0.029  2.000  0.000 0  1735634760.575 iRoC  3.660
ODOM  4.160  2.340 -0.029  2.000  0.000 0  1735634760.585 iRoC  3.670
ODOM  4.180  2.340 -0.029  2.000  0.000 0  1735634760.595 iRoC  3.680
ODOM  4.200  2.340 -0.029  2.000  0.000 0  1735634760.605 iRoC  3.690
ODOM  4.220  2.340 -0.029  2.000  0.000 0  1735634760.615 iRoC  3.700
ODOM  4.240  2.340 -0.029  2.000  0.000 0  1735634760.625 iRoC  3.710
ODOM  4.260  2.340 -0.029  2.000  0.000 0  1735634760.635 iRoC  3.720
ODOM  4.280  2.340 -0.029  2.000  0.000 0  1735634760.645 iRoC  3.730
ODOM  4.300  2.340 -0.029  2.000  0.000 0  1735634760.655 iRoC  3.740
ODOM  4.320  2.340 -0.029  2.000  0.000 0  1735634760.665 iRoC  3.750
ODOM  4.340  2.340 -0.029  2.000  0.000 0  1735634760.675 iRoC  3.760
ODOM  4.360  2.340 -0.029  2.000  0.000 0  1735634760.685 iRoC  3.770
ODOM  4.380  2.340 -0.029  2.000  0.000 0  1735634760.695 iRoC  3.780
ODOM  4.400  2.340 -0.029  2.000  0.000 0  1735634760.705 iRoC  3.790
ODOM  4.420  2.340 -0.029  2.000  0.000 0  1735634760.715 iRoC  3.800
ODOM  4.440  2.340 -0.029  2.000  0.000 0  1735634760.725 iRoC  3.810
ODOM  4.460  2.340 -0.029  2.000  0.000 0  1735634760.735 iRoC  3.820
ODOM  4.480  2.340 -0.029  2.000  0.000 0  1735634760.745 iRoC  3.830
ODOM  4.500  2.340 -0.029  2.000  0.000 0  1735634760.755 iRoC  3.840
ODOM  4.520  2.340 -0.029  2.000  0.000 0  1735634760.765 iRoC  3.850
ODOM  4.540  2.340 -0.029  2.000  0.000 0  1735634760.775 iRoC  3.860
ODOM  4.560  2.340 -0.029  2.000  0.000 0  1735634760.785 iRoC  3.870
ODOM  4.580  2.340 -0.029  2.000  0.000 0  1735634760.795 iRoC  3.880
ODOM  4.600  2.340 -0.029  2.000  0.000 0  1735634760.805 iRoC  3.890
ODOM  4.620  2.340 -0.029  2.000  0.000 0  1735634760.815 iRoC  3.900
ODOM  4.640  2.340 -0.029  2.000  0.000 0  1735634760.825 iRoC  3.910
ODOM  4.660  2.340 -0.029  2.000  0.000 0  1735634760.835 iRoC  3.920
ODOM  4.680  2.340 -0.029  2.000  0.000 0  1735634760.845 iRoC  3.930
ODOM  4.700  2.340 -0.029  2.000  0.000 0  1735634760.855 iRoC  3.940
ODOM  4.720  2.340 -0.029  2.000  0.000 0  1735634760.865 iRoC  3.950
ODOM  4.740  2.340 -0.029  2.000  0.000 0  1735634760.875 iRoC  3.960
ODOM  4.760  2.320 -0.029  2.000  0.000 0  1735634760.885 iRoC  3.970
ODOM  4.780  2.320 -0.029  2.000  0.000 0  1735634760.895 iRoC  3.980
ODOM  4.800  2.320 -0.029  2.000  0.000 0  1735634760.905 iRoC  3.990
ODOM  4.820  2.320 -0.029  2.000  0.000 0  1735634760.915 iRoC  4.000
ODOM  4.840  2.320 -0.029  2.000  0.000 0  1735634760.925 iRoC  4.010
ODOM  4.860  2.320 -0.029  2.000  0.000 0  1735634760.935 iRoC  4.020
ODOM  4.880  2.320 -0.029  2.000  0.000 0  1735634760.945 iRoC  4.030
ODOM  4.900  2.320 -0.029  2.000  0.000 0  1735634760.955 iRoC  4.040
ODOM  4.920  2.320 -0.029  2.000  0.000 0  1735634760.965 iRoC  4.050
ODOM  4.940  2.320 -0.029  2.000  0.000 0  1735634760.975 iRoC  4.060
ODOM  4.960  2.320 -0.029  2.000  0.000 0  1735634760.985 iRoC  4.070
ODOM  4.980  2.320 -0.029  2.000  0.000 0  1735634760.995 iRoC  4.080
ODOM  5.000  2.320 -0.029  2.000  0.000 0  1735634761.005 iRoC  4.090
ODOM  5.020  2.320 -0.029  2.000  0.000 0  1735634761.015 iRoC  4.100
ODOM  5.040  2.320 -0.029  2.000  0.000 0  1735634761.025 iRoC  4.110
ODOM  5.060  2.320 -0.029  2.000  0.000 0  1735634761.035 iRoC  4.120
ODOM  5.080  2.320 -0.029  2.000  0.000 0  1735634761.045 iRoC  4.130
ODOM  5.100  2.320 -0.029  2.000  0.000 0  1735634761.055 iRoC  4.140
ODOM  5.120  2.320 -0.029  2.000  0.000 0  1735634761.065 iRoC  4.150
ODOM  5.140  2.320 -0.029  2.000  0.000 0  1735634761.075 iRoC  4.160
ODOM  5.160  2.320 -0.029  2.000  0.000 0  1735634761.085 iRoC  4.170
ODOM  5.180  2.320 -0.029  2.000  0.000 0  1735634761.095 iRoC  4.180
ODOM  5.200  2.320 -0.029  2.000  0.000 0  1735634761.105 iRoC  4.190
ODOM  5.220  2.320 -0.029  2.000  0.000 0  1735634761.115 iRoC  4.200
ODOM  5.240  2.320 -0.029  2.000  0.000 0  1735634761.125 iRoC  4.210
ODOM  5.260  2.320 -0.029  2.000  0.000 0  1735634761.135 iRoC  4.220
ODOM  5.280  2.320 -0.029  2.000  0.000 0  1735634761.145 iRoC  4.230
ODOM  5.300  2.320 -0.029  2.000  0.000 0  1735634761.155 iRoC  4.240
ODOM  5.320  2.320 -0.029  2.000  0.000 0  1735634761.165 iRoC  4.250
ODOM  5.340  2.320 -0.029  2.000  0.000 0  1735634761.175 iRoC  4.260
ODOM  5.360  2.320 -0.029  2.000  0.000 0  1735634761.185 iRoC  4.270
ODOM  5.380  2.320 -0.029  2.000  0.000 0  1735634761.195 iRoC  4.280
ODOM  5.400  2.320 -0.029  2.000  0.000 0  1735634761.205 iRoC  4.290
ODOM  5.420  2.320 -0.029  2.000  0.000 0  1735634761.215 iRoC  4.300
ODOM  5.440  2.300 -0.029  2.000  0.000 0  1735634761.225 iRoC  4.310
ODOM  5.460  2.300 -0.029  2.000  0.000 0  1735634761.235 iRoC  4.320
ODOM  5.480  2.300 -0.029  2.000  0.000 0  1735634761.245 iRoC  4.330
ODOM  5.500  2.300 -0.029  2.000  0.000 0  1735634761.255 iRoC  4.340
ODOM  5.520  2.300 -0.029  2.000  0.000 0  1735634761.265 iRoC  4.350
ODOM  5.540  2.300 -0.029  2.000  0.000 0  1735634761.275 iRoC  4.360
ODOM  5.560  2.300 -0.029  2.000  0.000 0  1735634761.285 iRoC  4.370
ODOM  5.580  2.300 -0.029  2.000  0.000 0  1735634761.295 iRoC  4.380
ODOM  5.600  2.300 -0.029  2.000  0.000 0  1735634761.305 iRoC  4.390
ODOM  5.620  2.300 -0.029  2.000  0.000 0  1735634761.315 iRoC  4.400
ODOM  5.640  2.300 -0.049  2.000 -2.000 0  1735634761.325 iRoC  4.410
ODOM  5.660  2.300 -0.069  2.000 -2.000 0  1735634761.335 iRoC  4.420
ODOM  5.680  2.300 -0.089  2.000 -2.000 0  1735634761.345 iRoC  4.430
ODOM  5.700  2.300 -0.109  2.000 -2.000 0  1735634761.355 iRoC  4.440
ODOM  5.720  2.300 -0.129  2.000 -2.000 0  1735634761.365 iRoC  4.450
ODOM  5.740  2.300 -0.149  2.000 -2.000 0  1735634761.375 iRoC  4.460
ODOM  5.760  2.300 -0.169  2.000 -2.000 0  1735634761.385 iRoC  4.470
ODOM  5.780  2.280 -0.189  2.000 -2.000 0  1735634761.395 iRoC  4.480
ODOM  5.800  2.280 -0.209  2.000 -2.000 0  1735634761.405 iRoC  4.490
ODOM  5.820  2.280 -0.229  2.000 -2.000 0  1735634761.415 iRoC  4.500
ODOM  5.840  2.280 -0.249  2.000 -2.000 0  1735634761.425 iRoC  4.510
ODOM  5.860  2.260 -0.269  2.000 -2.000 0  1735634761.435 iRoC  4.520
ODOM  5.880  2.260 -0.289  2.000 -2.000 0  1735634761.445 iRoC  4.530
ODOM  5.900  2.260 -0.309  2.000 -2.000 0  1735634761.455 iRoC  4.540
ODOM  5.920  2.260 -0.329  2.000 -2.000 0  1735634761.465 iRoC  4.550
ODOM  5.940  2.240 -0.349  2.000 -2.000 0  1735634761.475 iRoC  4.560
ODOM  5.940  2.240 -0.369  2.000 -2.000 0  1735634761.485 iRoC  4.570
ODOM  5.960  2.240 -0.389  2.000 -2.000 0  1735634761.495 iRoC  4.580
ODOM  5.980  2.220 -0.409  2.000 -2.000 0  1735634761.505 iRoC  4.590
ODOM  6.000  2.220 -0.429  2.000 -2.000 0  1735634761.515 iRoC  4.600
ODOM  6.020  2.200 -0.429  2.000  0.000 0  1735634761.525 iRoC  4.610
ODOM  6.040  2.200 -0.429  2.000  0.000 0  1735634761.535 iRoC  4.620
ODOM  6.060  2.180 -0.429  2.000  0.000 0  1735634761.545 iRoC  4.630
ODOM  6.080  2.180 -0.429  2.000  0.000 0  1735634761.555 iRoC  4.640
ODOM  6.100  2.180 -0.429  2.000  0.000 0  1735634761.565 iRoC  4.650
ODOM  6.120  2.160 -0.429  2.000  0.000 0  1735634761.575 iRoC  4.660
ODOM  6.140  2.160 -0.429  2.000  0.000 0  1735634761.585 iRoC  4.670
ODOM  6.160  2.140 -0.429  2.000  0.000 0  1735634761.595 iRoC  4.680
ODOM  6.160  2.140 -0.429  2.000  0.000 0  1735634761.605 iRoC  4.690
ODOM  6.180  2.140 -0.429  2.000  0.000 0  1735634761.615 iRoC  4.700
ODOM  6.200  2.120 -0.429  2.000  0.000 0  1735634761.625 iRoC  4.710
ODOM  6.220  2.120 -0.429  2.000  0.000 0  1735634761.635 iRoC  4.720
ODOM  6.240  2.100 -0.429  2.000  0.000 0  1735634761.645 iRoC  4.730
ODOM  6.260  2.100 -0.429  2.000  0.000 0  1735634761.655 iRoC  4.740
ODOM  6.280  2.080 -0.429  2.000  0.000 0  1735634761.665 iRoC  4.750
ODOM  6.300  2.080 -0.429  2.000  0.000 0  1735634761.675 iRoC  4.760
ODOM  6.320  2.080 -0.429  2.000  0.000 0  1735634761.685 iRoC  4.770
ODOM  6.340  2.060 -0.429  2.000  0.000 0  1735634761.695 iRoC  4.780
ODOM  6.360  2.060 -0.429  2.000  0.000 0  1735634761.705 iRoC  4.790
ODOM  6.360  2.040 -0.429  2.000  0.000 0  1735634761.715 iRoC  4.800
ODOM  6.380  2.040 -0.429  2.000  0.000 0  1735634761.725 iRoC  4.810
ODOM  6.400  2.040 -0.429  2.000  0.000 0  1735634761.735 iRoC  4.820
ODOM  6.420  2.020 -0.429  2.000  0.000 0  1735634761.745 iRoC  4.830
ODOM  6.440  2.020 -0.429  2.000  0.000 0  1735634761.755 iRoC  4.840
ODOM  6.460  2.000 -0.429  2.000  0.000 0  1735634761.765 iRoC  4.850
ODOM  6.480  2.000 -0.429  2.000  0.000 0  1735634761.775 iRoC  4.860
ODOM  6.500  1.980 -0.429  2.000  0.000 0  1735634761.785 iRoC  4.870
ODOM  6.520  1.980 -0.429  2.000  0.000 0  1735634761.795 iRoC  4.880
ODOM  6.540  1.980 -0.429  2.000  0.000 0  1735634761.805 iRoC  4.890
ODOM  6.560  1.960 -0.429  2.000  0.000 0  1735634761.815 iRoC  4.900
ODOM  6.560  1.960 -0.429  2.000  0.000 0  1735634761.825 iRoC  4.910
ODOM  6.580  1.940 -0.429  2.000  0.000 0  1735634761.835 iRoC  4.920
ODOM  6.600  1.940 -0.429  2.000  0.000 0  1735634761.845 iRoC  4.930
ODOM  6.620  1.940 -0.429  2.000  0.000 0  1735634761.855 iRoC  4.940
ODOM  6.640  1.920 -0.429  2.000  0.000 0  1735634761.865 iRoC  4.950
ODOM  6.660  1.920 -0.429  2.000  0.000 0  1735634761.875 iRoC  4.960
ODOM  6.680  1.900 -0.429  2.000  0.000 0  1735634761.885 iRoC  4.970
ODOM  6.700  1.900 -0.429  2.000  0.000 0  1735634761.895 iRoC  4.980
ODOM  6.720  1.880 -0.429  2.000  0.000 0  1735634761.905 iRoC  4.990
ODOM  6.740  1.880 -0.429  2.000  0.000 0  1735634761.915 iRoC  5.000
ODOM  6.760  1.880 -0.429  2.000  0.000 0  1735634761.925 iRoC  5.010
ODOM  6.760  1.860 -0.429  2.000  0.000 0  1735634761.935 iRoC  5.020
ODOM  6.780  1.860 -0.429  2.000  0.000 0  1735634761.945 iRoC  5.030
ODOM  6.800  1.840 -0.429  2.000  0.000 0  1735634761.955 iRoC  5.040
ODOM  6.820  1.840 -0.429  2.000  0.000 0  1735634761.965 iRoC  5.050
ODOM  6.840  1.840 -0.429  2.000  0.000 0  1735634761.975 iRoC  5.060
ODOM  6.860  1.820 -0.429  2.000  0.000 0  1735634761.985 iRoC  5.070
ODOM  6.880  1.820 -0.429  2.000  0.000 0  1735634761.995 iRoC  5.080
ODOM  6.900  1.800 -0.429  2.000  0.000 0  1735634762.005 iRoC  5.090
ODOM  6.920  1.800 -0.429  2.000  0.000 0  1735634762.015 iRoC  5.100
ODOM  6.940  1.780 -0.429  2.000  0.000 0  1735634762.025 iRoC  5.110
ODOM  6.960  1.780 -0.429  2.000  0.000 0  1735634762.035 iRoC  5.120
ODOM  6.960  1.780 -0.429  2.000  0.000 0  1735634762.045 iRoC  5.130
ODOM  6.980  1.760 -0.429  2.000  0.000 0  1735634762.055 iRoC  5.140
ODOM  7.000  1.760 -0.429  2.000  0.000 0  1735634762.065 iRoC  5.150
ODOM  7.020  1.740 -0.429  2.000  0.000 0  1735634762.075 iRoC  5.160
ODOM  7.040  1.740 -0.429  2.000  0.000 0  1735634762.085 iRoC  5.170
ODOM  7.060  1.740 -0.429  2.000  0.000 0  1735634762.095 iRoC  5.180
ODOM  7.080  1.720 -0.429  2.000  0.000 0  1735634762.105 iRoC  5.190
ODOM  7.100  1.720 -0.429  2.000  0.000 0  1735634762.115 iRoC  5.200
ODOM  7.120  1.700 -0.429  2.000  0.000 0  1735634762.125 iRoC  5.210
ODOM  7.140  1.700 -0.429  2.000  0.000 0  1735634762.135 iRoC  5.220
ODOM  7.160  1.680 -0.429  2.000  0.000 0  1735634762.145 iRoC  5.230
ODOM  7.160  1.680 -0.429  2.000  0.000 0  1735634762.155 iRoC  5.240
ODOM  7.180  1.680 -0.429  2.000  0.000 0  1735634762.165 iRoC  5.250
ODOM  7.200  1.660 -0.429  2.000  0.000 0  1735634762.175 iRoC  5.260
ODOM  7.220  1.660 -0.429  2.000  0.000 0  1735634762.185 iRoC  5.270
ODOM  7.240  1.640 -0.429  2.000  0.000 0  1735634762.195 iRoC  5.280
ODOM  7.260  1.640 -0.429  2.000  0.000 0  1735634762.205 iRoC  5.290
ODOM  7.280  1.640 -0.429  2.000  0.000 0  1735634762.215 iRoC  5.300
ODOM  7.300  1.620 -0.429  2.000  0.000 0  1735634762.225 iRoC  5.310
ODOM  7.320  1.620 -0.409  2.000  2.000 0  1735634762.235 iRoC  5.320
ODOM  7.340  1.600 -0.389  2.000  2.000 0  1735634762.245 iRoC  5.330
ODOM  7.360  1.600 -0.369  2.000  2.000 0  1735634762.255 iRoC  5.340
ODOM  7.360  1.600 -0.349  2.000  2.000 0  1735634762.265 iRoC  5.350
ODOM  7.380  1.580 -0.329  2.000  2.000 0  1735634762.275 iRoC  5.360
ODOM  7.400  1.580 -0.309  2.000  2.000 0  1735634762.285 iRoC  5.370
ODOM  7.420  1.580 -0.289  2.000  2.000 0  1735634762.295 iRoC  5.380
ODOM  7.440  1.560 -0.269  2.000  2.000 0  1735634762.305 iRoC  5.390
ODOM  7.460  1.560 -0.249  2.000  2.000 0  1735634762.315 iRoC  5.400
ODOM  7.480  1.560 -0.229  2.000  2.000 0  1735634762.325 iRoC  5.410
ODOM  7.500  1.560 -0.209  2.000  2.000 0  1735634762.335 iRoC  5.420
ODOM  7.520  1.560 -0.209  2.000  0.000 0  1735634762.345 iRoC  5.430
ODOM  7.540  1.540 -0.209  2.000  0.000 0  1735634762.355 iRoC  5.440
ODOM  7.560  1.540 -0.209  2.000  0.000 0  1735634762.365 iRoC  5.450
ODOM  7.580  1.540 -0.209  2.000  0.000 0  1735634762.375 iRoC  5.460
ODOM  7.600  1.540 -0.209  2.000  0.000 0  1735634762.385 iRoC  5.470
ODOM  7.620  1.520 -0.209  2.000  0.000 0  1735634762.395 iRoC  5.480
ODOM  7.640  1.520 -0.209  2.000  0.000 0  1735634762.405 iRoC  5.490
ODOM  7.660  1.520 -0.209  2.000  0.000 0  1735634762.415 iRoC  5.500
ODOM  7.680  1.520 -0.209  2.000  0.000 0  1735634762.425 iRoC  5.510
ODOM  7.700  1.520 -0.209  2.000  0.000 0  1735634762.435 iRoC  5.520
ODOM  7.720  1.500 -0.209  2.000  0.000 0  1735634762.445 iRoC  5.530
ODOM  7.740  1.500 -0.209  2.000  0.000 0  1735634762.455 iRoC  5.540
ODOM  7.760  1.500 -0.209  2.000  0.000 0  1735634762.465 iRoC  5.550
ODOM  7.780  1.500 -0.209  2.000  0.000 0  1735634762.475 iRoC  5.560
ODOM  7.800  1.500 -0.209  2.000  0.000 0  1735634762.485 iRoC  5.570
ODOM  7.820  1.480 -0.209  2.000  0.000 0  1735634762.495 iRoC  5.580
ODOM  7.840  1.480 -0.209  2.000  0.000 0  1735634762.505 iRoC  5.590
ODOM  7.860  1.480 -0.209  2.000  0.000 0  1735634762.515 iRoC  5.600
ODOM  7.880  1.480 -0.189  2.000  2.000 0  1735634762.525 iRoC  5.610
ODOM  7.900  1.480 -0.169  2.000  2.000 0  1735634762.535 iRoC  5.620
ODOM  7.920  1.460 -0.149  2.000  2.000 0  1735634762.545 iRoC  5.630
ODOM  7.940  1.460 -0.129  2.000  2.000 0  1735634762.555 iRoC  5.640
ODOM  7.960  1.460 -0.109  2.000  2.000 0  1735634762.565 iRoC  5.650
ODOM  7.980  1.460 -0.089  2.000  2.000 0  1735634762.575 iRoC  5.660
ODOM  8.000  1.460 -0.069  2.000  2.000 0  1735634762.585 iRoC  5.670
ODOM  8.020  1.460 -0.049  2.000  2.000 0  1735634762.595 iRoC  5.680
ODOM  8.040  1.460 -0.029  2.000  2.000 0  1735634762.605 iRoC  5.690
ODOM  8.060  1.460 -0.009  2.000  2.000 0  1735634762.615 iRoC  5.700
ODOM  8.080  1.460 -0.009  2.000  0.000 0  1735634762.625 iRoC  5.710
ODOM  8.100  1.460 -0.009  2.000  0.000 0  1735634762.635 iRoC  5.720
ODOM  8.120  1.460 -0.009  2.000  0.000 0  1735634762.645 iRoC  5.730
ODOM  8.140  1.460 -0.009  2.000  0.000 0  1735634762.655 iRoC  5.740
ODOM  8.160  1.460 -0.009  2.000  0.000 0  1735634762.665 iRoC  5.750
ODOM  8.180  1.460 -0.009  2.000  0.000 0  1735634762.675 iRoC  5.760
ODOM  8.200  1.460 -0.009  2.000  0.000 0  1735634762.685 iRoC  5.770
ODOM  8.220  1.460 -0.009  2.000  0.000 0  1735634762.695 iRoC  5.780
ODOM  8.240  1.460 -0.009  2.000  0.000 0  1735634762.705 iRoC  5.790
ODOM  8.260  1.460 -0.009  2.000  0.000 0  1735634762.715 iRoC  5.800
ODOM  8.280  1.460 -0.009  2.000  0.000 0  1735634762.725 iRoC  5.810
ODOM  8.300  1.460 -0.009  2.000  0.000 0  1735634762.735 iRoC  5.820
ODOM  8.320  1.460 -0.009  2.000  0.000 0  1735634762.745 iRoC  5.830
ODOM  8.340  1.460 -0.009  2.000  0.000 0  1735634762.755 iRoC  5.840
ODOM  8.360  1.460 -0.009  2.000  0.000 0  1735634762.765 iRoC  5.850
ODOM  8.380  1.460 -0.009  2.000  0.000 0  1735634762.775 iRoC  5.860
ODOM  8.400  1.460 -0.009  2.000  0.000 0  1735634762.785 iRoC  5.870
ODOM  8.420  1.460 -0.009  2.000  0.000 0  1735634762.795 iRoC  5.880
ODOM  8.440  1.460 -0.009  2.000  0.000 0  1735634762.805 iRoC  5.890
ODOM  8.460  1.460 -0.009  2.000  0.000 0  1735634762.815 iRoC  5.900
ODOM  8.480  1.460 -0.009  2.000  0.000 0  1735634762.825 iRoC  5.910
ODOM  8.500  1.460 -0.009  2.000  0.000 0  1735634762.835 iRoC  5.920
ODOM  8.520  1.460 -0.009  2.000  0.000 0  1735634762.845 iRoC  5.930
ODOM  8.540  1.460 -0.009  2.000  0.000 0  1735634762.855 iRoC  5.940
ODOM  8.560  1.460 -0.009  2.000  0.000 0  1735634762.865 iRoC  5.950
ODOM  8.580  1.460 -0.009  2.000  0.000 0  1735634762.875 iRoC  5.960
ODOM  8.600  1.460 -0.009  2.000  0.000 0  1735634762.885 iRoC  5.970
ODOM  8.620  1.460 -0.009  2.000  0.000 0  1735634762.895 iRoC  5.980
ODOM  8.640  1.460 -0.009  2.000  0.000 0  1735634762.905 iRoC  5.990
ODOM  8.660  1.460 -0.009  2.000  0.000 0  1735634762.915 iRoC  6.000
ODOM  8.680  1.460 -0.009  2.000  0.000 0  1735634762.925 iRoC  6.010
ODOM  8.700  1.460 -0.009  2.000  0.000 0  1735634762.935 iRoC  6.020
ODOM  8.720  1.460 -0.009  2.000  0.000 0  1735634762.945 iRoC  6.030
ODOM  8.740  1.460 -0.009  2.000  0.000 0  1735634762.955 iRoC  6.040
ODOM  8.760  1.460 -0.009  2.000  0.000 0  1735634762.965 iRoC  6.050
ODOM  8.780  1.460 -0.009  2.000  0.000 0  1735634762.975 iRoC  6.060
ODOM  8.800  1.460 -0.009  2.000  0.000 0  1735634762.985 iRoC  6.070
ODOM  8.820  1.460 -0.009  2.000  0.000 0  1735634762.995 iRoC  6.080
ODOM  8.840  1.460 -0.009  2.000  0.000 0  1735634763.005 iRoC  6.090
ODOM  8.860  1.460 -0.009  2.000  0.000 0  1735634763.015 iRoC  6.100
ODOM  8.880  1.460 -0.009  2.000  0.000 0  1735634763.025 iRoC  6.110
ODOM  8.900  1.460 -0.009  2.000  0.000 0  1735634763.035 iRoC  6.120
ODOM  8.920  1.440 -0.009  2.000  0.000 0  1735634763.045 iRoC  6.130
ODOM  8.940  1.440 -0.009  2.000  0.000 0  1735634763.055 iRoC  6.140
ODOM  8.960  1.440 -0.009  2.000  0.000 0  1735634763.065 iRoC  6.150
ODOM  8.980  1.440 -0.009  2.000  0.000 0  1735634763.075 iRoC  6.160
ODOM  9.000  1.440 -0.009  2.000  0.000 0  1735634763.085 iRoC  6.170
ODOM  9.020  1.440 -0.009  2.000  0.000 0  1735634763.095 iRoC  6.180
ODOM  9.040  1.440 -0.009  2.000  0.000 0  1735634763.105 iRoC  6.190
ODOM  9.060  1.440 -0.009  2.000  0.000 0  1735634763.115 iRoC  6.200
ODOM  9.080  1.440 -0.009  2.000  0.000 0  1735634763.125 iRoC  6.210
ODOM  9.100  1.440 -0.009  2.000  0.000 0  1735634763.135 iRoC  6.220
ODOM  9.120  1.440 -0.009  2.000  0.000 0  1735634763.145 iRoC  6.230
ODOM  9.140  1.440 -0.009  2.000  0.000 0  1735634763.155 iRoC  6.240
ODOM  9.160  1.440 -0.009  2.000  0.000 0  1735634763.165 iRoC  6.250
ODOM  9.180  1.440 -0.009  2.000  0.000 0  1735634763.175 iRoC  6.260
ODOM  9.200  1.440 -0.009  2.000  0.000 0  1735634763.185 iRoC  6.270
ODOM  9.220  1.440 -0.009  2.000  0.000 0  1735634763.195 iRoC  6.280
ODOM  9.240  1.440 -0.009  2.000  0.000 0  1735634763.205 iRoC  6.290
ODOM  9.260  1.440 -0.009  2.000  0.000 0  1735634763.215 iRoC  6.300
ODOM  9.280  1.440 -0.009  2.000  0.000 0  1735634763.225 iRoC  6.310
ODOM  9.300  1.440 -0.009  2.000  0.000 0  1735634763.235 iRoC  6.320
ODOM  9.320  1.440 -0.009  2.000  0.000 0  1735634763.245 iRoC  6.330
ODOM  9.340  1.440 -0.009  2.000  0.000 0  1735634763.255 iRoC  6.340
ODOM  9.360  1.440 -0.009  2.000  0.000 0  1735634763.265 iRoC  6.350
ODOM  9.380  1.440 -0.009  2.000  0.000 0  1735634763.275 iRoC  6.360
ODOM  9.400  1.440 -0.009  2.000  0.000 0  1735634763.285 iRoC  6.370
ODOM  9.420  1.440 -0.009  2.000  0.000 0  1735634763.295 iRoC  6.380
ODOM  9.440  1.440 -0.009  2.000  0.000 0  1735634763.305 iRoC  6.390
ODOM  9.460  1.440 -0.009  2.000  0.000 0  1735634763.315 iRoC  6.400
ODOM  9.480  1.440 -0.009  2.000  0.000 0  1735634763.325 iRoC  6.410
ODOM  9.500  1.440 -0.009  2.000  0.000 0  1735634763.335 iRoC  6.420
ODOM  9.520  1.440 -0.009  2.000  0.000 0  1735634763.345 iRoC  6.430
ODOM  9.540  1.440 -0.009  2.000  0.000 0  1735634763.355 iRoC  6.440
ODOM  9.560  1.440 -0.009  2.000  0.000 0  1735634763.365 iRoC  6.450
ODOM  9.580  1.440 -0.009  2.000  0.000 0  1735634763.375 iRoC  6.460
ODOM  9.600  1.440 -0.009  2.000  0.000 0  1735634763.385 iRoC  6.470
ODOM  9.620  1.440 -0.009  2.000  0.000 0  1735634763.395 iRoC  6.480
ODOM  9.640  1.440 -0.009  2.000  0.000 0  1735634763.405 iRoC  6.490
ODOM  9.660  1.440 -0.009  2.000  0.000 0  1735634763.415 iRoC  6.500
ODOM  9.680  1.440 -0.009  2.000  0.000 0  1735634763.425 iRoC  6.510
ODOM  9.700  1.440 -0.009  2.000  0.000 0  1735634763.435 iRoC  6.520
ODOM  9.720  1.440 -0.009  2.000  0.000 0  1735634763.445 iRoC  6.530
ODOM  9.740  1.440 -0.009  2.000  0.000 0  1735634763.455 iRoC  6.540
ODOM  9.760  1.440 -0.009  2.000  0.000 0  1735634763.465 iRoC  6.550
ODOM  9.780  1.440 -0.009  2.000  0.000 0  1735634763.475 iRoC  6.560
ODOM  9.800  1.440 -0.009  2.000  0.000 0  1735634763.485 iRoC  6.570
ODOM  9.820  1.440 -0.009  2.000  0.000 0  1735634763.495 iRoC  6.580
ODOM  9.840  1.440 -0.009  2.000  0.000 0  1735634763.505 iRoC  6.590
ODOM  9.860  1.440 -0.009  2.000  0.000 0  1735634763.515 iRoC  6.600
ODOM  9.880  1.440 -0.009  2.000  0.000 0  1735634763.525 iRoC  6.610
ODOM  9.900  1.440 -0.009  2.000  0.000 0  1735634763.535 iRoC  6.620
ODOM  9.920  1.440 -0.009  2.000  0.000 0  1735634763.545 iRoC  6.630
ODOM  9.940  1.440 -0.009  2.000  0.000 0  1735634763.555 iRoC  6.640
ODOM  9.960  1.440 -0.009  2.000  0.000 0  1735634763.565 iRoC  6.650
ODOM  9.980  1.440 -0.009  2.000  0.000 0  1735634763.575 iRoC  6.660
ODOM  10.000  1.440 -0.009  2.000  0.000 0  1735634763.585 iRoC  6.670
ODOM  10.020  1.440 -0.009  2.000  0.000 0  1735634763.595 iRoC  6.680
ODOM  10.040  1.440 -0.009  2.000  0.000 0  1735634763.605 iRoC  6.690
ODOM  10.060  1.440 -0.009  2.000  0.000 0  1735634763.615 iRoC  6.700
ODOM  10.080  1.440 -0.009  2.000  0.000 0  1735634763.625 iRoC  6.710
ODOM  10.100  1.440 -0.009  2.000  0.000 0  1735634763.635 iRoC  6.720
ODOM  10.120  1.440 -0.009  2.000  0.000 0  1735634763.645 iRoC  6.730
ODOM  10.140  1.440 -0.009  2.000  0.000 0  1735634763.655 iRoC  6.740
ODOM  10.160  1.440 -0.009  2.000  0.000 0  1735634763.665 iRoC  6.750
ODOM  10.180  1.440 -0.009  2.000  0.000 0  1735634763.675 iRoC  6.760
ODOM  10.200  1.440 -0.009  2.000  0.000 0  1735634763.685 iRoC  6.770
ODOM  10.220  1.440 -0.009  2.000  0.000 0  1735634763.695 iRoC  6.780
ODOM  10.240  1.440 -0.009  2.000  0.000 0  1735634763.705 iRoC  6.790
ODOM  10.260  1.440 -0.009  2.000  0.000 0  1735634763.715 iRoC  6.800
ODOM  10.280  1.440 -0.009  2.000  0.000 0  1735634763.725 iRoC  6.810
ODOM  10.300  1.440 -0.009  2.000  0.000 0  1735634763.735 iRoC  6.820
ODOM  10.320  1.440 -0.009  2.000  0.000 0  1735634763.745 iRoC  6.830
ODOM  10.340  1.440 -0.009  2.000  0.000 0  1735634763.755 iRoC  6.840
ODOM  10.360  1.440 -0.009  2.000  0.000 0  1735634763.765 iRoC  6.850
ODOM  10.380  1.440 -0.009  2.000  0.000 0  1735634763.775 iRoC  6.860
ODOM  10.400  1.440 -0.009  2.000  0.000 0  1735634763.785 iRoC  6.870
ODOM  10.420  1.440 -0.009  2.000  0.000 0  1735634763.795 iRoC  6.880
ODOM  10.440  1.440 -0.009  2.000  0.000 0  1735634763.805 iRoC  6.890
ODOM  10.460  1.440 -0.009  2.000  0.000 0  1735634763.815 iRoC  6.900
ODOM  10.480  1.440 -0.009  2.000  0.000 0  1735634763.825 iRoC  6.910
ODOM  10.500  1.440 -0.009  2.000  0.000 0  1735634763.835 iRoC  6.920
ODOM  10.520  1.440 -0.009  2.000  0.000 0  1735634763.845 iRoC  6.930
ODOM  10.540  1.440 -0.009  2.000  0.000 0  1735634763.855 iRoC  6.940
ODOM  10.560  1.440 -0.009  2.000  0.000 0  1735634763.865 iRoC  6.950
ODOM  10.580  1.440 -0.009  2.000  0.000 0  1735634763.875 iRoC  6.960
ODOM  10.600  1.440 -0.009  2.000  0.000 0  1735634763.885 iRoC  6.970
ODOM  10.620  1.440 -0.009  2.000  0.000 0  1735634763.895 iRoC  6.980
ODOM  10.640  1.440 -0.009  2.000  0.000 0  1735634763.905 iRoC  6.990
ODOM  10.660  1.440 -0.009  2.000  0.000 0  1735634763.915 iRoC  7.000
ODOM  10.680  1.440 -0.009  2.000  0.000 0  1735634763.925 iRoC  7.010
ODOM  10.700  1.440 -0.009  2.000  0.000 0  1735634763.935 iRoC  7.020
ODOM  10.720  1.440 -0.009  2.000  0.000 0  1735634763.945 iRoC  7.030
ODOM  10.740  1.440 -0.009  2.000  0.000 0  1735634763.955 iRoC  7.040
ODOM  10.760  1.440 -0.009  2.000  0.000 0  1735634763.965 iRoC  7.050
ODOM  10.780  1.440 -0.009  2.000  0.000 0  1735634763.975 iRoC  7.060
ODOM  10.800  1.440 -0.009  2.000  0.000 0  1735634763.985 iRoC  7.070
ODOM  10.820  1.440 -0.009  2.000  0.000 0  1735634763.995 iRoC  7.080
ODOM  10.840  1.440 -0.009  2.000  0.000 0  1735634764.005 iRoC  7.090
ODOM  10.860  1.440 -0.009  2.000  0.000 0  1735634764.015 iRoC  7.100
ODOM  10.880  1.440 -0.009  2.000  0.000 0  1735634764.025 iRoC  7.110
ODOM  10.900  1.440 -0.009  2.000  0.000 0  1735634764.035 iRoC  7.120
ODOM  10.920  1.440 -0.009  2.000  0.000 0  1735634764.045 iRoC  7.130
ODOM  10.940  1.440 -0.009  2.000  0.000 0  1735634764.055 iRoC  7.140
ODOM  10.960  1.440 -0.009  2.000  0.000 0  1735634764.065 iRoC  7.150
ODOM  10.980  1.440 -0.009  2.000  0.000 0  1735634764.075 iRoC  7.160
ODOM  11.000  1.440 -0.009  2.000  0.000 0  1735634764.085 iRoC  7.170
ODOM  11.020  1.440 -0.009  2.000  0.000 0  1735634764.095 iRoC  7.180
ODOM  11.040  1.440 -0.009  2.000  0.000 0  1735634764.105 iRoC  7.190
ODOM  11.060  1.440 -0.009  2.000  0.000 0  1735634764.115 iRoC  7.200
ODOM  11.080  1.440 -0.009  2.000  0.000 0  1735634764.125 iRoC  7.210
ODOM  11.100  1.420 -0.009  2.000  0.000 0  1735634764.135 iRoC  7.220
ODOM  11.120  1.420 -0.009  2.000  0.000 0  1735634764.145 iRoC  7.230
ODOM  11.140  1.420 -0.009  2.000  0.000 0  1735634764.155 iRoC  7.240
ODOM  11.160  1.420 -0.009  2.000  0.000 0  1735634764.165 iRoC  7.250
ODOM  11.180  1.420 -0.009  2.000  0.000 0  1735634764.175 iRoC  7.260
ODOM  11.200  1.420 -0.009  2.000  0.000 0  1735634764.185 iRoC  7.270
ODOM  11.220  1.420 -0.009  2.000  0.000 0  1735634764.195 iRoC  7.280
ODOM  11.240  1.420 -0.009  2.000  0.000 0  1735634764.205 iRoC  7.290
ODOM  11.260  1.420 -0.009  2.000  0.000 0  1735634764.215 iRoC  7.300
ODOM  11.280  1.420 -0.009  2.000  0.000 0  1735634764.225 iRoC  7.310
ODOM  11.300  1.420 -0.009  2.000  0.000 0  1735634764.235 iRoC  7.320
ODOM  11.320  1.420 -0.009  2.000  0.000 0  1735634764.245 iRoC  7.330
ODOM  11.340  1.420 -0.009  2.000  0.000 0  1735634764.255 iRoC  7.340
ODOM  11.360  1.420 -0.009  2.000  0.000 0  1735634764.265 iRoC  7.350
ODOM  11.380  1.420 -0.009  2.000  0.000 0  1735634764.275 iRoC  7.360
ODOM  11.400  1.420 -0.009  2.000  0.000 0  1735634764.285 iRoC  7.370
ODOM  11.420  1.420 -0.009  2.000  0.000 0  1735634764.295 iRoC  7.380
ODOM  11.440  1.420 -0.009  2.000  0.000 0  1735634764.305 iRoC  7.390
ODOM  11.460  1.420 -0.009  2.000  0.000 0  1735634764.315 iRoC  7.400
ODOM  11.480  1.420 -0.009  2.000  0.000 0  1735634764.325 iRoC  7.410
ODOM  11.500  1.420 -0.009  2.000  0.000 0  1735634764.335 iRoC  7.420
ODOM  11.520  1.420 -0.009  2.000  0.000 0  1735634764.345 iRoC  7.430
ODOM  11.540  1.420 -0.009  2.000  0.000 0  1735634764.355 iRoC  7.440
ODOM  11.560  1.420 -0.009  2.000  0.000 0  1735634764.365 iRoC  7.450
ODOM  11.580  1.420 -0.009  2.000  0.000 0  1735634764.375 iRoC  7.460
ODOM  11.600  1.420 -0.009  2.000  0.000 0  1735634764.385 iRoC  7.470
ODOM  11.620  1.420 -0.009  2.000  0.000 0  1735634764.395 iRoC  7.480
ODOM  11.640  1.420 -0.009  2.000  0.000 0  1735634764.405 iRoC  7.490
ODOM  11.660  1.420 -0.009  2.000  0.000 0  1735634764.415 iRoC  7.500
ODOM  11.680  1.420 -0.009  2.000  0.000 0  1735634764.425 iRoC  7.510
ODOM  11.700  1.420 -0.009  2.000  0.000 0  1735634764.435 iRoC  7.520
ODOM  11.720  1.420 -0.009  2.000  0.000 0  1735634764.445 iRoC  7.530
ODOM  11.740  1.420 -0.009  2.000  0.000 0  1735634764.455 iRoC  7.540
ODOM  11.760  1.420 -0.009  2.000  0.000 0  1735634764.465 iRoC  7.550
ODOM  11.780  1.420 -0.009  2.000  0.000 0  1735634764.475 iRoC  7.560
ODOM  11.800  1.420 -0.009  2.000  0.000 0  1735634764.485 iRoC  7.570
ODOM  11.820  1.420 -0.009  2.000  0.000 0  1735634764.495 iRoC  7.580
ODOM  11.840  1.420 -0.009  2.000  0.000 0  1735634764.505 iRoC  7.590
ODOM  11.860  1.420 -0.009  2.000  0.000 0  1735634764.515 iRoC  7.600
ODOM  11.880  1.420 -0.009  2.000  0.000 0  1735634764.525 iRoC  7.610
ODOM  11.900  1.420 -0.009  2.000  0.000 0  1735634764.535 iRoC  7.620
ODOM  11.920  1.420 -0.009  2.000  0.000 0  1735634764.545 iRoC  7.630
ODOM  11.940  1.420 -0.009  2.000  0.000 0  1735634764.555 iRoC  7.640
ODOM  11.960  1.420 -0.009  2.000  0.000 0  1735634764.565 iRoC  7.650
ODOM  11.980  1.420 -0.009  2.000  0.000 0  1735634764.575 iRoC  7.660
ODOM  12.000  1.420 -0.009  2.000  0.000 0  1735634764.585 iRoC  7.670
ODOM  12.020  1.420 -0.009  2.000  0.000 0  1735634764.595 iRoC  7.680
ODOM  12.040  1.420 -0.009  2.000  0.000 0  1735634764.605 iRoC  7.690
ODOM  12.060  1.420 -0.009  2.000  0.000 0  1735634764.615 iRoC  7.700
ODOM  12.080  1.420 -0.009  2.000  0.000 0  1735634764.625 iRoC  7.710
ODOM  12.100  1.420 -0.009  2.000  0.000 0  1735634764.635 iRoC  7.720
ODOM  12.120  1.420 -0.009  2.000  0.000 0  1735634764.645 iRoC  7.730
ODOM  12.140  1.420 -0.009  2.000  0.000 0  1735634764.655 iRoC  7.740
ODOM  12.160  1.420 -0.009  2.000  0.000 0  1735634764.665 iRoC  7.750
ODOM  12.180  1.420 -0.009  2.000  0.000 0  1735634764.675 iRoC  7.760
ODOM  12.200  1.420 -0.009  2.000  0.000 0  1735634764.685 iRoC  7.770
ODOM  12.220  1.420 -0.009  2.000  0.000 0  1735634764.695 iRoC  7.780
ODOM  12.240  1.420 -0.009  2.000  0.000 0  1735634764.705 iRoC  7.790
ODOM  12.260  1.420 -0.009  2.000  0.000 0  1735634764.715 iRoC  7.800
ODOM  12.280  1.420 -0.009  2.000  0.000 0  1735634764.725 iRoC  7.810
ODOM  12.300  1.420 -0.009  2.000  0.000 0  1735634764.735 iRoC  7.820
ODOM  12.320  1.420 -0.009  2.000  0.000 0  1735634764.745 iRoC  7.830
ODOM  12.340  1.420 -0.009  2.000  0.000 0  1735634764.755 iRoC  7.840
ODOM  12.360  1.420 -0.009  2.000  0.000 0  1735634764.765 iRoC  7.850
ODOM  12.380  1.420 -0.009  2.000  0.000 0  1735634764.775 iRoC  7.860
ODOM  12.400  1.420 -0.009  2.000  0.000 0  1735634764.785 iRoC  7.870
ODOM  12.420  1.420 -0.009  2.000  0.000 0  1735634764.795 iRoC  7.880
ODOM  12.440  1.420 -0.009  2.000  0.000 0  1735634764.805 iRoC  7.890
ODOM  12.460  1.420 -0.009  2.000  0.000 0  1735634764.815 iRoC  7.900
ODOM  12.480  1.420 -0.009  2.000  0.000 0  1735634764.825 iRoC  7.910
ODOM  12.500  1.420 -0.009  2.000  0.000 0  1735634764.835 iRoC  7.920
ODOM  12.520  1.420 -0.009  2.000  0.000 0  1735634764.845 iRoC  7.930
ODOM  12.540  1.420 -0.009  2.000  0.000 0  1735634764.855 iRoC  7.940
ODOM  12.560  1.420 -0.009  2.000  0.000 0  1735634764.865 iRoC  7.950
ODOM  12.580  1.420 -0.009  2.000  0.000 0  1735634764.875 iRoC  7.960
ODOM  12.600  1.420 -0.009  2.000  0.000 0  1735634764.885 iRoC  7.970
ODOM  12.620  1.420 -0.009  2.000  0.000 0  1735634764.895 iRoC  7.980
ODOM  12.640  1.420 -0.009  2.000  0.000 0  1735634764.905 iRoC  7.990
ODOM  12.660  1.420 -0.009  2.000  0.000 0  1735634764.915 iRoC  8.000
ODOM  12.680  1.420 -0.009  2.000  0.000 0  1735634764.925 iRoC  8.010
ODOM  12.700  1.420 -0.009  2.000  0.000 0  1735634764.935 iRoC  8.020
ODOM  12.720  1.420 -0.009  2.000  0.000 0  1735634764.945 iRoC  8.030
ODOM  12.740  1.420 -0.009  2.000  0.000 0  1735634764.955 iRoC  8.040
ODOM  12.760  1.420 -0.009  2.000  0.000 0  1735634764.965 iRoC  8.050
ODOM  12.780  1.420 -0.009  2.000  0.000 0  1735634764.975 iRoC  8.060
ODOM  12.800  1.420 -0.009  2.000  0.000 0  1735634764.985 iRoC  8.070
ODOM  12.820  1.420 -0.009  2.000  0.000 0  1735634764.995 iRoC  8.080
ODOM  12.840  1.420 -0.009  2.000  0.000 0  1735634765.005 iRoC  8.090
ODOM  12.860  1.420 -0.009  2.000  0.000 0  1735634765.015 iRoC  8.100
ODOM  12.880  1.420 -0.009  2.000  0.000 0  1735634765.025 iRoC  8.110
ODOM  12.900  1.420 -0.009  2.000  0.000 0  1735634765.035 iRoC  8.120
ODOM  12.920  1.420 -0.009  2.000  0.000 0  1735634765.045 iRoC  8.130
ODOM  12.940  1.420 -0.009  2.000  0.000 0  1735634765.055 iRoC  8.140
ODOM  12.960  1.420 -0.009  2.000  0.000 0  1735634765.065 iRoC  8.150
ODOM  12.980  1.420 -0.009  2.000  0.000 0  1735634765.075 iRoC  8.160
ODOM  13.000  1.420 -0.009  2.000  0.000 0  1735634765.085 iRoC  8.170
ODOM  13.020  1.420 -0.009  2.000  0.000 0  1735634765.095 iRoC  8.180
ODOM  13.040  1.420 -0.009  2.000  0.000 0  1735634765.105 iRoC  8.190
ODOM  13.060  1.420 -0.009  2.000  0.000 0  1735634765.115 iRoC  8.200
ODOM  13.080  1.420 -0.009  2.000  0.000 0  1735634765.125 iRoC  8.210
ODOM  13.100  1.420 -0.009  2.000  0.000 0  1735634765.135 iRoC  8.220
ODOM  13.120  1.420 -0.009  2.000  0.000 0  1735634765.145 iRoC  8.230
ODOM  13.140  1.420 -0.009  2.000  0.000 0  1735634765.155 iRoC  8.240
ODOM  13.160  1.420 -0.009  2.000  0.000 0  1735634765.165 iRoC  8.250
ODOM  13.180  1.420 -0.009  2.000  0.000 0  1735634765.175 iRoC  8.260
ODOM  13.200  1.420 -0.009  2.000  0.000 0  1735634765.185 iRoC  8.270
ODOM  13.220  1.420 -0.009  2.000  0.000 0  1735634765.195 iRoC  8.280
ODOM  13.240  1.420 -0.009  2.000  0.000 0  1735634765.205 iRoC  8.290
ODOM  13.260  1.400 -0.009  2.000  0.000 0  1735634765.215 iRoC  8.300
ODOM  13.280  1.400 -0.009  2.000  0.000 0  1735634765.225 iRoC  8.310
ODOM  13.300  1.400 -0.009  2.000  0.000 0  1735634765.235 iRoC  8.320
ODOM  13.320  1.400 -0.009  2.000  0.000 0  1735634765.245 iRoC  8.330
ODOM  13.340  1.400 -0.009  2.000  0.000 0  1735634765.255 iRoC  8.340
ODOM  13.360  1.400 -0.009  2.000  0.000 0  1735634765.265 iRoC  8.350
ODOM  13.380  1.400 -0.009  2.000  0.000 0  1735634765.275 iRoC  8.360
ODOM  13.400  1.400 -0.009  2.000  0.000 0  1735634765.285 iRoC  8.370
ODOM  13.420  1.400 -0.009  2.000  0.000 0  1735634765.295 iRoC  8.380
ODOM  13.440  1.400 -0.009  2.000  0.000 0  1735634765.305 iRoC  8.390
ODOM  13.460  1.400 -0.009  2.000  0.000 0  1735634765.315 iRoC  8.400
ODOM  13.480  1.400 -0.009  2.000  0.000 0  1735634765.325 iRoC  8.410
ODOM  13.500  1.400 -0.009  2.000  0.000 0  1735634765.335 iRoC  8.420
ODOM  13.520  1.400 -0.009  2.000  0.000 0  1735634765.345 iRoC  8.430
ODOM  13.540  1.400 -0.009  2.000  0.000 0  1735634765.355 iRoC  8.440
ODOM  13.560  1.400 -0.009  2.000  0.000 0  1735634765.365 iRoC  8.450
ODOM  13.580  1.400 -0.009  2.000  0.000 0  1735634765.375 iRoC  8.460
ODOM  13.600  1.400 -0.009  2.000  0.000 0  1735634765.385 iRoC  8.470
ODOM  13.620  1.400 -0.009  2.000  0.000 0  1735634765.395 iRoC  8.480
ODOM  13.640  1.400 -0.009  2.000  0.000 0  1735634765.405 iRoC  8.490
ODOM  13.660  1.400 -0.009  2.000  0.000 0  1735634765.415 iRoC  8.500
ODOM  13.680  1.400 -0.009  2.000  0.000 0  1735634765.425 iRoC  8.510
ODOM  13.700  1.400 -0.009  2.000  0.000 0  1735634765.435 iRoC  8.520
ODOM  13.720  1.400 -0.009  2.000  0.000 0  1735634765.445 iRoC  8.530
ODOM  13.740  1.400 -0.009  2.000  0.000 0  1735634765.455 iRoC  8.540
