ODOM  1.000  1.000  1.571  0.000  0.000 0  1735631475.376 iRoC  0.010
ODOM  1.000  1.000  1.571  0.000  0.000 0  1735631475.386 iRoC  0.020
ODOM  1.000  1.000  1.571  0.000  0.000 0  1735631475.396 iRoC  0.030
ODOM  1.000  1.000  1.571  0.000  0.000 0  1735631475.406 iRoC  0.040
ODOM  1.000  1.000  1.571  0.000  0.000 0  1735631475.416 iRoC  0.050
ODOM  1.000  1.000  1.571  0.000  0.000 0  1735631475.426 iRoC  0.060
ODOM  1.000  1.000  1.571  0.000  0.000 0  1735631475.436 iRoC  0.070
ODOM  1.000  1.000  1.571  0.000  0.000 0  1735631475.446 iRoC  0.080
ODOM  1.000  1.000  1.571  0.000  0.000 0  1735631475.456 iRoC  0.090
ODOM  1.000  1.000  1.571  0.000  0.000 0  1735631475.466 iRoC  0.100
ODOM  1.000  1.000  1.571  0.000  0.000 0  1735631475.476 iRoC  0.110
ODOM  1.000  1.000  1.571  0.000  0.000 0  1735631475.486 iRoC  0.120
ODOM  1.000  1.000  1.571  0.000  0.000 0  1735631475.496 iRoC  0.130
ODOM  1.000  1.000  1.571  0.000  0.000 0  1735631475.506 iRoC  0.140
ODOM  1.000  1.000  1.571  0.000  0.000 0  1735631475.516 iRoC  0.150
ODOM  1.000  1.000  1.571  0.000  0.000 0  1735631475.526 iRoC  0.160
ODOM  1.000  1.000  1.571  0.000  0.000 0  1735631475.536 iRoC  0.170
ODOM  1.000  1.000  1.571  0.000  0.000 0  1735631475.546 iRoC  0.180
ODOM  1.000  1.000  1.571  0.000  0.000 0  1735631475.556 iRoC  0.190
ODOM  1.000  1.000  1.571  0.000  0.000 0  1735631475.566 iRoC  0.200
ODOM  1.000  1.000  1.571  0.000  0.000 0  1735631475.576 iRoC  0.210
ODOM  1.000  1.000  1.571  0.000  0.000 0  1735631475.586 iRoC  0.220
ODOM  1.000  1.000  1.571  0.000  0.000 0  1735631475.596 iRoC  0.230
ODOM  1.000  1.000  1.571  0.000  0.000 0  1735631475.606 iRoC  0.240
ODOM  1.000  1.000  1.571  0.000  0.000 0  1735631475.616 iRoC  0.250
ODOM  1.000  1.000  1.571  0.000  0.000 0  1735631475.626 iRoC  0.260
ODOM  1.000  1.000  1.571  0.000  0.000 0  1735631475.636 iRoC  0.270
ODOM  1.000  1.000  1.571  0.000  0.000 0  1735631475.646 iRoC  0.280
ODOM  1.000  1.000  1.571  0.000  0.000 0  1735631475.656 iRoC  0.290
ODOM  1.000  1.000  1.571  0.000  0.000 0  1735631475.666 iRoC  0.300
ODOM  1.000  1.000  1.571  0.000  0.000 0  1735631475.676 iRoC  0.310
ODOM  1.000  1.000  1.571  0.000  0.000 0  1735631475.686 iRoC  0.320
ODOM  1.000  1.000  1.571  0.000  0.000 0  1735631475.696 iRoC  0.330
ODOM  1.000  1.000  1.571  0.000  0.000 0  1735631475.706 iRoC  0.340
ODOM  1.000  1.000  1.571  0.000  0.000 0  1735631475.716 iRoC  0.350
ODOM  1.000  1.000  1.571  0.000  0.000 0  1735631475.726 iRoC  0.360
ODOM  1.000  1.000  1.571  0.000  0.000 0  1735631475.736 iRoC  0.370
ODOM  1.000  1.000  1.571  0.000  0.000 0  1735631475.746 iRoC  0.380
ODOM  1.000  1.000  1.571  0.000  0.000 0  1735631475.756 iRoC  0.390
ODOM  1.000  1.000  1.571  0.000  0.000 0  1735631475.766 iRoC  0.400
ODOM  1.000  1.000  1.571  0.000  0.000 0  1735631475.776 iRoC  0.410
ODOM  1.000  1.000  1.571  0.000  0.000 0  1735631475.786 iRoC  0.420
ODOM  1.000  1.000  1.571  0.000  0.000 0  1735631475.796 iRoC  0.430
ODOM  1.000  1.000  1.571  0.000  0.000 0  1735631475.806 iRoC  0.440
ODOM  1.000  1.000  1.571  0.000  0.000 0  1735631475.816 iRoC  0.450
ODOM  1.000  1.000  1.571  0.000  0.000 0  1735631475.826 iRoC  0.460
ODOM  1.000  1.000  1.571  0.000  0.000 0  1735631475.836 iRoC  0.470
ODOM  1.000  1.000  1.571  0.000  0.000 0  1735631475.846 iRoC  0.480
ODOM  1.000  1.000  1.571  0.000  0.000 0  1735631475.856 iRoC  0.490
ODOM  1.000  1.000  1.571  0.000  0.000 0  1735631475.866 iRoC  0.500
ODOM  1.000  1.000  1.571  0.000  0.000 0  1735631475.876 iRoC  0.510
ODOM  1.000  1.000  1.571  0.000  0.000 0  1735631475.886 iRoC  0.520
ODOM  1.000  1.000  1.571  0.000  0.000 0  1735631475.896 iRoC  0.530
ODOM  1.000  1.000  1.571  0.000  0.000 0  1735631475.906 iRoC  0.540
ODOM  1.000  1.000  1.571  0.000  0.000 0  1735631475.916 iRoC  0.550
ODOM  1.000  1.000  1.571  0.000  0.000 0  1735631475.926 iRoC  0.560
ODOM  1.000  1.000  1.571  0.000  0.000 0  1735631475.936 iRoC  0.570
ODOM  1.000  1.000  1.571  0.000  0.000 0  1735631475.946 iRoC  0.580
ODOM  1.000  1.000  1.571  0.000  0.000 0  1735631475.956 iRoC  0.590
ODOM  1.000  1.000  1.571  0.000  0.000 0  1735631475.966 iRoC  0.600
ODOM  1.000  1.000  1.571  0.000  0.000 0  1735631475.976 iRoC  0.610
ODOM  1.000  1.000  1.571  0.000  0.000 0  1735631475.986 iRoC  0.620
ODOM  1.000  1.000  1.571  0.000  0.000 0  1735631475.996 iRoC  0.630
ODOM  1.000  1.000  1.571  0.000  0.000 0  1735631476.006 iRoC  0.640
ODOM  1.000  1.000  1.571  0.000  0.000 0  1735631476.016 iRoC  0.650
ODOM  1.000  1.000  1.571  0.000  0.000 0  1735631476.026 iRoC  0.660
ODOM  1.000  1.000  1.571  0.000  0.000 0  1735631476.036 iRoC  0.670
ODOM  1.000  1.000  1.571  0.000  0.000 0  1735631476.046 iRoC  0.680
ODOM  1.000  1.000  1.571  0.000  0.000 0  1735631476.056 iRoC  0.690
ODOM  1.000  1.000  1.571  0.000  0.000 0  1735631476.066 iRoC  0.700
ODOM  1.000  1.000  1.571  0.000  0.000 0  1735631476.076 iRoC  0.710
ODOM  1.000  1.000  1.571  0.000  0.000 0  1735631476.086 iRoC  0.720
ODOM  1.000  1.000  1.571  0.000  0.000 0  1735631476.096 iRoC  0.730
ODOM  1.000  1.000  1.571  0.000  0.000 0  1735631476.106 iRoC  0.740
ODOM  1.000  1.000  1.571  0.000  0.000 0  1735631476.116 iRoC  0.750
ODOM  1.000  1.000  1.571  0.000  0.000 0  1735631476.126 iRoC  0.760
ODOM  1.000  1.000  1.571  0.000  0.000 0  1735631476.136 iRoC  0.770
ODOM  1.000  1.000  1.571  0.000  0.000 0  1735631476.146 iRoC  0.780
ODOM  1.000  1.000  1.571  0.000  0.000 0  1735631476.156 iRoC  0.790
ODOM  1.000  1.000  1.571  0.000  0.000 0  1735631476.166 iRoC  0.800
ODOM  1.000  1.000  1.571  0.000  0.000 0  1735631476.176 iRoC  0.810
ODOM  1.000  1.000  1.571  0.000  0.000 0  1735631476.186 iRoC  0.820
ODOM  1.000  1.000  1.571  0.000  0.000 0  1735631476.196 iRoC  0.830
ODOM  1.000  1.000  1.571  0.000  0.000 0  1735631476.206 iRoC  0.840
ODOM  1.000  1.000  1.571  0.000  0.000 0  1735631476.216 iRoC  0.850
ODOM  1.000  1.000  1.571  0.000  0.000 0  1735631476.226 iRoC  0.860
ODOM  1.000  1.000  1.571  0.000  0.000 0  1735631476.236 iRoC  0.870
ODOM  1.000  1.000  1.571  0.000  0.000 0  1735631476.246 iRoC  0.880
ODOM  1.000  1.000  1.571  0.000  0.000 0  1735631476.256 iRoC  0.890
ODOM  1.000  1.000  1.571  0.000  0.000 0  1735631476.266 iRoC  0.900
ODOM  1.000  1.000  1.571  0.000  0.000 0  1735631476.276 iRoC  0.910
ODOM  1.000  1.000  1.571  0.000  0.000 0  1735631476.286 iRoC  0.920
ODOM  1.000  1.000  1.571  0.000  0.000 0  1735631476.296 iRoC  0.930
ODOM  1.000  1.000  1.571  0.000  0.000 0  1735631476.306 iRoC  0.940
ODOM  1.000  1.000  1.571  0.000  0.000 0  1735631476.316 iRoC  0.950
ODOM  1.000  1.000  1.571  0.000  0.000 0  1735631476.326 iRoC  0.960
ODOM  1.000  1.000  1.571  0.000  0.000 0  1735631476.336 iRoC  0.970
ODOM  1.000  1.000  1.571  0.000  0.000 0  1735631476.346 iRoC  0.980
ODOM  1.000  1.000  1.571  0.000  0.000 0  1735631476.356 iRoC  0.990
ODOM  1.000  1.000  1.571  0.000  0.000 0  1735631476.366 iRoC  1.000
ODOM  1.000  1.000  1.571  0.000  0.000 0  1735631476.376 iRoC  1.010
ODOM  1.000  1.000  1.571  0.000  0.000 0  1735631476.386 iRoC  1.020
ODOM  1.000  1.000  1.571  0.000  0.000 0  1735631476.396 iRoC  1.030
ODOM  1.000  1.000  1.571  0.000  0.000 0  1735631476.406 iRoC  1.040
ODOM  1.000  1.000  1.571  0.000  0.000 0  1735631476.416 iRoC  1.050
ODOM  1.000  1.000  1.571  0.000  0.000 0  1735631476.426 iRoC  1.060
ODOM  1.000  1.000  1.571  0.000  0.000 0  1735631476.436 iRoC  1.070
ODOM  1.000  1.000  1.571  0.000  0.000 0  1735631476.446 iRoC  1.080
ODOM  1.000  1.000  1.571  0.000  0.000 0  1735631476.456 iRoC  1.090
ODOM  1.000  1.000  1.571  0.000  0.000 0  1735631476.466 iRoC  1.100
ODOM  1.000  1.000  1.571  0.000  0.000 0  1735631476.476 iRoC  1.110
ODOM  1.000  1.000  1.571  0.000  0.000 0  1735631476.486 iRoC  1.120
ODOM  1.000  1.000  1.571  0.000  0.000 0  1735631476.496 iRoC  1.130
ODOM  1.000  1.000  1.571  0.000  0.000 0  1735631476.506 iRoC  1.140
ODOM  1.000  1.000  1.571  0.000  0.000 0  1735631476.516 iRoC  1.150
ODOM  1.000  1.000  1.571  0.000  0.000 0  1735631476.526 iRoC  1.160
ODOM  1.000  1.000  1.571  0.000  0.000 0  1735631476.536 iRoC  1.170
ODOM  1.000  1.000  1.571  0.000  0.000 0  1735631476.546 iRoC  1.180
ODOM  1.000  1.000  1.571  0.000  0.000 0  1735631476.556 iRoC  1.190
ODOM  1.000  1.000  1.571  0.000  0.000 0  1735631476.566 iRoC  1.200
ODOM  1.000  1.000  1.571  0.000  0.000 0  1735631476.576 iRoC  1.210
ODOM  1.000  1.000  1.571  0.000  0.000 0  1735631476.586 iRoC  1.220
ODOM  1.000  1.000  1.571  0.000  0.000 0  1735631476.596 iRoC  1.230
ODOM  1.000  1.000  1.571  0.000  0.000 0  1735631476.606 iRoC  1.240
ODOM  1.000  1.000  1.571  0.000  0.000 0  1735631476.616 iRoC  1.250
ODOM  1.000  1.000  1.571  0.000  0.000 0  1735631476.626 iRoC  1.260
ODOM  1.000  1.000  1.571  0.000  0.000 0  1735631476.636 iRoC  1.270
ODOM  1.000  1.000  1.571  0.000  0.000 0  1735631476.646 iRoC  1.280
ODOM  1.000  1.000  1.571  0.000  0.000 0  1735631476.656 iRoC  1.290
ODOM  1.000  1.000  1.571  0.000  0.000 0  1735631476.666 iRoC  1.300
ODOM  1.000  1.000  1.571  0.000  0.000 0  1735631476.676 iRoC  1.310
ODOM  1.000  1.000  1.571  0.000  0.000 0  1735631476.686 iRoC  1.320
ODOM  1.000  1.000  1.571  0.000  0.000 0  1735631476.696 iRoC  1.330
ODOM  1.000  1.000  1.571  0.000  0.000 0  1735631476.706 iRoC  1.340
ODOM  1.000  1.000  1.571  0.000  0.000 0  1735631476.716 iRoC  1.350
ODOM  1.000  1.000  1.571  0.000  0.000 0  1735631476.726 iRoC  1.360
ODOM  1.000  1.000  1.571  0.000  0.000 0  1735631476.736 iRoC  1.370
ODOM  1.000  1.000  1.571  0.000  0.000 0  1735631476.746 iRoC  1.380
ODOM  1.000  1.000  1.571  0.000  0.000 0  1735631476.756 iRoC  1.390
ODOM  1.000  1.000  1.571  0.000  0.000 0  1735631476.766 iRoC  1.400
ODOM  1.000  1.000  1.571  0.000  0.000 0  1735631476.776 iRoC  1.410
ODOM  1.000  1.000  1.571  0.000  0.000 0  1735631476.786 iRoC  1.420
ODOM  1.000  1.000  1.571  0.000  0.000 0  1735631476.796 iRoC  1.430
ODOM  1.000  1.000  1.571  0.000  0.000 0  1735631476.806 iRoC  1.440
ODOM  1.000  1.000  1.571  0.000  0.000 0  1735631476.816 iRoC  1.450
ODOM  1.000  1.000  1.571  0.000  0.000 0  1735631476.826 iRoC  1.460
ODOM  1.000  1.000  1.571  0.000  0.000 0  1735631476.836 iRoC  1.470
ODOM  1.000  1.000  1.571  0.000  0.000 0  1735631476.846 iRoC  1.480
ODOM  1.000  1.000  1.571  0.000  0.000 0  1735631476.856 iRoC  1.490
ODOM  1.000  1.000  1.571  0.000  0.000 0  1735631476.866 iRoC  1.500
ODOM  1.000  1.000  1.571  0.000  0.000 0  1735631476.876 iRoC  1.510
ODOM  1.000  1.000  1.571  0.000  0.000 0  1735631476.886 iRoC  1.520
ODOM  1.000  1.000  1.571  0.000  0.000 0  1735631476.896 iRoC  1.530
ODOM  1.000  1.000  1.571  0.000  0.000 0  1735631476.906 iRoC  1.540
ODOM  1.000  1.000  1.571  0.000  0.000 0  1735631476.916 iRoC  1.550
ODOM  1.000  1.000  1.571  0.000  0.000 0  1735631476.926 iRoC  1.560
ODOM  1.000  1.000  1.571  0.000  0.000 0  1735631476.936 iRoC  1.570
ODOM  1.000  1.000  1.571  0.000  0.000 0  1735631476.946 iRoC  1.580
ODOM  1.000  1.000  1.571  0.000  0.000 0  1735631476.956 iRoC  1.590
ODOM  1.000  1.000  1.571  0.000  0.000 0  1735631476.966 iRoC  1.600
ODOM  1.000  1.000  1.571  0.000  0.000 0  1735631476.976 iRoC  1.610
ODOM  1.000  1.000  1.571  0.000  0.000 0  1735631476.986 iRoC  1.620
ODOM  1.000  1.000  1.571  0.000  0.000 0  1735631476.996 iRoC  1.630
ODOM  1.000  1.000  1.571  0.000  0.000 0  1735631477.006 iRoC  1.640
ODOM  1.000  1.000  1.571  0.000  0.000 0  1735631477.016 iRoC  1.650
ODOM  1.000  1.000  1.571  0.000  0.000 0  1735631477.026 iRoC  1.660
ODOM  1.000  1.000  1.571  0.000  0.000 0  1735631477.036 iRoC  1.670
ODOM  1.000  1.000  1.571  0.000  0.000 0  1735631477.046 iRoC  1.680
ODOM  1.000  1.000  1.571  0.000  0.000 0  1735631477.056 iRoC  1.690
ODOM  1.000  1.000  1.571  0.000  0.000 0  1735631477.066 iRoC  1.700
ODOM  1.000  1.000  1.571  0.000  0.000 0  1735631477.076 iRoC  1.710
ODOM  1.000  1.000  1.571  0.000  0.000 0  1735631477.086 iRoC  1.720
ODOM  1.000  1.000  1.571  0.000  0.000 0  1735631477.096 iRoC  1.730
ODOM  1.000  1.000  1.571  0.000  0.000 0  1735631477.106 iRoC  1.740
ODOM  1.000  1.000  1.571  0.000  0.000 0  1735631477.116 iRoC  1.750
ODOM  1.000  1.000  1.571  0.000  0.000 0  1735631477.126 iRoC  1.760
ODOM  1.000  1.000  1.571  0.000  0.000 0  1735631477.136 iRoC  1.770
ODOM  1.000  1.000  1.571  0.000  0.000 0  1735631477.146 iRoC  1.780
ODOM  1.000  1.000  1.571  0.000  0.000 0  1735631477.156 iRoC  1.790
ODOM  1.000  1.000  1.571  0.000  0.000 0  1735631477.166 iRoC  1.800
ODOM  1.000  1.000  1.571  0.000  0.000 0  1735631477.176 iRoC  1.810
ODOM  1.000  1.000  1.571  0.000  0.000 0  1735631477.186 iRoC  1.820
ODOM  1.000  1.020  1.571  2.000  0.000 0  1735631477.196 iRoC  1.830
ODOM  1.000  1.040  1.571  2.000  0.000 0  1735631477.206 iRoC  1.840
ODOM  1.000  1.060  1.571  2.000  0.000 0  1735631477.216 iRoC  1.850
ODOM  1.000  1.080  1.571  2.000  0.000 0  1735631477.226 iRoC  1.860
ODOM  1.000  1.100  1.571  2.000  0.000 0  1735631477.236 iRoC  1.870
ODOM  1.000  1.120  1.571  2.000  0.000 0  1735631477.246 iRoC  1.880
ODOM  1.000  1.140  1.571  2.000  0.000 0  1735631477.256 iRoC  1.890
ODOM  1.000  1.160  1.571  2.000  0.000 0  1735631477.266 iRoC  1.900
ODOM  1.000  1.180  1.571  2.000  0.000 0  1735631477.276 iRoC  1.910
ODOM  1.000  1.200  1.571  2.000  0.000 0  1735631477.286 iRoC  1.920
ODOM  1.000  1.220  1.571  2.000  0.000 0  1735631477.296 iRoC  1.930
ODOM  1.000  1.240  1.571  2.000  0.000 0  1735631477.306 iRoC  1.940
ODOM  1.000  1.260  1.571  2.000  0.000 0  1735631477.316 iRoC  1.950
ODOM  1.000  1.280  1.571  2.000  0.000 0  1735631477.326 iRoC  1.960
ODOM  1.000  1.300  1.571  2.000  0.000 0  1735631477.336 iRoC  1.970
ODOM  1.000  1.320  1.571  2.000  0.000 0  1735631477.345 iRoC  1.980
ODOM  1.000  1.340  1.571  2.000  0.000 0  1735631477.355 iRoC  1.990
ODOM  1.000  1.360  1.571  2.000  0.000 0  1735631477.365 iRoC  2.000
ODOM  1.000  1.380  1.551  2.000 -2.000 0  1735631477.375 iRoC  2.010
ODOM  1.000  1.400  1.531  2.000 -2.000 0  1735631477.385 iRoC  2.020
ODOM  1.000  1.420  1.511  2.000 -2.000 0  1735631477.395 iRoC  2.030
ODOM  1.000  1.440  1.491  2.000 -2.000 0  1735631477.405 iRoC  2.040
ODOM  1.000  1.460  1.471  2.000 -2.000 0  1735631477.415 iRoC  2.050
ODOM  1.000  1.480  1.451  2.000 -2.000 0  1735631477.425 iRoC  2.060
ODOM  1.000  1.500  1.431  2.000 -2.000 0  1735631477.435 iRoC  2.070
ODOM  1.000  1.520  1.411  2.000 -2.000 0  1735631477.445 iRoC  2.080
ODOM  1.000  1.540  1.391  2.000 -2.000 0  1735631477.455 iRoC  2.090
ODOM  1.000  1.560  1.371  2.000 -2.000 0  1735631477.465 iRoC  2.100
ODOM  1.020  1.580  1.351  2.000 -2.000 0  1735631477.475 iRoC  2.110
ODOM  1.020  1.600  1.331  2.000 -2.000 0  1735631477.485 iRoC  2.120
ODOM  1.020  1.620  1.311  2.000 -2.000 0  1735631477.495 iRoC  2.130
ODOM  1.020  1.640  1.291  2.000 -2.000 0  1735631477.505 iRoC  2.140
ODOM  1.040  1.660  1.271  2.000 -2.000 0  1735631477.515 iRoC  2.150
ODOM  1.040  1.680  1.251  2.000 -2.000 0  1735631477.525 iRoC  2.160
ODOM  1.040  1.700  1.231  2.000 -2.000 0  1735631477.535 iRoC  2.170
ODOM  1.060  1.720  1.211  2.000 -2.000 0  1735631477.545 iRoC  2.180
ODOM  1.060  1.740  1.191  2.000 -2.000 0  1735631477.555 iRoC  2.190
ODOM  1.060  1.760  1.171  2.000 -2.000 0  1735631477.565 iRoC  2.200
ODOM  1.080  1.780  1.171  2.000  0.000 0  1735631477.575 iRoC  2.210
ODOM  1.080  1.800  1.171  2.000  0.000 0  1735631477.585 iRoC  2.220
ODOM  1.100  1.820  1.171  2.000  0.000 0  1735631477.595 iRoC  2.230
ODOM  1.100  1.840  1.171  2.000  0.000 0  1735631477.605 iRoC  2.240
ODOM  1.100  1.860  1.171  2.000  0.000 0  1735631477.615 iRoC  2.250
ODOM  1.120  1.860  1.171  2.000  0.000 0  1735631477.625 iRoC  2.260
ODOM  1.120  1.880  1.171  2.000  0.000 0  1735631477.635 iRoC  2.270
ODOM  1.140  1.900  1.171  2.000  0.000 0  1735631477.645 iRoC  2.280
ODOM  1.140  1.920  1.171  2.000  0.000 0  1735631477.655 iRoC  2.290
ODOM  1.140  1.940  1.171  2.000  0.000 0  1735631477.665 iRoC  2.300
ODOM  1.160  1.960  1.171  2.000  0.000 0  1735631477.675 iRoC  2.310
ODOM  1.160  1.980  1.171  2.000  0.000 0  1735631477.685 iRoC  2.320
ODOM  1.180  2.000  1.171  2.000  0.000 0  1735631477.695 iRoC  2.330
ODOM  1.180  2.020  1.171  2.000  0.000 0  1735631477.705 iRoC  2.340
ODOM  1.180  2.040  1.171  2.000  0.000 0  1735631477.715 iRoC  2.350
ODOM  1.200  2.060  1.171  2.000  0.000 0  1735631477.725 iRoC  2.360
ODOM  1.200  2.080  1.171  2.000  0.000 0  1735631477.735 iRoC  2.370
ODOM  1.200  2.100  1.171  2.000  0.000 0  1735631477.745 iRoC  2.380
ODOM  1.220  2.100  1.171  2.000  0.000 0  1735631477.755 iRoC  2.390
ODOM  1.220  2.120  1.171  2.000  0.000 0  1735631477.765 iRoC  2.400
ODOM  1.240  2.140  1.171  2.000  0.000 0  1735631477.775 iRoC  2.410
ODOM  1.240  2.160  1.171  2.000  0.000 0  1735631477.785 iRoC  2.420
ODOM  1.240  2.180  1.171  2.000  0.000 0  1735631477.795 iRoC  2.430
ODOM  1.260  2.200  1.171  2.000  0.000 0  1735631477.805 iRoC  2.440
ODOM  1.260  2.220  1.171  2.000  0.000 0  1735631477.815 iRoC  2.450
ODOM  1.280  2.240  1.171  2.000  0.000 0  1735631477.825 iRoC  2.460
ODOM  1.280  2.260  1.171  2.000  0.000 0  1735631477.835 iRoC  2.470
ODOM  1.280  2.280  1.171  2.000  0.000 0  1735631477.845 iRoC  2.480
ODOM  1.300  2.300  1.171  2.000  0.000 0  1735631477.855 iRoC  2.490
ODOM  1.300  2.320  1.171  2.000  0.000 0  1735631477.865 iRoC  2.500
ODOM  1.320  2.340  1.171  2.000  0.000 0  1735631477.875 iRoC  2.510
ODOM  1.320  2.340  1.171  2.000  0.000 0  1735631477.885 iRoC  2.520
ODOM  1.320  2.360  1.171  2.000  0.000 0  1735631477.895 iRoC  2.530
ODOM  1.340  2.380  1.171  2.000  0.000 0  1735631477.905 iRoC  2.540
ODOM  1.340  2.400  1.171  2.000  0.000 0  1735631477.915 iRoC  2.550
ODOM  1.340  2.420  1.171  2.000  0.000 0  1735631477.925 iRoC  2.560
ODOM  1.360  2.440  1.171  2.000  0.000 0  1735631477.935 iRoC  2.570
ODOM  1.360  2.460  1.171  2.000  0.000 0  1735631477.945 iRoC  2.580
ODOM  1.380  2.480  1.171  2.000  0.000 0  1735631477.955 iRoC  2.590
ODOM  1.380  2.500  1.171  2.000  0.000 0  1735631477.965 iRoC  2.600
ODOM  1.380  2.520  1.151  2.000 -2.000 0  1735631477.975 iRoC  2.610
ODOM  1.400  2.540  1.131  2.000 -2.000 0  1735631477.985 iRoC  2.620
ODOM  1.400  2.560  1.111  2.000 -2.000 0  1735631477.995 iRoC  2.630
ODOM  1.420  2.560  1.091  2.000 -2.000 0  1735631478.005 iRoC  2.640
ODOM  1.420  2.580  1.071  2.000 -2.000 0  1735631478.015 iRoC  2.650
ODOM  1.440  2.600  1.051  2.000 -2.000 0  1735631478.025 iRoC  2.660
ODOM  1.440  2.620  1.031  2.000 -2.000 0  1735631478.035 iRoC  2.670
ODOM  1.460  2.640  1.011  2.000 -2.000 0  1735631478.045 iRoC  2.680
ODOM  1.460  2.660  0.991  2.000 -2.000 0  1735631478.055 iRoC  2.690
ODOM  1.480  2.680  0.971  2.000 -2.000 0  1735631478.065 iRoC  2.700
ODOM  1.480  2.680  0.951  2.000 -2.000 0  1735631478.075 iRoC  2.710
ODOM  1.500  2.700  0.931  2.000 -2.000 0  1735631478.085 iRoC  2.720
ODOM  1.520  2.720  0.911  2.000 -2.000 0  1735631478.095 iRoC  2.730
ODOM  1.520  2.740  0.891  2.000 -2.000 0  1735631478.105 iRoC  2.740
ODOM  1.540  2.760  0.871  2.000 -2.000 0  1735631478.115 iRoC  2.750
ODOM  1.540  2.760  0.851  2.000 -2.000 0  1735631478.125 iRoC  2.760
ODOM  1.560  2.780  0.831  2.000 -2.000 0  1735631478.135 iRoC  2.770
ODOM  1.580  2.800  0.811  2.000 -2.000 0  1735631478.145 iRoC  2.780
ODOM  1.600  2.820  0.791  2.000 -2.000 0  1735631478.155 iRoC  2.790
ODOM  1.600  2.820  0.771  2.000 -2.000 0  1735631478.165 iRoC  2.800
ODOM  1.620  2.840  0.771  2.000  0.000 0  1735631478.175 iRoC  2.810
ODOM  1.640  2.860  0.771  2.000  0.000 0  1735631478.185 iRoC  2.820
ODOM  1.640  2.860  0.771  2.000  0.000 0  1735631478.195 iRoC  2.830
ODOM  1.660  2.880  0.771  2.000  0.000 0  1735631478.205 iRoC  2.840
ODOM  1.680  2.900  0.771  2.000  0.000 0  1735631478.215 iRoC  2.850
ODOM  1.700  2.900  0.771  2.000  0.000 0  1735631478.225 iRoC  2.860
ODOM  1.700  2.920  0.771  2.000  0.000 0  1735631478.235 iRoC  2.870
ODOM  1.720  2.940  0.771  2.000  0.000 0  1735631478.245 iRoC  2.880
ODOM  1.740  2.940  0.771  2.000  0.000 0  1735631478.255 iRoC  2.890
ODOM  1.740  2.960  0.771  2.000  0.000 0  1735631478.265 iRoC  2.900
ODOM  1.760  2.980  0.771  2.000  0.000 0  1735631478.275 iRoC  2.910
ODOM  1.780  3.000  0.771  2.000  0.000 0  1735631478.285 iRoC  2.920
ODOM  1.800  3.000  0.771  2.000  0.000 0  1735631478.295 iRoC  2.930
ODOM  1.800  3.020  0.771  2.000  0.000 0  1735631478.305 iRoC  2.940
ODOM  1.820  3.040  0.771  2.000  0.000 0  1735631478.315 iRoC  2.950
ODOM  1.840  3.040  0.771  2.000  0.000 0  1735631478.325 iRoC  2.960
ODOM  1.840  3.060  0.771  2.000  0.000 0  1735631478.335 iRoC  2.970
ODOM  1.860  3.080  0.771  2.000  0.000 0  1735631478.345 iRoC  2.980
ODOM  1.880  3.080  0.771  2.000  0.000 0  1735631478.355 iRoC  2.990
ODOM  1.900  3.100  0.771  2.000  0.000 0  1735631478.365 iRoC  3.000
ODOM  1.900  3.120  0.771  2.000  0.000 0  1735631478.375 iRoC  3.010
ODOM  1.920  3.140  0.771  2.000  0.000 0  1735631478.385 iRoC  3.020
ODOM  1.940  3.140  0.771  2.000  0.000 0  1735631478.395 iRoC  3.030
ODOM  1.940  3.160  0.771  2.000  0.000 0  1735631478.405 iRoC  3.040
ODOM  1.960  3.180  0.771  2.000  0.000 0  1735631478.415 iRoC  3.050
ODOM  1.980  3.180  0.771  2.000  0.000 0  1735631478.425 iRoC  3.060
ODOM  2.000  3.200  0.771  2.000  0.000 0  1735631478.435 iRoC  3.070
ODOM  2.000  3.220  0.771  2.000  0.000 0  1735631478.445 iRoC  3.080
ODOM  2.020  3.220  0.771  2.000  0.000 0  1735631478.455 iRoC  3.090
ODOM  2.040  3.240  0.771  2.000  0.000 0  1735631478.465 iRoC  3.100
ODOM  2.040  3.260  0.771  2.000  0.000 0  1735631478.475 iRoC  3.110
ODOM  2.060  3.280  0.771  2.000  0.000 0  1735631478.485 iRoC  3.120
ODOM  2.080  3.280  0.771  2.000  0.000 0  1735631478.495 iRoC  3.130
ODOM  2.100  3.300  0.771  2.000  0.000 0  1735631478.505 iRoC  3.140
ODOM  2.100  3.320  0.771  2.000  0.000 0  1735631478.515 iRoC  3.150
ODOM  2.120  3.320  0.771  2.000  0.000 0  1735631478.525 iRoC  3.160
ODOM  2.140  3.340  0.771  2.000  0.000 0  1735631478.535 iRoC  3.170
ODOM  2.160  3.360  0.771  2.000  0.000 0  1735631478.545 iRoC  3.180
ODOM  2.160  3.360  0.771  2.000  0.000 0  1735631478.555 iRoC  3.190
ODOM  2.180  3.380  0.771  2.000  0.000 0  1735631478.565 iRoC  3.200
ODOM  2.200  3.400  0.771  2.000  0.000 0  1735631478.575 iRoC  3.210
ODOM  2.200  3.400  0.771  2.000  0.000 0  1735631478.585 iRoC  3.220
ODOM  2.220  3.420  0.771  2.000  0.000 0  1735631478.595 iRoC  3.230
ODOM  2.240  3.440  0.771  2.000  0.000 0  1735631478.605 iRoC  3.240
ODOM  2.260  3.460  0.771  2.000  0.000 0  1735631478.615 iRoC  3.250
ODOM  2.260  3.460  0.771  2.000  0.000 0  1735631478.625 iRoC  3.260
ODOM  2.280  3.480  0.771  2.000  0.000 0  1735631478.635 iRoC  3.270
ODOM  2.300  3.500  0.771  2.000  0.000 0  1735631478.645 iRoC  3.280
ODOM  2.300  3.500  0.771  2.000  0.000 0  1735631478.655 iRoC  3.290
ODOM  2.320  3.520  0.771  2.000  0.000 0  1735631478.665 iRoC  3.300
ODOM  2.340  3.540  0.771  2.000  0.000 0  1735631478.675 iRoC  3.310
ODOM  2.360  3.540  0.771  2.000  0.000 0  1735631478.685 iRoC  3.320
ODOM  2.360  3.560  0.771  2.000  0.000 0  1735631478.695 iRoC  3.330
ODOM  2.380  3.580  0.771  2.000  0.000 0  1735631478.705 iRoC  3.340
ODOM  2.400  3.600  0.771  2.000  0.000 0  1735631478.715 iRoC  3.350
ODOM  2.400  3.600  0.771  2.000  0.000 0  1735631478.725 iRoC  3.360
ODOM  2.420  3.620  0.771  2.000  0.000 0  1735631478.735 iRoC  3.370
ODOM  2.440  3.640  0.771  2.000  0.000 0  1735631478.745 iRoC  3.380
ODOM  2.460  3.640  0.771  2.000  0.000 0  1735631478.755 iRoC  3.390
ODOM  2.460  3.660  0.771  2.000  0.000 0  1735631478.765 iRoC  3.400
ODOM  2.480  3.680  0.771  2.000  0.000 0  1735631478.775 iRoC  3.410
ODOM  2.500  3.680  0.771  2.000  0.000 0  1735631478.785 iRoC  3.420
ODOM  2.500  3.700  0.771  2.000  0.000 0  1735631478.795 iRoC  3.430
ODOM  2.520  3.720  0.771  2.000  0.000 0  1735631478.805 iRoC  3.440
ODOM  2.540  3.720  0.771  2.000  0.000 0  1735631478.815 iRoC  3.450
ODOM  2.560  3.740  0.771  2.000  0.000 0  1735631478.825 iRoC  3.460
ODOM  2.560  3.760  0.771  2.000  0.000 0  1735631478.835 iRoC  3.470
ODOM  2.580  3.780  0.771  2.000  0.000 0  1735631478.845 iRoC  3.480
ODOM  2.600  3.780  0.771  2.000  0.000 0  1735631478.855 iRoC  3.490
ODOM  2.600  3.800  0.771  2.000  0.000 0  1735631478.865 iRoC  3.500
ODOM  2.620  3.820  0.771  2.000  0.000 0  1735631478.875 iRoC  3.510
ODOM  2.640  3.820  0.771  2.000  0.000 0  1735631478.885 iRoC  3.520
ODOM  2.660  3.840  0.771  2.000  0.000 0  1735631478.895 iRoC  3.530
ODOM  2.660  3.860  0.771  2.000  0.000 0  1735631478.905 iRoC  3.540
ODOM  2.680  3.860  0.771  2.000  0.000 0  1735631478.915 iRoC  3.550
ODOM  2.700  3.880  0.771  2.000  0.000 0  1735631478.925 iRoC  3.560
ODOM  2.700  3.900  0.771  2.000  0.000 0  1735631478.935 iRoC  3.570
ODOM  2.720  3.920  0.771  2.000  0.000 0  1735631478.945 iRoC  3.580
ODOM  2.740  3.920  0.771  2.000  0.000 0  1735631478.955 iRoC  3.590
ODOM  2.760  3.940  0.771  2.000  0.000 0  1735631478.965 iRoC  3.600
ODOM  2.760  3.960  0.771  2.000  0.000 0  1735631478.975 iRoC  3.610
ODOM  2.780  3.960  0.771  2.000  0.000 0  1735631478.985 iRoC  3.620
ODOM  2.800  3.980  0.771  2.000  0.000 0  1735631478.995 iRoC  3.630
ODOM  2.800  4.000  0.771  2.000  0.000 0  1735631479.005 iRoC  3.640
ODOM  2.820  4.000  0.771  2.000  0.000 0  1735631479.015 iRoC  3.650
ODOM  2.840  4.020  0.771  2.000  0.000 0  1735631479.025 iRoC  3.660
ODOM  2.860  4.040  0.771  2.000  0.000 0  1735631479.035 iRoC  3.670
ODOM  2.860  4.060  0.771  2.000  0.000 0  1735631479.045 iRoC  3.680
ODOM  2.880  4.060  0.771  2.000  0.000 0  1735631479.055 iRoC  3.690
ODOM  2.900  4.080  0.771  2.000  0.000 0  1735631479.065 iRoC  3.700
ODOM  2.920  4.100  0.771  2.000  0.000 0  1735631479.075 iRoC  3.710
ODOM  2.920  4.100  0.771  2.000  0.000 0  1735631479.085 iRoC  3.720
ODOM  2.940  4.120  0.771  2.000  0.000 0  1735631479.095 iRoC  3.730
ODOM  2.960  4.140  0.771  2.000  0.000 0  1735631479.105 iRoC  3.740
ODOM  2.960  4.140  0.771  2.000  0.000 0  1735631479.115 iRoC  3.750
ODOM  2.980  4.160  0.771  2.000  0.000 0  1735631479.125 iRoC  3.760
ODOM  3.000  4.180  0.771  2.000  0.000 0  1735631479.135 iRoC  3.770
ODOM  3.020  4.180  0.771  2.000  0.000 0  1735631479.145 iRoC  3.780
ODOM  3.020  4.200  0.771  2.000  0.000 0  1735631479.155 iRoC  3.790
ODOM  3.040  4.220  0.771  2.000  0.000 0  1735631479.165 iRoC  3.800
ODOM  3.060  4.240  0.771  2.000  0.000 0  1735631479.175 iRoC  3.810
ODOM  3.060  4.240  0.771  2.000  0.000 0  1735631479.185 iRoC  3.820
ODOM  3.080  4.260  0.771  2.000  0.000 0  1735631479.195 iRoC  3.830
ODOM  3.100  4.280  0.771  2.000  0.000 0  1735631479.205 iRoC  3.840
ODOM  3.120  4.280  0.771  2.000  0.000 0  1735631479.215 iRoC  3.850
ODOM  3.120  4.300  0.771  2.000  0.000 0  1735631479.225 iRoC  3.860
ODOM  3.140  4.320  0.771  2.000  0.000 0  1735631479.235 iRoC  3.870
ODOM  3.160  4.320  0.771  2.000  0.000 0  1735631479.245 iRoC  3.880
ODOM  3.160  4.340  0.771  2.000  0.000 0  1735631479.255 iRoC  3.890
ODOM  3.180  4.360  0.771  2.000  0.000 0  1735631479.265 iRoC  3.900
ODOM  3.200  4.380  0.771  2.000  0.000 0  1735631479.275 iRoC  3.910
ODOM  3.220  4.380  0.771  2.000  0.000 0  1735631479.285 iRoC  3.920
ODOM  3.220  4.400  0.771  2.000  0.000 0  1735631479.295 iRoC  3.930
ODOM  3.240  4.420  0.771  2.000  0.000 0  1735631479.305 iRoC  3.940
ODOM  3.260  4.420  0.771  2.000  0.000 0  1735631479.315 iRoC  3.950
ODOM  3.260  4.440  0.771  2.000  0.000 0  1735631479.325 iRoC  3.960
ODOM  3.280  4.460  0.771  2.000  0.000 0  1735631479.335 iRoC  3.970
ODOM  3.300  4.460  0.771  2.000  0.000 0  1735631479.345 iRoC  3.980
ODOM  3.320  4.480  0.771  2.000  0.000 0  1735631479.355 iRoC  3.990
ODOM  3.320  4.500  0.771  2.000  0.000 0  1735631479.365 iRoC  4.000
ODOM  3.340  4.520  0.771  2.000  0.000 0  1735631479.375 iRoC  4.010
ODOM  3.360  4.520  0.771  2.000  0.000 0  1735631479.385 iRoC  4.020
ODOM  3.360  4.540  0.771  2.000  0.000 0  1735631479.395 iRoC  4.030
ODOM  3.380  4.560  0.771  2.000  0.000 0  1735631479.405 iRoC  4.040
ODOM  3.400  4.560  0.771  2.000  0.000 0  1735631479.415 iRoC  4.050
ODOM  3.420  4.580  0.771  2.000  0.000 0  1735631479.425 iRoC  4.060
ODOM  3.420  4.600  0.771  2.000  0.000 0  1735631479.435 iRoC  4.070
ODOM  3.440  4.600  0.771  2.000  0.000 0  1735631479.445 iRoC  4.080
ODOM  3.460  4.620  0.771  2.000  0.000 0  1735631479.455 iRoC  4.090
ODOM  3.460  4.640  0.771  2.000  0.000 0  1735631479.465 iRoC  4.100
ODOM  3.480  4.640  0.771  2.000  0.000 0  1735631479.475 iRoC  4.110
ODOM  3.500  4.660  0.771  2.000  0.000 0  1735631479.485 iRoC  4.120
ODOM  3.520  4.680  0.771  2.000  0.000 0  1735631479.495 iRoC  4.130
ODOM  3.520  4.700  0.771  2.000  0.000 0  1735631479.505 iRoC  4.140
ODOM  3.540  4.700  0.771  2.000  0.000 0  1735631479.515 iRoC  4.150
ODOM  3.560  4.720  0.771  2.000  0.000 0  1735631479.525 iRoC  4.160
ODOM  3.580  4.740  0.771  2.000  0.000 0  1735631479.535 iRoC  4.170
ODOM  3.580  4.740  0.771  2.000  0.000 0  1735631479.545 iRoC  4.180
ODOM  3.600  4.760  0.771  2.000  0.000 0  1735631479.555 iRoC  4.190
ODOM  3.620  4.780  0.771  2.000  0.000 0  1735631479.565 iRoC  4.200
ODOM  3.620  4.780  0.791  2.000  2.000 0  1735631479.575 iRoC  4.210
ODOM  3.640  4.800  0.811  2.000  2.000 0  1735631479.585 iRoC  4.220
ODOM  3.660  4.820  0.831  2.000  2.000 0  1735631479.595 iRoC  4.230
ODOM  3.660  4.840  0.851  2.000  2.000 0  1735631479.605 iRoC  4.240
ODOM  3.680  4.840  0.871  2.000  2.000 0  1735631479.615 iRoC  4.250
ODOM  3.700  4.860  0.891  2.000  2.000 0  1735631479.625 iRoC  4.260
ODOM  3.700  4.880  0.911  2.000  2.000 0  1735631479.635 iRoC  4.270
ODOM  3.720  4.900  0.931  2.000  2.000 0  1735631479.645 iRoC  4.280
ODOM  3.740  4.920  0.951  2.000  2.000 0  1735631479.655 iRoC  4.290
ODOM  3.740  4.920  0.971  2.000  2.000 0  1735631479.665 iRoC  4.300
ODOM  3.760  4.940  0.991  2.000  2.000 0  1735631479.675 iRoC  4.310
ODOM  3.760  4.960  1.011  2.000  2.000 0  1735631479.685 iRoC  4.320
ODOM  3.780  4.980  1.031  2.000  2.000 0  1735631479.695 iRoC  4.330
ODOM  3.780  5.000  1.051  2.000  2.000 0  1735631479.705 iRoC  4.340
ODOM  3.800  5.020  1.051  2.000  0.000 0  1735631479.715 iRoC  4.350
ODOM  3.800  5.040  1.051  2.000  0.000 0  1735631479.725 iRoC  4.360
ODOM  3.820  5.040  1.051  2.000  0.000 0  1735631479.735 iRoC  4.370
ODOM  3.820  5.060  1.051  2.000  0.000 0  1735631479.745 iRoC  4.380
ODOM  3.840  5.080  1.051  2.000  0.000 0  1735631479.755 iRoC  4.390
ODOM  3.840  5.100  1.051  2.000  0.000 0  1735631479.765 iRoC  4.400
ODOM  3.860  5.120  1.051  2.000  0.000 0  1735631479.775 iRoC  4.410
ODOM  3.860  5.140  1.051  2.000  0.000 0  1735631479.785 iRoC  4.420
ODOM  3.880  5.160  1.051  2.000  0.000 0  1735631479.795 iRoC  4.430
ODOM  3.880  5.160  1.051  2.000  0.000 0  1735631479.805 iRoC  4.440
ODOM  3.900  5.180  1.051  2.000  0.000 0  1735631479.815 iRoC  4.450
ODOM  3.900  5.200  1.051  2.000  0.000 0  1735631479.825 iRoC  4.460
ODOM  3.920  5.220  1.051  2.000  0.000 0  1735631479.835 iRoC  4.470
ODOM  3.920  5.240  1.051  2.000  0.000 0  1735631479.845 iRoC  4.480
ODOM  3.940  5.260  1.051  2.000  0.000 0  1735631479.855 iRoC  4.490
ODOM  3.940  5.280  1.051  2.000  0.000 0  1735631479.865 iRoC  4.500
ODOM  3.960  5.300  1.051  2.000  0.000 0  1735631479.875 iRoC  4.510
ODOM  3.960  5.300  1.051  2.000  0.000 0  1735631479.885 iRoC  4.520
ODOM  3.980  5.320  1.051  2.000  0.000 0  1735631479.895 iRoC  4.530
ODOM  3.980  5.340  1.051  2.000  0.000 0  1735631479.905 iRoC  4.540
ODOM  4.000  5.360  1.071  2.000  2.000 0  1735631479.915 iRoC  4.550
ODOM  4.000  5.380  1.091  2.000  2.000 0  1735631479.925 iRoC  4.560
ODOM  4.020  5.400  1.111  2.000  2.000 0  1735631479.935 iRoC  4.570
ODOM  4.020  5.420  1.131  2.000  2.000 0  1735631479.945 iRoC  4.580
ODOM  4.020  5.440  1.151  2.000  2.000 0  1735631479.955 iRoC  4.590
ODOM  4.040  5.460  1.171  2.000  2.000 0  1735631479.965 iRoC  4.600
ODOM  4.040  5.460  1.171  2.000  0.000 0  1735631479.975 iRoC  4.610
ODOM  4.060  5.480  1.171  2.000  0.000 0  1735631479.985 iRoC  4.620
ODOM  4.060  5.500  1.171  2.000  0.000 0  1735631479.995 iRoC  4.630
ODOM  4.060  5.520  1.171  2.000  0.000 0  1735631480.005 iRoC  4.640
ODOM  4.080  5.540  1.171  2.000  0.000 0  1735631480.015 iRoC  4.650
ODOM  4.080  5.560  1.171  2.000  0.000 0  1735631480.025 iRoC  4.660
ODOM  4.100  5.580  1.171  2.000  0.000 0  1735631480.035 iRoC  4.670
ODOM  4.100  5.600  1.171  2.000  0.000 0  1735631480.045 iRoC  4.680
ODOM  4.100  5.620  1.171  2.000  0.000 0  1735631480.055 iRoC  4.690
ODOM  4.120  5.640  1.171  2.000  0.000 0  1735631480.065 iRoC  4.700
ODOM  4.120  5.660  1.171  2.000  0.000 0  1735631480.075 iRoC  4.710
ODOM  4.120  5.680  1.171  2.000  0.000 0  1735631480.085 iRoC  4.720
ODOM  4.140  5.680  1.171  2.000  0.000 0  1735631480.095 iRoC  4.730
ODOM  4.140  5.700  1.171  2.000  0.000 0  1735631480.105 iRoC  4.740
ODOM  4.160  5.720  1.171  2.000  0.000 0  1735631480.115 iRoC  4.750
ODOM  4.160  5.740  1.171  2.000  0.000 0  1735631480.125 iRoC  4.760
ODOM  4.160  5.760  1.171  2.000  0.000 0  1735631480.135 iRoC  4.770
ODOM  4.180  5.780  1.171  2.000  0.000 0  1735631480.145 iRoC  4.780
ODOM  4.180  5.800  1.171  2.000  0.000 0  1735631480.155 iRoC  4.790
ODOM  4.200  5.820  1.171  2.000  0.000 0  1735631480.165 iRoC  4.800
ODOM  4.200  5.840  1.191  2.000  2.000 0  1735631480.175 iRoC  4.810
ODOM  4.200  5.860  1.211  2.000  2.000 0  1735631480.185 iRoC  4.820
ODOM  4.220  5.880  1.231  2.000  2.000 0  1735631480.195 iRoC  4.830
ODOM  4.220  5.900  1.251  2.000  2.000 0  1735631480.205 iRoC  4.840
ODOM  4.220  5.920  1.271  2.000  2.000 0  1735631480.215 iRoC  4.850
ODOM  4.240  5.940  1.271  2.000  0.000 0  1735631480.225 iRoC  4.860
ODOM  4.240  5.960  1.271  2.000  0.000 0  1735631480.235 iRoC  4.870
ODOM  4.240  5.960  1.271  2.000  0.000 0  1735631480.245 iRoC  4.880
ODOM  4.260  5.980  1.271  2.000  0.000 0  1735631480.255 iRoC  4.890
ODOM  4.260  6.000  1.271  2.000  0.000 0  1735631480.265 iRoC  4.900
ODOM  4.260  6.020  1.271  2.000  0.000 0  1735631480.275 iRoC  4.910
ODOM  4.260  6.040  1.271  2.000  0.000 0  1735631480.285 iRoC  4.920
ODOM  4.280  6.060  1.271  2.000  0.000 0  1735631480.295 iRoC  4.930
ODOM  4.280  6.080  1.271  2.000  0.000 0  1735631480.305 iRoC  4.940
ODOM  4.280  6.100  1.271  2.000  0.000 0  1735631480.315 iRoC  4.950
ODOM  4.300  6.120  1.271  2.000  0.000 0  1735631480.325 iRoC  4.960
ODOM  4.300  6.140  1.271  2.000  0.000 0  1735631480.335 iRoC  4.970
ODOM  4.300  6.160  1.271  2.000  0.000 0  1735631480.345 iRoC  4.980
ODOM  4.300  6.180  1.271  2.000  0.000 0  1735631480.355 iRoC  4.990
ODOM  4.320  6.200  1.271  2.000  0.000 0  1735631480.365 iRoC  5.000
ODOM  4.320  6.220  1.271  2.000  0.000 0  1735631480.375 iRoC  5.010
ODOM  4.320  6.240  1.271  2.000  0.000 0  1735631480.385 iRoC  5.020
ODOM  4.340  6.260  1.271  2.000  0.000 0  1735631480.395 iRoC  5.030
ODOM  4.340  6.280  1.271  2.000  0.000 0  1735631480.405 iRoC  5.040
ODOM  4.340  6.300  1.271  2.000  0.000 0  1735631480.415 iRoC  5.050
ODOM  4.360  6.320  1.271  2.000  0.000 0  1735631480.425 iRoC  5.060
ODOM  4.360  6.340  1.271  2.000  0.000 0  1735631480.435 iRoC  5.070
ODOM  4.360  6.360  1.271  2.000  0.000 0  1735631480.445 iRoC  5.080
ODOM  4.360  6.380  1.271  2.000  0.000 0  1735631480.455 iRoC  5.090
ODOM  4.380  6.400  1.271  2.000  0.000 0  1735631480.465 iRoC  5.100
ODOM  4.380  6.400  1.271  2.000  0.000 0  1735631480.475 iRoC  5.110
ODOM  4.380  6.420  1.271  2.000  0.000 0  1735631480.485 iRoC  5.120
ODOM  4.400  6.440  1.271  2.000  0.000 0  1735631480.495 iRoC  5.130
ODOM  4.400  6.460  1.271  2.000  0.000 0  1735631480.505 iRoC  5.140
ODOM  4.400  6.480  1.271  2.000  0.000 0  1735631480.515 iRoC  5.150
ODOM  4.400  6.500  1.291  2.000  2.000 0  1735631480.525 iRoC  5.160
ODOM  4.420  6.520  1.311  2.000  2.000 0  1735631480.535 iRoC  5.170
ODOM  4.420  6.540  1.331  2.000  2.000 0  1735631480.545 iRoC  5.180
ODOM  4.420  6.560  1.351  2.000  2.000 0  1735631480.555 iRoC  5.190
ODOM  4.420  6.580  1.371  2.000  2.000 0  1735631480.565 iRoC  5.200
ODOM  4.440  6.600  1.371  2.000  0.000 0  1735631480.575 iRoC  5.210
ODOM  4.440  6.620  1.371  2.000  0.000 0  1735631480.585 iRoC  5.220
ODOM  4.440  6.640  1.371  2.000  0.000 0  1735631480.595 iRoC  5.230
ODOM  4.440  6.660  1.371  2.000  0.000 0  1735631480.605 iRoC  5.240
ODOM  4.440  6.680  1.371  2.000  0.000 0  1735631480.615 iRoC  5.250
ODOM  4.460  6.700  1.371  2.000  0.000 0  1735631480.625 iRoC  5.260
ODOM  4.460  6.720  1.371  2.000  0.000 0  1735631480.635 iRoC  5.270
ODOM  4.460  6.740  1.371  2.000  0.000 0  1735631480.645 iRoC  5.280
ODOM  4.460  6.760  1.371  2.000  0.000 0  1735631480.655 iRoC  5.290
ODOM  4.460  6.780  1.371  2.000  0.000 0  1735631480.665 iRoC  5.300
ODOM  4.480  6.800  1.371  2.000  0.000 0  1735631480.675 iRoC  5.310
ODOM  4.480  6.820  1.371  2.000  0.000 0  1735631480.685 iRoC  5.320
ODOM  4.480  6.840  1.371  2.000  0.000 0  1735631480.695 iRoC  5.330
ODOM  4.480  6.860  1.371  2.000  0.000 0  1735631480.705 iRoC  5.340
ODOM  4.480  6.880  1.371  2.000  0.000 0  1735631480.715 iRoC  5.350
ODOM  4.500  6.900  1.371  2.000  0.000 0  1735631480.725 iRoC  5.360
ODOM  4.500  6.920  1.371  2.000  0.000 0  1735631480.735 iRoC  5.370
ODOM  4.500  6.940  1.371  2.000  0.000 0  1735631480.745 iRoC  5.380
ODOM  4.500  6.960  1.371  2.000  0.000 0  1735631480.755 iRoC  5.390
ODOM  4.500  6.980  1.371  2.000  0.000 0  1735631480.765 iRoC  5.400
ODOM  4.520  7.000  1.351  2.000 -2.000 0  1735631480.775 iRoC  5.410
ODOM  4.520  7.020  1.331  2.000 -2.000 0  1735631480.785 iRoC  5.420
ODOM  4.520  7.040  1.311  2.000 -2.000 0  1735631480.795 iRoC  5.430
ODOM  4.520  7.060  1.291  2.000 -2.000 0  1735631480.805 iRoC  5.440
ODOM  4.540  7.080  1.271  2.000 -2.000 0  1735631480.815 iRoC  5.450
ODOM  4.540  7.100  1.251  2.000 -2.000 0  1735631480.825 iRoC  5.460
ODOM  4.540  7.100  1.231  2.000 -2.000 0  1735631480.835 iRoC  5.470
ODOM  4.560  7.120  1.211  2.000 -2.000 0  1735631480.845 iRoC  5.480
ODOM  4.560  7.140  1.191  2.000 -2.000 0  1735631480.855 iRoC  5.490
ODOM  4.560  7.160  1.171  2.000 -2.000 0  1735631480.865 iRoC  5.500
ODOM  4.580  7.180  1.151  2.000 -2.000 0  1735631480.875 iRoC  5.510
ODOM  4.580  7.200  1.131  2.000 -2.000 0  1735631480.885 iRoC  5.520
ODOM  4.600  7.220  1.111  2.000 -2.000 0  1735631480.895 iRoC  5.530
ODOM  4.600  7.240  1.091  2.000 -2.000 0  1735631480.905 iRoC  5.540
ODOM  4.620  7.260  1.071  2.000 -2.000 0  1735631480.915 iRoC  5.550
ODOM  4.620  7.280  1.051  2.000 -2.000 0  1735631480.925 iRoC  5.560
ODOM  4.640  7.280  1.031  2.000 -2.000 0  1735631480.935 iRoC  5.570
ODOM  4.640  7.300  1.011  2.000 -2.000 0  1735631480.945 iRoC  5.580
ODOM  4.660  7.320  0.991  2.000 -2.000 0  1735631480.955 iRoC  5.590
ODOM  4.660  7.340  0.971  2.000 -2.000 0  1735631480.965 iRoC  5.600
ODOM  4.680  7.360  0.971  2.000  0.000 0  1735631480.975 iRoC  5.610
ODOM  4.680  7.380  0.971  2.000  0.000 0  1735631480.985 iRoC  5.620
ODOM  4.700  7.380  0.971  2.000  0.000 0  1735631480.995 iRoC  5.630
ODOM  4.700  7.400  0.971  2.000  0.000 0  1735631481.005 iRoC  5.640
ODOM  4.720  7.420  0.971  2.000  0.000 0  1735631481.015 iRoC  5.650
ODOM  4.740  7.440  0.971  2.000  0.000 0  1735631481.025 iRoC  5.660
ODOM  4.740  7.460  0.971  2.000  0.000 0  1735631481.035 iRoC  5.670
ODOM  4.760  7.480  0.971  2.000  0.000 0  1735631481.045 iRoC  5.680
ODOM  4.760  7.480  0.971  2.000  0.000 0  1735631481.055 iRoC  5.690
ODOM  4.780  7.500  0.971  2.000  0.000 0  1735631481.065 iRoC  5.700
ODOM  4.780  7.520  0.971  2.000  0.000 0  1735631481.075 iRoC  5.710
ODOM  4.800  7.540  0.971  2.000  0.000 0  1735631481.085 iRoC  5.720
ODOM  4.800  7.560  0.971  2.000  0.000 0  1735631481.095 iRoC  5.730
ODOM  4.820  7.580  0.971  2.000  0.000 0  1735631481.105 iRoC  5.740
ODOM  4.840  7.580  0.971  2.000  0.000 0  1735631481.115 iRoC  5.750
ODOM  4.840  7.600  0.971  2.000  0.000 0  1735631481.125 iRoC  5.760
ODOM  4.860  7.620  0.971  2.000  0.000 0  1735631481.135 iRoC  5.770
ODOM  4.860  7.640  0.971  2.000  0.000 0  1735631481.145 iRoC  5.780
ODOM  4.880  7.660  0.971  2.000  0.000 0  1735631481.155 iRoC  5.790
ODOM  4.880  7.680  0.971  2.000  0.000 0  1735631481.165 iRoC  5.800
ODOM  4.900  7.680  0.951  2.000 -2.000 0  1735631481.175 iRoC  5.810
ODOM  4.920  7.700  0.931  2.000 -2.000 0  1735631481.185 iRoC  5.820
ODOM  4.920  7.720  0.911  2.000 -2.000 0  1735631481.195 iRoC  5.830
ODOM  4.940  7.740  0.891  2.000 -2.000 0  1735631481.205 iRoC  5.840
ODOM  4.940  7.760  0.871  2.000 -2.000 0  1735631481.215 iRoC  5.850
ODOM  4.960  7.760  0.851  2.000 -2.000 0  1735631481.225 iRoC  5.860
ODOM  4.980  7.780  0.831  2.000 -2.000 0  1735631481.235 iRoC  5.870
ODOM  4.980  7.800  0.811  2.000 -2.000 0  1735631481.245 iRoC  5.880
ODOM  5.000  7.800  0.791  2.000 -2.000 0  1735631481.255 iRoC  5.890
ODOM  5.020  7.820  0.771  2.000 -2.000 0  1735631481.265 iRoC  5.900
ODOM  5.040  7.840  0.751  2.000 -2.000 0  1735631481.275 iRoC  5.910
ODOM  5.040  7.860  0.731  2.000 -2.000 0  1735631481.285 iRoC  5.920
ODOM  5.060  7.860  0.711  2.000 -2.000 0  1735631481.295 iRoC  5.930
ODOM  5.080  7.880  0.691  2.000 -2.000 0  1735631481.305 iRoC  5.940
ODOM  5.100  7.880  0.671  2.000 -2.000 0  1735631481.315 iRoC  5.950
ODOM  5.100  7.900  0.651  2.000 -2.000 0  1735631481.325 iRoC  5.960
ODOM  5.120  7.920  0.631  2.000 -2.000 0  1735631481.335 iRoC  5.970
ODOM  5.140  7.920  0.611  2.000 -2.000 0  1735631481.345 iRoC  5.980
ODOM  5.160  7.940  0.591  2.000 -2.000 0  1735631481.355 iRoC  5.990
ODOM  5.180  7.940  0.571  2.000 -2.000 0  1735631481.365 iRoC  6.000
ODOM  5.200  7.960  0.551  2.000 -2.000 0  1735631481.375 iRoC  6.010
ODOM  5.200  7.960  0.531  2.000 -2.000 0  1735631481.385 iRoC  6.020
ODOM  5.220  7.980  0.511  2.000 -2.000 0  1735631481.395 iRoC  6.030
ODOM  5.240  7.980  0.491  2.000 -2.000 0  1735631481.405 iRoC  6.040
ODOM  5.260  8.000  0.471  2.000 -2.000 0  1735631481.415 iRoC  6.050
ODOM  5.280  8.000  0.451  2.000 -2.000 0  1735631481.425 iRoC  6.060
ODOM  5.300  8.020  0.431  2.000 -2.000 0  1735631481.435 iRoC  6.070
ODOM  5.320  8.020  0.411  2.000 -2.000 0  1735631481.445 iRoC  6.080
ODOM  5.340  8.040  0.391  2.000 -2.000 0  1735631481.455 iRoC  6.090
ODOM  5.360  8.040  0.371  2.000 -2.000 0  1735631481.465 iRoC  6.100
ODOM  5.380  8.040  0.351  2.000 -2.000 0  1735631481.475 iRoC  6.110
ODOM  5.380  8.060  0.331  2.000 -2.000 0  1735631481.485 iRoC  6.120
ODOM  5.400  8.060  0.311  2.000 -2.000 0  1735631481.495 iRoC  6.130
ODOM  5.420  8.060  0.291  2.000 -2.000 0  1735631481.505 iRoC  6.140
ODOM  5.440  8.060  0.271  2.000 -2.000 0  1735631481.515 iRoC  6.150
ODOM  5.460  8.080  0.251  2.000 -2.000 0  1735631481.525 iRoC  6.160
ODOM  5.480  8.080  0.231  2.000 -2.000 0  1735631481.535 iRoC  6.170
ODOM  5.500  8.080  0.211  2.000 -2.000 0  1735631481.545 iRoC  6.180
ODOM  5.520  8.080  0.191  2.000 -2.000 0  1735631481.555 iRoC  6.190
ODOM  5.540  8.100  0.171  2.000 -2.000 0  1735631481.565 iRoC  6.200
ODOM  5.560  8.100  0.171  2.000  0.000 0  1735631481.575 iRoC  6.210
ODOM  5.580  8.100  0.171  2.000  0.000 0  1735631481.585 iRoC  6.220
ODOM  5.600  8.100  0.171  2.000  0.000 0  1735631481.595 iRoC  6.230
ODOM  5.620  8.100  0.171  2.000  0.000 0  1735631481.605 iRoC  6.240
ODOM  5.640  8.100  0.171  2.000  0.000 0  1735631481.615 iRoC  6.250
ODOM  5.660  8.120  0.171  2.000  0.000 0  1735631481.625 iRoC  6.260
ODOM  5.680  8.120  0.171  2.000  0.000 0  1735631481.635 iRoC  6.270
ODOM  5.700  8.120  0.171  2.000  0.000 0  1735631481.645 iRoC  6.280
ODOM  5.720  8.120  0.171  2.000  0.000 0  1735631481.655 iRoC  6.290
ODOM  5.740  8.120  0.171  2.000  0.000 0  1735631481.665 iRoC  6.300
ODOM  5.760  8.120  0.171  2.000  0.000 0  1735631481.675 iRoC  6.310
ODOM  5.780  8.140  0.171  2.000  0.000 0  1735631481.685 iRoC  6.320
ODOM  5.800  8.140  0.171  2.000  0.000 0  1735631481.695 iRoC  6.330
ODOM  5.820  8.140  0.171  2.000  0.000 0  1735631481.705 iRoC  6.340
ODOM  5.840  8.140  0.151  2.000 -2.000 0  1735631481.715 iRoC  6.350
ODOM  5.860  8.140  0.131  2.000 -2.000 0  1735631481.725 iRoC  6.360
ODOM  5.880  8.140  0.111  2.000 -2.000 0  1735631481.735 iRoC  6.370
ODOM  5.900  8.140  0.091  2.000 -2.000 0  1735631481.745 iRoC  6.380
ODOM  5.920  8.160  0.071  2.000 -2.000 0  1735631481.755 iRoC  6.390
ODOM  5.940  8.160  0.051  2.000 -2.000 0  1735631481.765 iRoC  6.400
ODOM  5.960  8.160  0.031  2.000 -2.000 0  1735631481.775 iRoC  6.410
ODOM  5.980  8.160  0.011  2.000 -2.000 0  1735631481.785 iRoC  6.420
ODOM  6.000  8.160 -0.009  2.000 -2.000 0  1735631481.795 iRoC  6.430
ODOM  6.020  8.160 -0.029  2.000 -2.000 0  1735631481.805 iRoC  6.440
ODOM  6.040  8.160 -0.029  2.000  0.000 0  1735631481.815 iRoC  6.450
ODOM  6.060  8.160 -0.029  2.000  0.000 0  1735631481.825 iRoC  6.460
ODOM  6.080  8.160 -0.029  2.000  0.000 0  1735631481.835 iRoC  6.470
ODOM  6.100  8.160 -0.029  2.000  0.000 0  1735631481.845 iRoC  6.480
ODOM  6.120  8.160 -0.029  2.000  0.000 0  1735631481.855 iRoC  6.490
ODOM  6.140  8.140 -0.029  2.000  0.000 0  1735631481.865 iRoC  6.500
ODOM  6.160  8.140 -0.029  2.000  0.000 0  1735631481.875 iRoC  6.510
ODOM  6.180  8.140 -0.029  2.000  0.000 0  1735631481.885 iRoC  6.520
ODOM  6.200  8.140 -0.029  2.000  0.000 0  1735631481.895 iRoC  6.530
ODOM  6.220  8.140 -0.029  2.000  0.000 0  1735631481.905 iRoC  6.540
ODOM  6.240  8.140 -0.029  2.000  0.000 0  1735631481.915 iRoC  6.550
ODOM  6.260  8.140 -0.029  2.000  0.000 0  1735631481.925 iRoC  6.560
ODOM  6.280  8.140 -0.029  2.000  0.000 0  1735631481.935 iRoC  6.570
ODOM  6.300  8.140 -0.029  2.000  0.000 0  1735631481.945 iRoC  6.580
ODOM  6.320  8.140 -0.029  2.000  0.000 0  1735631481.955 iRoC  6.590
ODOM  6.340  8.140 -0.029  2.000  0.000 0  1735631481.965 iRoC  6.600
ODOM  6.360  8.140 -0.029  2.000  0.000 0  1735631481.975 iRoC  6.610
ODOM  6.380  8.140 -0.029  2.000  0.000 0  1735631481.985 iRoC  6.620
ODOM  6.400  8.140 -0.029  2.000  0.000 0  1735631481.995 iRoC  6.630
ODOM  6.420  8.140 -0.029  2.000  0.000 0  1735631482.005 iRoC  6.640
ODOM  6.440  8.140 -0.029  2.000  0.000 0  1735631482.015 iRoC  6.650
ODOM  6.460  8.140 -0.029  2.000  0.000 0  1735631482.025 iRoC  6.660
ODOM  6.480  8.140 -0.029  2.000  0.000 0  1735631482.035 iRoC  6.670
ODOM  6.500  8.140 -0.029  2.000  0.000 0  1735631482.045 iRoC  6.680
ODOM  6.520  8.140 -0.029  2.000  0.000 0  1735631482.055 iRoC  6.690
ODOM  6.540  8.140 -0.029  2.000  0.000 0  1735631482.065 iRoC  6.700
ODOM  6.560  8.140 -0.029  2.000  0.000 0  1735631482.075 iRoC  6.710
ODOM  6.580  8.140 -0.029  2.000  0.000 0  1735631482.085 iRoC  6.720
ODOM  6.600  8.140 -0.029  2.000  0.000 0  1735631482.095 iRoC  6.730
ODOM  6.620  8.140 -0.029  2.000  0.000 0  1735631482.105 iRoC  6.740
ODOM  6.640  8.140 -0.029  2.000  0.000 0  1735631482.115 iRoC  6.750
ODOM  6.660  8.140 -0.029  2.000  0.000 0  1735631482.125 iRoC  6.760
ODOM  6.680  8.140 -0.029  2.000  0.000 0  1735631482.135 iRoC  6.770
ODOM  6.700  8.140 -0.029  2.000  0.000 0  1735631482.145 iRoC  6.780
ODOM  6.720  8.140 -0.029  2.000  0.000 0  1735631482.155 iRoC  6.790
ODOM  6.740  8.140 -0.029  2.000  0.000 0  1735631482.165 iRoC  6.800
ODOM  6.760  8.140 -0.049  2.000 -2.000 0  1735631482.175 iRoC  6.810
ODOM  6.780  8.140 -0.069  2.000 -2.000 0  1735631482.185 iRoC  6.820
ODOM  6.800  8.120 -0.089  2.000 -2.000 0  1735631482.195 iRoC  6.830
ODOM  6.820  8.120 -0.109  2.000 -2.000 0  1735631482.205 iRoC  6.840
ODOM  6.840  8.120 -0.129  2.000 -2.000 0  1735631482.215 iRoC  6.850
ODOM  6.860  8.120 -0.149  2.000 -2.000 0  1735631482.225 iRoC  6.860
ODOM  6.880  8.120 -0.169  2.000 -2.000 0  1735631482.235 iRoC  6.870
ODOM  6.900  8.120 -0.189  2.000 -2.000 0  1735631482.245 iRoC  6.880
ODOM  6.920  8.120 -0.209  2.000 -2.000 0  1735631482.255 iRoC  6.890
ODOM  6.940  8.100 -0.229  2.000 -2.000 0  1735631482.265 iRoC  6.900
ODOM  6.960  8.100 -0.249  2.000 -2.000 0  1735631482.275 iRoC  6.910
ODOM  6.980  8.100 -0.249  2.000  0.000 0  1735631482.285 iRoC  6.920
ODOM  7.000  8.100 -0.249  2.000  0.000 0  1735631482.295 iRoC  6.930
ODOM  7.020  8.080 -0.249  2.000  0.000 0  1735631482.305 iRoC  6.940
ODOM  7.040  8.080 -0.249  2.000  0.000 0  1735631482.315 iRoC  6.950
ODOM  7.060  8.080 -0.249  2.000  0.000 0  1735631482.325 iRoC  6.960
ODOM  7.080  8.080 -0.249  2.000  0.000 0  1735631482.335 iRoC  6.970
ODOM  7.100  8.060 -0.249  2.000  0.000 0  1735631482.345 iRoC  6.980
ODOM  7.120  8.060 -0.249  2.000  0.000 0  1735631482.355 iRoC  6.990
ODOM  7.140  8.060 -0.249  2.000  0.000 0  1735631482.365 iRoC  7.000
ODOM  7.160  8.060 -0.249  2.000  0.000 0  1735631482.375 iRoC  7.010
ODOM  7.160  8.040 -0.249  2.000  0.000 0  1735631482.385 iRoC  7.020
ODOM  7.180  8.040 -0.249  2.000  0.000 0  1735631482.395 iRoC  7.030
ODOM  7.200  8.040 -0.249  2.000  0.000 0  1735631482.405 iRoC  7.040
ODOM  7.220  8.040 -0.249  2.000  0.000 0  1735631482.415 iRoC  7.050
ODOM  7.240  8.020 -0.249  2.000  0.000 0  1735631482.425 iRoC  7.060
ODOM  7.260  8.020 -0.249  2.000  0.000 0  1735631482.435 iRoC  7.070
ODOM  7.280  8.020 -0.249  2.000  0.000 0  1735631482.445 iRoC  7.080
ODOM  7.300  8.020 -0.249  2.000  0.000 0  1735631482.455 iRoC  7.090
ODOM  7.320  8.000 -0.249  2.000  0.000 0  1735631482.465 iRoC  7.100
ODOM  7.340  8.000 -0.249  2.000  0.000 0  1735631482.475 iRoC  7.110
ODOM  7.360  8.000 -0.249  2.000  0.000 0  1735631482.485 iRoC  7.120
ODOM  7.380  8.000 -0.249  2.000  0.000 0  1735631482.495 iRoC  7.130
ODOM  7.400  7.980 -0.249  2.000  0.000 0  1735631482.505 iRoC  7.140
ODOM  7.420  7.980 -0.229  2.000  2.000 0  1735631482.515 iRoC  7.150
ODOM  7.440  7.980 -0.209  2.000  2.000 0  1735631482.525 iRoC  7.160
ODOM  7.460  7.980 -0.189  2.000  2.000 0  1735631482.535 iRoC  7.170
ODOM  7.480  7.980 -0.169  2.000  2.000 0  1735631482.545 iRoC  7.180
ODOM  7.500  7.960 -0.149  2.000  2.000 0  1735631482.555 iRoC  7.190
ODOM  7.520  7.960 -0.129  2.000  2.000 0  1735631482.565 iRoC  7.200
ODOM  7.540  7.960 -0.129  2.000  0.000 0  1735631482.575 iRoC  7.210
ODOM  7.560  7.960 -0.129  2.000  0.000 0  1735631482.585 iRoC  7.220
ODOM  7.580  7.960 -0.129  2.000  0.000 0  1735631482.595 iRoC  7.230
ODOM  7.600  7.960 -0.129  2.000  0.000 0  1735631482.605 iRoC  7.240
ODOM  7.620  7.960 -0.129  2.000  0.000 0  1735631482.615 iRoC  7.250
ODOM  7.640  7.960 -0.129  2.000  0.000 0  1735631482.625 iRoC  7.260
ODOM  7.660  7.940 -0.129  2.000  0.000 0  1735631482.635 iRoC  7.270
ODOM  7.680  7.940 -0.129  2.000  0.000 0  1735631482.645 iRoC  7.280
ODOM  7.700  7.940 -0.129  2.000  0.000 0  1735631482.655 iRoC  7.290
ODOM  7.720  7.940 -0.129  2.000  0.000 0  1735631482.665 iRoC  7.300
ODOM  7.740  7.940 -0.129  2.000  0.000 0  1735631482.675 iRoC  7.310
ODOM  7.760  7.940 -0.129  2.000  0.000 0  1735631482.685 iRoC  7.320
ODOM  7.780  7.940 -0.129  2.000  0.000 0  1735631482.695 iRoC  7.330
ODOM  7.800  7.920 -0.129  2.000  0.000 0  1735631482.705 iRoC  7.340
ODOM  7.820  7.920 -0.129  2.000  0.000 0  1735631482.715 iRoC  7.350
ODOM  7.840  7.920 -0.129  2.000  0.000 0  1735631482.725 iRoC  7.360
ODOM  7.860  7.920 -0.129  2.000  0.000 0  1735631482.735 iRoC  7.370
ODOM  7.880  7.920 -0.129  2.000  0.000 0  1735631482.745 iRoC  7.380
ODOM  7.900  7.920 -0.129  2.000  0.000 0  1735631482.755 iRoC  7.390
ODOM  7.920  7.920 -0.129  2.000  0.000 0  1735631482.765 iRoC  7.400
ODOM  7.940  7.920 -0.109  2.000  2.000 0  1735631482.775 iRoC  7.410
ODOM  7.960  7.900 -0.089  2.000  2.000 0  1735631482.785 iRoC  7.420
ODOM  7.980  7.900 -0.069  2.000  2.000 0  1735631482.795 iRoC  7.430
ODOM  8.000  7.900 -0.049  2.000  2.000 0  1735631482.805 iRoC  7.440
ODOM  8.020  7.900 -0.029  2.000  2.000 0  1735631482.815 iRoC  7.450
ODOM  8.040  7.900 -0.009  2.000  2.000 0  1735631482.825 iRoC  7.460
ODOM  8.060  7.900  0.011  2.000  2.000 0  1735631482.835 iRoC  7.470
ODOM  8.080  7.900  0.011  2.000  0.000 0  1735631482.845 iRoC  7.480
ODOM  8.100  7.900  0.011  2.000  0.000 0  1735631482.855 iRoC  7.490
ODOM  8.120  7.900  0.011  2.000  0.000 0  1735631482.865 iRoC  7.500
ODOM  8.140  7.900  0.011  2.000  0.000 0  1735631482.875 iRoC  7.510
ODOM  8.160  7.900  0.011  2.000  0.000 0  1735631482.885 iRoC  7.520
ODOM  8.180  7.900  0.011  2.000  0.000 0  1735631482.895 iRoC  7.530
ODOM  8.200  7.900  0.011  2.000  0.000 0  1735631482.905 iRoC  7.540
ODOM  8.220  7.900  0.011  2.000  0.000 0  1735631482.915 iRoC  7.550
ODOM  8.240  7.900  0.011  2.000  0.000 0  1735631482.925 iRoC  7.560
ODOM  8.260  7.900  0.011  2.000  0.000 0  1735631482.935 iRoC  7.570
ODOM  8.280  7.900  0.011  2.000  0.000 0  1735631482.945 iRoC  7.580
ODOM  8.300  7.900  0.011  2.000  0.000 0  1735631482.955 iRoC  7.590
ODOM  8.320  7.900  0.011  2.000  0.000 0  1735631482.965 iRoC  7.600
ODOM  8.340  7.900  0.031  2.000  2.000 0  1735631482.975 iRoC  7.610
ODOM  8.360  7.900  0.051  2.000  2.000 0  1735631482.985 iRoC  7.620
ODOM  8.380  7.920  0.071  2.000  2.000 0  1735631482.995 iRoC  7.630
ODOM  8.400  7.920  0.091  2.000  2.000 0  1735631483.005 iRoC  7.640
ODOM  8.420  7.920  0.111  2.000  2.000 0  1735631483.015 iRoC  7.650
ODOM  8.440  7.920  0.131  2.000  2.000 0  1735631483.025 iRoC  7.660
ODOM  8.460  7.920  0.151  2.000  2.000 0  1735631483.035 iRoC  7.670
ODOM  8.480  7.920  0.171  2.000  2.000 0  1735631483.045 iRoC  7.680
ODOM  8.500  7.920  0.191  2.000  2.000 0  1735631483.055 iRoC  7.690
ODOM  8.520  7.940  0.211  2.000  2.000 0  1735631483.065 iRoC  7.700
ODOM  8.540  7.940  0.231  2.000  2.000 0  1735631483.075 iRoC  7.710
ODOM  8.560  7.940  0.251  2.000  2.000 0  1735631483.085 iRoC  7.720
ODOM  8.580  7.940  0.271  2.000  2.000 0  1735631483.095 iRoC  7.730
ODOM  8.600  7.960  0.271  2.000  0.000 0  1735631483.105 iRoC  7.740
ODOM  8.620  7.960  0.271  2.000  0.000 0  1735631483.115 iRoC  7.750
ODOM  8.640  7.960  0.271  2.000  0.000 0  1735631483.125 iRoC  7.760
ODOM  8.640  7.960  0.271  2.000  0.000 0  1735631483.135 iRoC  7.770
ODOM  8.660  7.980  0.271  2.000  0.000 0  1735631483.145 iRoC  7.780
ODOM  8.680  7.980  0.271  2.000  0.000 0  1735631483.155 iRoC  7.790
ODOM  8.700  7.980  0.271  2.000  0.000 0  1735631483.165 iRoC  7.800
ODOM  8.720  7.980  0.271  2.000  0.000 0  1735631483.175 iRoC  7.810
ODOM  8.740  8.000  0.271  2.000  0.000 0  1735631483.185 iRoC  7.820
ODOM  8.760  8.000  0.271  2.000  0.000 0  1735631483.195 iRoC  7.830
ODOM  8.780  8.000  0.271  2.000  0.000 0  1735631483.205 iRoC  7.840
ODOM  8.800  8.000  0.271  2.000  0.000 0  1735631483.215 iRoC  7.850
ODOM  8.820  8.020  0.271  2.000  0.000 0  1735631483.225 iRoC  7.860
ODOM  8.840  8.020  0.271  2.000  0.000 0  1735631483.235 iRoC  7.870
ODOM  8.860  8.020  0.271  2.000  0.000 0  1735631483.245 iRoC  7.880
ODOM  8.880  8.040  0.271  2.000  0.000 0  1735631483.255 iRoC  7.890
ODOM  8.900  8.040  0.271  2.000  0.000 0  1735631483.265 iRoC  7.900
ODOM  8.920  8.040  0.271  2.000  0.000 0  1735631483.275 iRoC  7.910
ODOM  8.940  8.040  0.271  2.000  0.000 0  1735631483.285 iRoC  7.920
ODOM  8.960  8.060  0.271  2.000  0.000 0  1735631483.295 iRoC  7.930
ODOM  8.980  8.060  0.271  2.000  0.000 0  1735631483.305 iRoC  7.940
ODOM  9.000  8.060  0.271  2.000  0.000 0  1735631483.315 iRoC  7.950
ODOM  9.020  8.060  0.271  2.000  0.000 0  1735631483.325 iRoC  7.960
ODOM  9.040  8.080  0.251  2.000 -2.000 0  1735631483.335 iRoC  7.970
ODOM  9.060  8.080  0.231  2.000 -2.000 0  1735631483.345 iRoC  7.980
ODOM  9.080  8.080  0.211  2.000 -2.000 0  1735631483.355 iRoC  7.990
ODOM  9.100  8.080  0.191  2.000 -2.000 0  1735631483.365 iRoC  8.000
ODOM  9.120  8.100  0.191  2.000  0.000 0  1735631483.375 iRoC  8.010
ODOM  9.140  8.100  0.191  2.000  0.000 0  1735631483.385 iRoC  8.020
ODOM  9.160  8.100  0.191  2.000  0.000 0  1735631483.395 iRoC  8.030
ODOM  9.180  8.100  0.191  2.000  0.000 0  1735631483.405 iRoC  8.040
ODOM  9.200  8.100  0.191  2.000  0.000 0  1735631483.415 iRoC  8.050
ODOM  9.220  8.100  0.191  2.000  0.000 0  1735631483.425 iRoC  8.060
ODOM  9.240  8.120  0.191  2.000  0.000 0  1735631483.435 iRoC  8.070
ODOM  9.260  8.120  0.191  2.000  0.000 0  1735631483.445 iRoC  8.080
ODOM  9.280  8.120  0.191  2.000  0.000 0  1735631483.455 iRoC  8.090
ODOM  9.300  8.120  0.191  2.000  0.000 0  1735631483.465 iRoC  8.100
ODOM  9.300  8.120  0.191  2.000  0.000 0  1735631483.475 iRoC  8.110
ODOM  9.320  8.140  0.191  2.000  0.000 0  1735631483.485 iRoC  8.120
ODOM  9.340  8.140  0.191  2.000  0.000 0  1735631483.495 iRoC  8.130
ODOM  9.360  8.140  0.191  2.000  0.000 0  1735631483.505 iRoC  8.140
ODOM  9.380  8.140  0.191  2.000  0.000 0  1735631483.515 iRoC  8.150
ODOM  9.400  8.140  0.191  2.000  0.000 0  1735631483.525 iRoC  8.160
ODOM  9.420  8.160  0.191  2.000  0.000 0  1735631483.535 iRoC  8.170
ODOM  9.440  8.160  0.191  2.000  0.000 0  1735631483.545 iRoC  8.180
ODOM  9.460  8.160  0.191  2.000  0.000 0  1735631483.555 iRoC  8.190
ODOM  9.480  8.160  0.191  2.000  0.000 0  1735631483.565 iRoC  8.200
ODOM  9.500  8.160  0.191  2.000  0.000 0  1735631483.575 iRoC  8.210
ODOM  9.520  8.160  0.191  2.000  0.000 0  1735631483.585 iRoC  8.220
ODOM  9.540  8.180  0.191  2.000  0.000 0  1735631483.595 iRoC  8.230
ODOM  9.560  8.180  0.191  2.000  0.000 0  1735631483.605 iRoC  8.240
ODOM  9.580  8.180  0.191  2.000  0.000 0  1735631483.615 iRoC  8.250
ODOM  9.600  8.180  0.191  2.000  0.000 0  1735631483.625 iRoC  8.260
ODOM  9.620  8.180  0.171  2.000 -2.000 0  1735631483.635 iRoC  8.270
ODOM  9.640  8.200  0.151  2.000 -2.000 0  1735631483.645 iRoC  8.280
ODOM  9.660  8.200  0.131  2.000 -2.000 0  1735631483.655 iRoC  8.290
ODOM  9.680  8.200  0.111  2.000 -2.000 0  1735631483.665 iRoC  8.300
ODOM  9.700  8.200  0.091  2.000 -2.000 0  1735631483.675 iRoC  8.310
ODOM  9.720  8.200  0.071  2.000 -2.000 0  1735631483.685 iRoC  8.320
ODOM  9.740  8.200  0.051  2.000 -2.000 0  1735631483.695 iRoC  8.330
ODOM  9.760  8.200  0.031  2.000 -2.000 0  1735631483.705 iRoC  8.340
ODOM  9.780  8.200  0.011  2.000 -2.000 0  1735631483.715 iRoC  8.350
ODOM  9.800  8.200 -0.009  2.000 -2.000 0  1735631483.725 iRoC  8.360
ODOM  9.820  8.200 -0.029  2.000 -2.000 0  1735631483.735 iRoC  8.370
ODOM  9.840  8.200 -0.049  2.000 -2.000 0  1735631483.745 iRoC  8.380
ODOM  9.860  8.200 -0.069  2.000 -2.000 0  1735631483.755 iRoC  8.390
ODOM  9.880  8.200 -0.089  2.000 -2.000 0  1735631483.765 iRoC  8.400
ODOM  9.900  8.200 -0.089  2.000  0.000 0  1735631483.775 iRoC  8.410
ODOM  9.920  8.200 -0.089  2.000  0.000 0  1735631483.785 iRoC  8.420
ODOM  9.940  8.200 -0.089  2.000  0.000 0  1735631483.795 iRoC  8.430
ODOM  9.960  8.200 -0.089  2.000  0.000 0  1735631483.805 iRoC  8.440
ODOM  9.980  8.200 -0.089  2.000  0.000 0  1735631483.815 iRoC  8.450
ODOM  10.000  8.180 -0.089  2.000  0.000 0  1735631483.825 iRoC  8.460
ODOM  10.020  8.180 -0.089  2.000  0.000 0  1735631483.835 iRoC  8.470
ODOM  10.040  8.180 -0.089  2.000  0.000 0  1735631483.845 iRoC  8.480
ODOM  10.060  8.180 -0.089  2.000  0.000 0  1735631483.855 iRoC  8.490
ODOM  10.080  8.180 -0.089  2.000  0.000 0  1735631483.865 iRoC  8.500
ODOM  10.100  8.180 -0.089  2.000  0.000 0  1735631483.875 iRoC  8.510
ODOM  10.120  8.180 -0.089  2.000  0.000 0  1735631483.885 iRoC  8.520
ODOM  10.140  8.180 -0.089  2.000  0.000 0  1735631483.895 iRoC  8.530
ODOM  10.160  8.180 -0.089  2.000  0.000 0  1735631483.905 iRoC  8.540
ODOM  10.180  8.180 -0.089  2.000  0.000 0  1735631483.915 iRoC  8.550
ODOM  10.200  8.180 -0.089  2.000  0.000 0  1735631483.925 iRoC  8.560
