x_pixel, y_pixel, heading_rad
ODOM 50, 614, 1.5707963267948966
ODOM 50, 614, 1.5707963267948966
ODOM 50, 614, 1.5707963267948966
ODOM 50, 614, 1.5707963267948966
ODOM 50, 614, 1.5707963267948966
ODOM 50, 614, 1.5707963267948966
ODOM 50, 614, 1.5707963267948966
ODOM 50, 614, 1.5707963267948966
ODOM 50, 614, 1.5707963267948966
ODOM 50, 614, 1.5707963267948966
ODOM 50, 614, 1.5707963267948966
ODOM 50, 614, 1.5707963267948966
ODOM 50, 614, 1.5707963267948966
ODOM 50, 614, 1.5707963267948966
ODOM 50, 614, 1.5707963267948966
ODOM 50, 614, 1.5707963267948966
ODOM 50, 614, 1.5707963267948966
ODOM 50, 614, 1.5707963267948966
ODOM 50, 614, 1.5707963267948966
ODOM 50, 614, 1.5707963267948966
ODOM 50, 614, 1.5707963267948966
ODOM 50, 614, 1.5707963267948966
ODOM 50, 614, 1.5707963267948966
ODOM 50, 614, 1.5707963267948966
ODOM 50, 614, 1.5707963267948966
ODOM 50, 614, 1.5707963267948966
ODOM 50, 614, 1.5707963267948966
ODOM 50, 614, 1.5707963267948966
ODOM 50, 614, 1.5707963267948966
ODOM 50, 614, 1.5707963267948966
ODOM 50, 614, 1.5707963267948966
ODOM 50, 614, 1.5707963267948966
ODOM 50, 614, 1.5707963267948966
ODOM 50, 614, 1.5707963267948966
ODOM 50, 614, 1.5707963267948966
ODOM 50, 614, 1.5707963267948966
ODOM 50, 614, 1.5707963267948966
ODOM 50, 614, 1.5707963267948966
ODOM 50, 614, 1.5707963267948966
ODOM 50, 614, 1.5707963267948966
ODOM 50, 614, 1.5707963267948966
ODOM 50, 614, 1.5707963267948966
ODOM 50, 614, 1.5707963267948966
ODOM 50, 614, 1.5707963267948966
ODOM 50, 614, 1.5707963267948966
ODOM 50, 614, 1.5707963267948966
ODOM 50, 614, 1.5707963267948966
ODOM 50, 614, 1.5707963267948966
ODOM 50, 614, 1.5707963267948966
ODOM 50, 614, 1.5707963267948966
ODOM 50, 614, 1.5707963267948966
ODOM 50, 613, 1.5707963267948966
ODOM 50, 612, 1.5707963267948966
ODOM 50, 611, 1.5707963267948966
ODOM 50, 610, 1.5707963267948966
ODOM 50, 609, 1.5707963267948966
ODOM 50, 608, 1.5707963267948966
ODOM 50, 607, 1.5707963267948966
ODOM 50, 606, 1.5707963267948966
ODOM 50, 605, 1.5707963267948966
ODOM 50, 604, 1.5707963267948966
ODOM 50, 603, 1.5707963267948966
ODOM 50, 602, 1.5707963267948966
ODOM 50, 601, 1.5707963267948966
ODOM 50, 600, 1.5707963267948966
ODOM 50, 599, 1.5507963267948965
ODOM 50, 598, 1.5307963267948965
ODOM 50, 597, 1.5107963267948965
ODOM 50, 596, 1.4907963267948965
ODOM 50, 595, 1.4707963267948965
ODOM 50, 594, 1.4507963267948965
ODOM 50, 593, 1.4307963267948964
ODOM 50, 592, 1.4107963267948964
ODOM 50, 591, 1.3907963267948964
ODOM 50, 590, 1.3707963267948964
ODOM 51, 589, 1.3507963267948964
ODOM 51, 588, 1.3307963267948963
ODOM 51, 587, 1.3107963267948963
ODOM 51, 586, 1.2907963267948963
ODOM 52, 585, 1.2707963267948963
ODOM 52, 584, 1.2507963267948963
ODOM 52, 583, 1.2307963267948963
ODOM 53, 582, 1.2107963267948962
ODOM 53, 581, 1.1907963267948962
ODOM 53, 580, 1.1707963267948962
ODOM 54, 579, 1.1507963267948962
ODOM 54, 578, 1.1307963267948962
ODOM 55, 577, 1.1107963267948961
ODOM 55, 576, 1.0907963267948961
ODOM 56, 576, 1.0707963267948961
ODOM 56, 575, 1.050796326794896
ODOM 57, 574, 1.030796326794896
ODOM 57, 573, 1.010796326794896
ODOM 58, 572, 0.990796326794896
ODOM 58, 571, 0.970796326794896
ODOM 59, 570, 0.950796326794896
ODOM 59, 570, 0.930796326794896
ODOM 60, 569, 0.910796326794896
ODOM 61, 568, 0.890796326794896
ODOM 61, 567, 0.8707963267948959
ODOM 62, 567, 0.8507963267948959
ODOM 63, 566, 0.8307963267948959
ODOM 63, 565, 0.8107963267948959
ODOM 64, 564, 0.7907963267948959
ODOM 65, 564, 0.7707963267948957
ODOM 65, 563, 0.7507963267948957
ODOM 66, 562, 0.7307963267948957
ODOM 67, 562, 0.7107963267948957
ODOM 68, 561, 0.6907963267948957
ODOM 68, 560, 0.6707963267948956
ODOM 69, 560, 0.6507963267948956
ODOM 70, 559, 0.6307963267948956
ODOM 71, 559, 0.6107963267948956
ODOM 72, 558, 0.5907963267948956
ODOM 72, 557, 0.5707963267948956
ODOM 73, 557, 0.5507963267948955
ODOM 74, 556, 0.5307963267948955
ODOM 75, 556, 0.5107963267948955
ODOM 76, 555, 0.4907963267948955
ODOM 77, 555, 0.47079632679489547
ODOM 78, 554, 0.4507963267948954
ODOM 79, 554, 0.4307963267948954
ODOM 80, 554, 0.41079632679489536
ODOM 80, 553, 0.3907963267948953
ODOM 81, 553, 0.37079632679489527
ODOM 82, 553, 0.35079632679489525
ODOM 83, 552, 0.3307963267948953
ODOM 84, 552, 0.3107963267948953
ODOM 85, 552, 0.29079632679489525
ODOM 86, 551, 0.27079632679489524
ODOM 87, 551, 0.2507963267948952
ODOM 88, 551, 0.23079632679489523
ODOM 89, 551, 0.21079632679489524
ODOM 90, 550, 0.19079632679489525
ODOM 91, 550, 0.17079632679489526
ODOM 92, 550, 0.1507963267948953
ODOM 93, 550, 0.1307963267948953
ODOM 94, 550, 0.11079632679489532
ODOM 95, 550, 0.09079632679489533
ODOM 96, 550, 0.07079632679489534
ODOM 97, 550, 0.07079632679489534
ODOM 98, 549, 0.07079632679489534
ODOM 99, 549, 0.07079632679489534
ODOM 100, 549, 0.07079632679489534
ODOM 101, 549, 0.07079632679489534
ODOM 102, 549, 0.07079632679489534
ODOM 103, 549, 0.07079632679489534
ODOM 104, 549, 0.07079632679489534
ODOM 105, 549, 0.07079632679489534
ODOM 106, 549, 0.07079632679489534
ODOM 107, 549, 0.07079632679489534
ODOM 108, 549, 0.07079632679489534
ODOM 109, 549, 0.07079632679489534
ODOM 110, 549, 0.07079632679489534
ODOM 111, 549, 0.07079632679489534
ODOM 112, 548, 0.07079632679489534
ODOM 113, 548, 0.07079632679489534
ODOM 114, 548, 0.07079632679489534
ODOM 115, 548, 0.07079632679489534
ODOM 116, 548, 0.07079632679489534
ODOM 117, 548, 0.07079632679489534
ODOM 118, 548, 0.07079632679489534
ODOM 119, 548, 0.07079632679489534
ODOM 120, 548, 0.07079632679489534
ODOM 121, 548, 0.07079632679489534
ODOM 122, 548, 0.07079632679489534
ODOM 123, 548, 0.07079632679489534
ODOM 124, 548, 0.07079632679489534
ODOM 125, 548, 0.07079632679489534
ODOM 126, 548, 0.07079632679489534
ODOM 127, 547, 0.07079632679489534
ODOM 128, 547, 0.07079632679489534
ODOM 129, 547, 0.07079632679489534
ODOM 130, 547, 0.07079632679489534
ODOM 131, 547, 0.07079632679489534
ODOM 132, 547, 0.07079632679489534
ODOM 133, 547, 0.07079632679489534
ODOM 134, 547, 0.07079632679489534
ODOM 135, 547, 0.07079632679489534
ODOM 136, 547, 0.07079632679489534
ODOM 137, 547, 0.07079632679489534
ODOM 138, 547, 0.07079632679489534
ODOM 139, 547, 0.07079632679489534
ODOM 140, 547, 0.07079632679489534
ODOM 141, 546, 0.05079632679489534
ODOM 142, 546, 0.030796326794895343
ODOM 143, 546, 0.010796326794895346
ODOM 144, 546, -0.009203673205104651
ODOM 145, 546, -0.029203673205104648
ODOM 146, 546, -0.049203673205104645
ODOM 147, 547, -0.06920367320510465
ODOM 148, 547, -0.08920367320510464
ODOM 149, 547, -0.10920367320510463
ODOM 150, 547, -0.12920367320510462
ODOM 151, 547, -0.1492036732051046
ODOM 152, 547, -0.1692036732051046
ODOM 153, 547, -0.1892036732051046
ODOM 154, 547, -0.20920367320510455
ODOM 155, 548, -0.22920367320510454
ODOM 156, 548, -0.24920367320510453
ODOM 157, 548, -0.24920367320510453
ODOM 158, 548, -0.24920367320510453
ODOM 159, 549, -0.24920367320510453
ODOM 160, 549, -0.24920367320510453
ODOM 161, 549, -0.24920367320510453
ODOM 162, 549, -0.24920367320510453
ODOM 163, 550, -0.24920367320510453
ODOM 163, 550, -0.24920367320510453
ODOM 164, 550, -0.24920367320510453
ODOM 165, 550, -0.24920367320510453
ODOM 166, 551, -0.24920367320510453
ODOM 167, 551, -0.24920367320510453
ODOM 168, 551, -0.24920367320510453
ODOM 169, 551, -0.24920367320510453
ODOM 170, 552, -0.24920367320510453
ODOM 171, 552, -0.24920367320510453
ODOM 172, 552, -0.24920367320510453
ODOM 173, 552, -0.24920367320510453
ODOM 174, 553, -0.24920367320510453
ODOM 175, 553, -0.24920367320510453
ODOM 176, 553, -0.24920367320510453
ODOM 177, 553, -0.24920367320510453
ODOM 178, 554, -0.24920367320510453
ODOM 179, 554, -0.24920367320510453
ODOM 180, 554, -0.24920367320510453
ODOM 181, 554, -0.24920367320510453
ODOM 182, 555, -0.2692036732051045
ODOM 183, 555, -0.28920367320510454
ODOM 184, 555, -0.30920367320510456
ODOM 185, 555, -0.3292036732051046
ODOM 186, 556, -0.3492036732051046
ODOM 187, 556, -0.3692036732051046
ODOM 188, 557, -0.3892036732051046
ODOM 188, 557, -0.40920367320510465
ODOM 189, 557, -0.42920367320510466
ODOM 190, 558, -0.4492036732051047
ODOM 191, 558, -0.4692036732051047
ODOM 192, 559, -0.4892036732051047
ODOM 193, 559, -0.5092036732051047
ODOM 194, 560, -0.5292036732051049
ODOM 195, 560, -0.5492036732051049
ODOM 196, 561, -0.5692036732051049
ODOM 196, 561, -0.5892036732051049
ODOM 197, 562, -0.5892036732051049
ODOM 198, 562, -0.5892036732051049
ODOM 199, 563, -0.5892036732051049
ODOM 200, 563, -0.5892036732051049
ODOM 201, 564, -0.5892036732051049
ODOM 201, 565, -0.5892036732051049
ODOM 202, 565, -0.5892036732051049
ODOM 203, 566, -0.5892036732051049
ODOM 204, 566, -0.5892036732051049
ODOM 205, 567, -0.5892036732051049
ODOM 206, 567, -0.5892036732051049
ODOM 206, 568, -0.5892036732051049
ODOM 207, 568, -0.5892036732051049
ODOM 208, 569, -0.5892036732051049
ODOM 209, 570, -0.5892036732051049
ODOM 210, 570, -0.5892036732051049
ODOM 211, 571, -0.5892036732051049
ODOM 211, 571, -0.5892036732051049
ODOM 212, 572, -0.5892036732051049
ODOM 213, 572, -0.5892036732051049
ODOM 214, 573, -0.5892036732051049
ODOM 215, 573, -0.5892036732051049
ODOM 215, 574, -0.5892036732051049
ODOM 216, 575, -0.5892036732051049
ODOM 217, 575, -0.5892036732051049
ODOM 218, 576, -0.5892036732051049
ODOM 219, 576, -0.5892036732051049
ODOM 220, 577, -0.5892036732051049
ODOM 220, 577, -0.5892036732051049
ODOM 221, 578, -0.5892036732051049
ODOM 222, 578, -0.5892036732051049
ODOM 223, 579, -0.5892036732051049
ODOM 224, 580, -0.5892036732051049
ODOM 225, 580, -0.5892036732051049
ODOM 225, 581, -0.5892036732051049
ODOM 226, 581, -0.5892036732051049
ODOM 227, 582, -0.5892036732051049
ODOM 228, 582, -0.5892036732051049
ODOM 229, 583, -0.5892036732051049
ODOM 230, 583, -0.5892036732051049
ODOM 230, 584, -0.5692036732051049
ODOM 231, 585, -0.5492036732051049
ODOM 232, 585, -0.5292036732051049
ODOM 233, 586, -0.5092036732051048
ODOM 234, 586, -0.48920367320510477
ODOM 235, 586, -0.46920367320510475
ODOM 236, 587, -0.44920367320510474
ODOM 237, 587, -0.4292036732051047
ODOM 238, 588, -0.40920367320510476
ODOM 238, 588, -0.38920367320510474
ODOM 239, 589, -0.3692036732051047
ODOM 240, 589, -0.3692036732051047
ODOM 241, 589, -0.3692036732051047
ODOM 242, 590, -0.3692036732051047
ODOM 243, 590, -0.3692036732051047
ODOM 244, 590, -0.3692036732051047
ODOM 245, 591, -0.3692036732051047
ODOM 246, 591, -0.3692036732051047
ODOM 247, 591, -0.3692036732051047
ODOM 248, 592, -0.3692036732051047
ODOM 249, 592, -0.3692036732051047
ODOM 250, 592, -0.3692036732051047
ODOM 251, 593, -0.3692036732051047
ODOM 251, 593, -0.3692036732051047
ODOM 252, 594, -0.3692036732051047
ODOM 253, 594, -0.3692036732051047
ODOM 254, 594, -0.3692036732051047
ODOM 255, 595, -0.3692036732051047
ODOM 256, 595, -0.3692036732051047
ODOM 257, 595, -0.3692036732051047
ODOM 258, 596, -0.3692036732051047
ODOM 259, 596, -0.3692036732051047
ODOM 260, 596, -0.3692036732051047
ODOM 261, 597, -0.3692036732051047
ODOM 262, 597, -0.3692036732051047
ODOM 263, 598, -0.3692036732051047
ODOM 264, 598, -0.3692036732051047
ODOM 265, 598, -0.3692036732051047
ODOM 265, 599, -0.3692036732051047
ODOM 266, 599, -0.3692036732051047
ODOM 267, 599, -0.3692036732051047
ODOM 268, 600, -0.3692036732051047
ODOM 269, 600, -0.3692036732051047
ODOM 270, 600, -0.3692036732051047
ODOM 271, 601, -0.3692036732051047
ODOM 272, 601, -0.3692036732051047
ODOM 273, 602, -0.3692036732051047
ODOM 274, 602, -0.3692036732051047
ODOM 275, 602, -0.3692036732051047
ODOM 276, 603, -0.3692036732051047
ODOM 277, 603, -0.3692036732051047
ODOM 278, 603, -0.3692036732051047
ODOM 279, 604, -0.3692036732051047
ODOM 279, 604, -0.3692036732051047
ODOM 280, 604, -0.3692036732051047
ODOM 281, 605, -0.3692036732051047
ODOM 282, 605, -0.3692036732051047
ODOM 283, 605, -0.3692036732051047
ODOM 284, 606, -0.3692036732051047
ODOM 285, 606, -0.3692036732051047
ODOM 286, 607, -0.3692036732051047
ODOM 287, 607, -0.38920367320510474
ODOM 288, 607, -0.4092036732051048
ODOM 289, 608, -0.42920367320510483
ODOM 290, 608, -0.44920367320510485
ODOM 291, 609, -0.4692036732051049
ODOM 291, 609, -0.48920367320510494
ODOM 292, 610, -0.509203673205105
ODOM 293, 610, -0.529203673205105
ODOM 294, 611, -0.549203673205105
ODOM 295, 611, -0.5692036732051049
ODOM 296, 612, -0.5892036732051049
ODOM 297, 612, -0.6092036732051049
ODOM 297, 613, -0.629203673205105
ODOM 298, 613, -0.649203673205105
ODOM 299, 614, -0.669203673205105
ODOM 300, 615, -0.689203673205105
ODOM 301, 615, -0.689203673205105
ODOM 301, 616, -0.689203673205105
ODOM 302, 617, -0.689203673205105
ODOM 303, 617, -0.689203673205105
ODOM 304, 618, -0.689203673205105
ODOM 304, 618, -0.689203673205105
ODOM 305, 619, -0.689203673205105
ODOM 306, 620, -0.709203673205105
ODOM 307, 620, -0.729203673205105
ODOM 307, 621, -0.729203673205105
ODOM 308, 622, -0.729203673205105
ODOM 309, 622, -0.729203673205105
ODOM 310, 623, -0.729203673205105
ODOM 310, 624, -0.729203673205105
ODOM 311, 624, -0.729203673205105
ODOM 312, 625, -0.709203673205105
ODOM 313, 626, -0.689203673205105
ODOM 313, 626, -0.669203673205105
ODOM 314, 627, -0.649203673205105
ODOM 315, 627, -0.629203673205105
ODOM 316, 628, -0.6092036732051049
ODOM 317, 629, -0.5892036732051049
ODOM 318, 629, -0.5692036732051049
ODOM 318, 630, -0.5492036732051049
ODOM 319, 630, -0.5292036732051049
ODOM 320, 631, -0.5092036732051048
ODOM 321, 631, -0.48920367320510477
ODOM 322, 632, -0.46920367320510475
ODOM 323, 632, -0.44920367320510474
ODOM 324, 633, -0.4292036732051047
ODOM 325, 633, -0.40920367320510476
ODOM 325, 633, -0.38920367320510474
ODOM 326, 634, -0.3692036732051047
ODOM 327, 634, -0.3492036732051047
ODOM 328, 634, -0.3292036732051047
ODOM 329, 635, -0.30920367320510467
ODOM 330, 635, -0.28920367320510465
ODOM 331, 635, -0.26920367320510463
ODOM 332, 636, -0.24920367320510461
ODOM 333, 636, -0.22920367320510462
ODOM 334, 636, -0.2092036732051046
ODOM 335, 636, -0.18920367320510462
ODOM 336, 636, -0.16920367320510463
ODOM 337, 637, -0.14920367320510464
ODOM 338, 637, -0.12920367320510465
ODOM 339, 637, -0.10920367320510466
ODOM 340, 637, -0.08920367320510467
ODOM 341, 637, -0.06920367320510468
ODOM 342, 637, -0.04920367320510468
ODOM 343, 637, -0.029203673205104683
ODOM 344, 637, -0.009203673205104686
ODOM 345, 637, 0.010796326794895311
ODOM 346, 637, 0.030796326794895308
ODOM 347, 637, 0.050796326794895305
ODOM 348, 637, 0.07079632679489531
ODOM 349, 637, 0.0907963267948953
ODOM 350, 637, 0.0907963267948953
ODOM 351, 637, 0.0907963267948953
ODOM 352, 637, 0.0907963267948953
ODOM 353, 637, 0.0907963267948953
ODOM 354, 636, 0.0907963267948953
ODOM 355, 636, 0.0907963267948953
ODOM 356, 636, 0.0907963267948953
ODOM 357, 636, 0.0907963267948953
ODOM 358, 636, 0.0907963267948953
ODOM 359, 636, 0.0907963267948953
ODOM 360, 636, 0.0907963267948953
ODOM 361, 636, 0.0907963267948953
ODOM 362, 636, 0.0907963267948953
ODOM 363, 636, 0.0907963267948953
ODOM 364, 636, 0.0907963267948953
ODOM 365, 635, 0.0907963267948953
ODOM 366, 635, 0.0907963267948953
ODOM 367, 635, 0.0907963267948953
ODOM 368, 635, 0.0907963267948953
ODOM 369, 635, 0.0907963267948953
ODOM 370, 635, 0.0907963267948953
ODOM 371, 635, 0.0907963267948953
ODOM 372, 635, 0.0907963267948953
ODOM 373, 635, 0.0907963267948953
ODOM 374, 635, 0.07079632679489531
ODOM 375, 635, 0.05079632679489531
ODOM 376, 635, 0.030796326794895315
ODOM 377, 634, 0.010796326794895318
ODOM 378, 634, -0.009203673205104679
ODOM 379, 635, -0.029203673205104676
ODOM 380, 635, -0.04920367320510467
ODOM 381, 635, -0.06920367320510468
ODOM 382, 635, -0.08920367320510467
ODOM 383, 635, -0.10920367320510466
ODOM 384, 635, -0.10920367320510466
ODOM 385, 635, -0.10920367320510466
ODOM 386, 635, -0.10920367320510466
ODOM 387, 635, -0.10920367320510466
ODOM 388, 635, -0.10920367320510466
ODOM 389, 635, -0.10920367320510466
ODOM 390, 636, -0.10920367320510466
ODOM 391, 636, -0.10920367320510466
ODOM 392, 636, -0.10920367320510466
ODOM 393, 636, -0.10920367320510466
ODOM 394, 636, -0.10920367320510466
ODOM 395, 636, -0.10920367320510466
ODOM 396, 636, -0.10920367320510466
ODOM 397, 636, -0.10920367320510466
ODOM 398, 636, -0.10920367320510466
ODOM 399, 637, -0.10920367320510466
ODOM 400, 637, -0.10920367320510466
ODOM 401, 637, -0.10920367320510466
ODOM 402, 637, -0.10920367320510466
ODOM 403, 637, -0.10920367320510466
ODOM 404, 637, -0.10920367320510466
ODOM 405, 637, -0.10920367320510466
ODOM 406, 637, -0.10920367320510466
ODOM 407, 637, -0.10920367320510466
ODOM 408, 638, -0.10920367320510466
ODOM 409, 638, -0.10920367320510466
ODOM 410, 638, -0.10920367320510466
ODOM 411, 638, -0.10920367320510466
ODOM 412, 638, -0.10920367320510466
ODOM 413, 638, -0.10920367320510466
ODOM 414, 638, -0.10920367320510466
ODOM 415, 638, -0.10920367320510466
ODOM 416, 638, -0.10920367320510466
ODOM 417, 638, -0.10920367320510466
ODOM 418, 639, -0.10920367320510466
ODOM 419, 639, -0.10920367320510466
ODOM 420, 639, -0.08920367320510467
ODOM 421, 639, -0.06920367320510468
ODOM 422, 639, -0.04920367320510468
ODOM 423, 639, -0.029203673205104683
ODOM 424, 639, -0.009203673205104686
ODOM 425, 639, 0.010796326794895311
ODOM 426, 639, 0.030796326794895308
ODOM 427, 639, 0.050796326794895305
ODOM 428, 639, 0.07079632679489531
ODOM 429, 639, 0.07079632679489531
ODOM 430, 639, 0.07079632679489531
ODOM 431, 639, 0.07079632679489531
ODOM 432, 639, 0.07079632679489531
ODOM 433, 639, 0.07079632679489531
ODOM 434, 638, 0.07079632679489531
ODOM 435, 638, 0.07079632679489531
ODOM 436, 638, 0.07079632679489531
ODOM 437, 638, 0.07079632679489531
ODOM 438, 638, 0.07079632679489531
ODOM 439, 638, 0.07079632679489531
ODOM 440, 638, 0.07079632679489531
ODOM 441, 638, 0.07079632679489531
ODOM 442, 638, 0.07079632679489531
ODOM 443, 638, 0.07079632679489531
ODOM 444, 638, 0.07079632679489531
ODOM 445, 638, 0.07079632679489531
ODOM 446, 638, 0.07079632679489531
ODOM 447, 638, 0.07079632679489531
ODOM 448, 637, 0.07079632679489531
ODOM 449, 637, 0.07079632679489531
ODOM 450, 637, 0.07079632679489531
ODOM 451, 637, 0.07079632679489531
ODOM 452, 637, 0.07079632679489531
ODOM 453, 637, 0.07079632679489531
ODOM 454, 637, 0.07079632679489531
ODOM 455, 637, 0.07079632679489531
ODOM 456, 637, 0.07079632679489531
ODOM 457, 637, 0.07079632679489531
ODOM 458, 637, 0.07079632679489531
ODOM 459, 637, 0.07079632679489531
ODOM 460, 637, 0.07079632679489531
ODOM 461, 637, 0.07079632679489531
ODOM 462, 636, 0.07079632679489531
ODOM 463, 636, 0.07079632679489531
ODOM 464, 636, 0.07079632679489531
ODOM 465, 636, 0.07079632679489531
ODOM 466, 636, 0.07079632679489531
ODOM 467, 636, 0.07079632679489531
ODOM 468, 636, 0.05079632679489531
ODOM 469, 636, 0.030796326794895315
ODOM 470, 636, 0.010796326794895318
ODOM 471, 636, -0.009203673205104679
ODOM 472, 636, -0.029203673205104676
ODOM 473, 636, -0.04920367320510467
ODOM 474, 636, -0.04920367320510467
ODOM 475, 636, -0.04920367320510467
ODOM 476, 636, -0.04920367320510467
ODOM 477, 636, -0.04920367320510467
ODOM 478, 636, -0.04920367320510467
ODOM 479, 636, -0.04920367320510467
ODOM 480, 636, -0.04920367320510467
ODOM 481, 636, -0.04920367320510467
ODOM 482, 636, -0.04920367320510467
ODOM 483, 637, -0.04920367320510467
ODOM 484, 637, -0.04920367320510467
ODOM 485, 637, -0.04920367320510467
ODOM 486, 637, -0.04920367320510467
ODOM 487, 637, -0.04920367320510467
ODOM 488, 637, -0.04920367320510467
ODOM 489, 637, -0.04920367320510467
ODOM 490, 637, -0.04920367320510467
ODOM 491, 637, -0.04920367320510467
ODOM 492, 637, -0.04920367320510467
ODOM 493, 637, -0.04920367320510467
ODOM 494, 637, -0.04920367320510467
ODOM 495, 637, -0.04920367320510467
ODOM 496, 637, -0.04920367320510467
ODOM 497, 637, -0.04920367320510467
ODOM 498, 637, -0.04920367320510467
ODOM 499, 637, -0.04920367320510467
ODOM 500, 637, -0.04920367320510467
ODOM 501, 637, -0.04920367320510467
ODOM 502, 637, -0.04920367320510467
ODOM 503, 638, -0.04920367320510467
ODOM 504, 638, -0.04920367320510467
ODOM 505, 638, -0.04920367320510467
ODOM 506, 638, -0.04920367320510467
ODOM 507, 638, -0.04920367320510467
ODOM 508, 638, -0.04920367320510467
ODOM 509, 638, -0.04920367320510467
ODOM 510, 638, -0.04920367320510467
ODOM 511, 638, -0.04920367320510467
ODOM 511, 638, -0.04920367320510467
ODOM 512, 638, -0.04920367320510467
ODOM 513, 638, -0.04920367320510467
ODOM 514, 638, -0.04920367320510467
ODOM 515, 638, -0.04920367320510467
ODOM 516, 638, -0.04920367320510467
ODOM 517, 638, -0.04920367320510467
ODOM 518, 638, -0.04920367320510467
ODOM 519, 638, -0.029203673205104676
ODOM 520, 638, -0.009203673205104679
ODOM 521, 638, 0.010796326794895318
ODOM 522, 638, 0.030796326794895315
ODOM 523, 638, 0.05079632679489531
ODOM 524, 638, 0.07079632679489531
ODOM 525, 638, 0.0907963267948953
ODOM 526, 638, 0.11079632679489529
ODOM 527, 638, 0.11079632679489529
ODOM 528, 638, 0.11079632679489529
ODOM 529, 638, 0.11079632679489529
ODOM 530, 638, 0.11079632679489529
ODOM 531, 638, 0.11079632679489529
ODOM 532, 637, 0.11079632679489529
ODOM 533, 637, 0.11079632679489529
ODOM 534, 637, 0.11079632679489529
ODOM 535, 637, 0.11079632679489529
ODOM 536, 637, 0.11079632679489529
ODOM 537, 637, 0.11079632679489529
ODOM 538, 637, 0.11079632679489529
ODOM 539, 637, 0.11079632679489529
ODOM 540, 637, 0.11079632679489529
ODOM 541, 636, 0.11079632679489529
ODOM 542, 636, 0.11079632679489529
ODOM 543, 636, 0.11079632679489529
ODOM 544, 636, 0.11079632679489529
ODOM 545, 636, 0.11079632679489529
ODOM 546, 636, 0.11079632679489529
ODOM 547, 636, 0.11079632679489529
ODOM 548, 636, 0.11079632679489529
ODOM 549, 636, 0.11079632679489529
ODOM 550, 635, 0.11079632679489529
ODOM 551, 635, 0.11079632679489529
ODOM 552, 635, 0.11079632679489529
ODOM 553, 635, 0.11079632679489529
ODOM 554, 635, 0.11079632679489529
ODOM 555, 635, 0.11079632679489529
ODOM 556, 635, 0.11079632679489529
ODOM 557, 635, 0.11079632679489529
ODOM 558, 635, 0.11079632679489529
ODOM 559, 634, 0.11079632679489529
ODOM 560, 634, 0.11079632679489529
ODOM 561, 634, 0.11079632679489529
ODOM 562, 634, 0.11079632679489529
ODOM 563, 634, 0.11079632679489529
ODOM 564, 634, 0.11079632679489529
ODOM 565, 634, 0.11079632679489529
ODOM 566, 634, 0.0907963267948953
ODOM 567, 634, 0.07079632679489531
ODOM 568, 634, 0.05079632679489531
ODOM 569, 633, 0.030796326794895315
ODOM 570, 633, 0.010796326794895318
ODOM 571, 633, -0.009203673205104679
ODOM 572, 633, -0.029203673205104676
ODOM 573, 634, -0.029203673205104676
ODOM 574, 634, -0.029203673205104676
ODOM 575, 634, -0.029203673205104676
ODOM 576, 634, -0.029203673205104676
ODOM 577, 634, -0.029203673205104676
ODOM 578, 634, -0.029203673205104676
ODOM 579, 634, -0.029203673205104676
ODOM 580, 634, -0.029203673205104676
ODOM 581, 634, -0.029203673205104676
ODOM 582, 634, -0.029203673205104676
ODOM 583, 634, -0.029203673205104676
ODOM 584, 634, -0.029203673205104676
ODOM 585, 634, -0.029203673205104676
ODOM 586, 634, -0.029203673205104676
ODOM 587, 634, -0.029203673205104676
ODOM 588, 634, -0.029203673205104676
ODOM 589, 634, -0.029203673205104676
ODOM 590, 634, -0.029203673205104676
ODOM 591, 634, -0.029203673205104676
ODOM 592, 634, -0.029203673205104676
ODOM 593, 634, -0.029203673205104676
ODOM 594, 634, -0.029203673205104676
ODOM 595, 634, -0.029203673205104676
ODOM 596, 634, -0.029203673205104676
ODOM 597, 634, -0.029203673205104676
ODOM 598, 634, -0.029203673205104676
ODOM 599, 634, -0.029203673205104676
ODOM 600, 634, -0.029203673205104676
ODOM 601, 634, -0.029203673205104676
ODOM 602, 634, -0.029203673205104676
ODOM 603, 634, -0.029203673205104676
ODOM 604, 634, -0.029203673205104676
ODOM 605, 634, -0.029203673205104676
ODOM 606, 634, -0.029203673205104676
ODOM 607, 634, -0.029203673205104676
ODOM 608, 635, -0.029203673205104676
ODOM 609, 635, -0.029203673205104676
ODOM 610, 635, -0.029203673205104676
ODOM 611, 635, -0.029203673205104676
ODOM 612, 635, -0.029203673205104676
ODOM 613, 635, -0.029203673205104676
ODOM 614, 635, -0.029203673205104676
ODOM 615, 635, -0.029203673205104676
ODOM 616, 635, -0.029203673205104676
ODOM 617, 635, -0.029203673205104676
ODOM 618, 635, -0.029203673205104676
ODOM 619, 635, -0.029203673205104676
ODOM 620, 635, -0.029203673205104676
ODOM 621, 635, -0.029203673205104676
ODOM 622, 635, -0.029203673205104676
ODOM 623, 635, -0.029203673205104676
ODOM 624, 635, -0.029203673205104676
ODOM 625, 635, -0.029203673205104676
ODOM 626, 635, -0.029203673205104676
ODOM 627, 635, -0.029203673205104676
ODOM 628, 635, -0.029203673205104676
ODOM 629, 635, -0.029203673205104676
ODOM 630, 635, -0.029203673205104676
ODOM 631, 635, -0.029203673205104676
ODOM 632, 635, -0.029203673205104676
ODOM 633, 635, -0.029203673205104676
ODOM 634, 635, -0.029203673205104676
ODOM 635, 635, -0.029203673205104676
ODOM 636, 635, -0.029203673205104676
ODOM 637, 635, -0.029203673205104676
ODOM 638, 635, -0.029203673205104676
ODOM 639, 635, -0.029203673205104676
ODOM 640, 635, -0.029203673205104676
ODOM 641, 635, -0.029203673205104676
ODOM 642, 636, -0.029203673205104676
ODOM 643, 636, -0.029203673205104676
ODOM 644, 636, -0.029203673205104676
ODOM 645, 636, -0.029203673205104676
ODOM 646, 636, -0.029203673205104676
ODOM 647, 636, -0.029203673205104676
ODOM 648, 636, -0.029203673205104676
ODOM 649, 636, -0.029203673205104676
ODOM 650, 636, -0.029203673205104676
ODOM 651, 636, -0.029203673205104676
ODOM 652, 636, -0.029203673205104676
ODOM 653, 636, -0.029203673205104676
ODOM 654, 636, -0.029203673205104676
ODOM 655, 636, -0.029203673205104676
ODOM 656, 636, -0.029203673205104676
ODOM 657, 636, -0.029203673205104676
ODOM 658, 636, -0.029203673205104676
ODOM 659, 636, -0.029203673205104676
ODOM 660, 636, -0.029203673205104676
ODOM 661, 636, -0.029203673205104676
ODOM 662, 636, -0.029203673205104676
ODOM 663, 636, -0.029203673205104676
ODOM 664, 636, -0.029203673205104676
ODOM 665, 636, -0.029203673205104676
ODOM 666, 636, -0.029203673205104676
ODOM 667, 636, -0.029203673205104676
ODOM 668, 636, -0.029203673205104676
ODOM 669, 636, -0.029203673205104676
ODOM 670, 636, -0.029203673205104676
ODOM 671, 636, -0.029203673205104676
ODOM 672, 636, -0.029203673205104676
ODOM 673, 636, -0.029203673205104676
ODOM 674, 636, -0.029203673205104676
ODOM 675, 636, -0.029203673205104676
ODOM 676, 637, -0.029203673205104676
ODOM 677, 637, -0.029203673205104676
ODOM 678, 637, -0.029203673205104676
ODOM 679, 637, -0.029203673205104676
ODOM 680, 637, -0.029203673205104676
ODOM 681, 637, -0.029203673205104676
ODOM 682, 637, -0.029203673205104676
ODOM 683, 637, -0.029203673205104676
ODOM 684, 637, -0.029203673205104676
ODOM 685, 637, -0.029203673205104676
ODOM 686, 637, -0.029203673205104676
ODOM 687, 637, -0.029203673205104676
ODOM 688, 637, -0.029203673205104676
ODOM 689, 637, -0.029203673205104676
ODOM 690, 637, -0.029203673205104676
ODOM 691, 637, -0.029203673205104676
ODOM 692, 637, -0.029203673205104676
ODOM 693, 637, -0.029203673205104676
ODOM 694, 637, -0.029203673205104676
ODOM 695, 637, -0.029203673205104676
ODOM 696, 637, -0.029203673205104676
ODOM 697, 637, -0.029203673205104676
ODOM 698, 637, -0.029203673205104676
ODOM 699, 637, -0.029203673205104676
ODOM 700, 637, -0.029203673205104676
ODOM 701, 637, -0.029203673205104676
ODOM 702, 637, -0.029203673205104676
ODOM 703, 637, -0.029203673205104676
ODOM 704, 637, -0.029203673205104676
ODOM 705, 637, -0.029203673205104676
ODOM 706, 637, -0.029203673205104676
ODOM 707, 637, -0.029203673205104676
ODOM 708, 637, -0.029203673205104676
ODOM 709, 637, -0.029203673205104676
ODOM 710, 638, -0.029203673205104676
ODOM 711, 638, -0.029203673205104676
ODOM 712, 638, -0.029203673205104676
ODOM 713, 638, -0.029203673205104676
ODOM 714, 638, -0.029203673205104676
ODOM 715, 638, -0.029203673205104676
ODOM 716, 638, -0.029203673205104676
ODOM 717, 638, -0.029203673205104676
ODOM 718, 638, -0.029203673205104676
ODOM 719, 638, -0.029203673205104676
ODOM 720, 638, -0.029203673205104676
ODOM 721, 638, -0.029203673205104676
ODOM 722, 638, -0.029203673205104676
ODOM 723, 638, -0.029203673205104676
ODOM 724, 638, -0.029203673205104676
ODOM 725, 638, -0.029203673205104676
ODOM 726, 638, -0.029203673205104676
ODOM 727, 638, -0.029203673205104676
ODOM 728, 638, -0.029203673205104676
ODOM 729, 638, -0.029203673205104676
ODOM 730, 638, -0.029203673205104676
ODOM 731, 638, -0.029203673205104676
ODOM 732, 638, -0.029203673205104676
ODOM 733, 638, -0.029203673205104676
ODOM 734, 638, -0.029203673205104676
ODOM 735, 638, -0.029203673205104676
ODOM 736, 638, -0.029203673205104676
ODOM 737, 638, -0.029203673205104676
ODOM 738, 638, -0.029203673205104676
ODOM 739, 638, -0.029203673205104676
ODOM 740, 638, -0.029203673205104676
ODOM 741, 638, -0.029203673205104676
ODOM 742, 638, -0.029203673205104676
ODOM 743, 638, -0.029203673205104676
ODOM 744, 638, -0.029203673205104676
ODOM 745, 639, -0.029203673205104676
ODOM 746, 639, -0.029203673205104676
ODOM 747, 639, -0.029203673205104676
ODOM 748, 639, -0.029203673205104676
ODOM 749, 639, -0.029203673205104676
ODOM 750, 639, -0.029203673205104676
ODOM 751, 639, -0.029203673205104676
ODOM 752, 639, -0.029203673205104676
ODOM 753, 639, -0.029203673205104676
ODOM 754, 639, -0.029203673205104676
ODOM 755, 639, -0.029203673205104676
ODOM 756, 639, -0.029203673205104676
ODOM 757, 639, -0.029203673205104676
ODOM 758, 639, -0.029203673205104676
ODOM 759, 639, -0.029203673205104676
ODOM 760, 639, -0.029203673205104676
ODOM 761, 639, -0.029203673205104676
ODOM 762, 639, -0.029203673205104676
ODOM 763, 639, -0.029203673205104676
ODOM 764, 639, -0.029203673205104676
ODOM 765, 639, -0.029203673205104676
ODOM 766, 639, -0.029203673205104676
ODOM 767, 639, -0.029203673205104676
ODOM 768, 639, -0.029203673205104676
ODOM 769, 639, -0.029203673205104676
ODOM 770, 639, -0.029203673205104676
ODOM 771, 639, -0.029203673205104676
ODOM 772, 639, -0.029203673205104676
ODOM 773, 639, -0.029203673205104676
ODOM 774, 639, -0.029203673205104676
ODOM 775, 639, -0.029203673205104676
ODOM 776, 639, -0.029203673205104676
ODOM 777, 639, -0.029203673205104676
ODOM 778, 639, -0.029203673205104676
ODOM 779, 640, -0.029203673205104676
ODOM 780, 640, -0.029203673205104676
ODOM 781, 640, -0.029203673205104676
ODOM 782, 640, -0.029203673205104676
ODOM 783, 640, -0.029203673205104676
ODOM 784, 640, -0.029203673205104676
ODOM 785, 640, -0.029203673205104676
ODOM 786, 640, -0.029203673205104676
ODOM 787, 640, -0.029203673205104676
ODOM 788, 640, -0.029203673205104676
ODOM 789, 640, -0.029203673205104676
ODOM 790, 640, -0.029203673205104676
ODOM 791, 640, -0.029203673205104676
ODOM 792, 640, -0.029203673205104676
ODOM 793, 640, -0.029203673205104676
ODOM 794, 640, -0.029203673205104676
ODOM 795, 640, -0.029203673205104676
ODOM 796, 640, -0.029203673205104676
ODOM 797, 640, -0.029203673205104676
ODOM 798, 640, -0.029203673205104676
ODOM 799, 640, -0.029203673205104676
ODOM 800, 640, -0.029203673205104676
ODOM 801, 640, -0.029203673205104676
ODOM 802, 640, -0.029203673205104676
ODOM 803, 640, -0.029203673205104676
ODOM 804, 640, -0.029203673205104676
ODOM 805, 640, -0.029203673205104676
ODOM 806, 640, -0.029203673205104676
ODOM 807, 640, -0.029203673205104676
ODOM 808, 640, -0.029203673205104676
ODOM 809, 640, -0.029203673205104676
ODOM 810, 640, -0.029203673205104676
ODOM 811, 640, -0.029203673205104676
ODOM 812, 640, -0.029203673205104676
ODOM 813, 641, -0.029203673205104676
ODOM 814, 641, -0.029203673205104676
ODOM 815, 641, -0.029203673205104676
ODOM 816, 641, -0.029203673205104676
ODOM 817, 641, -0.029203673205104676
ODOM 818, 641, -0.029203673205104676
ODOM 819, 641, -0.029203673205104676
ODOM 820, 641, -0.029203673205104676
ODOM 821, 641, -0.029203673205104676
ODOM 822, 641, -0.029203673205104676
ODOM 823, 641, -0.029203673205104676
ODOM 824, 641, -0.029203673205104676
ODOM 825, 641, -0.029203673205104676
ODOM 826, 641, -0.029203673205104676
ODOM 827, 641, -0.029203673205104676
ODOM 828, 641, -0.029203673205104676
ODOM 829, 641, -0.029203673205104676
ODOM 830, 641, -0.029203673205104676
ODOM 831, 641, -0.029203673205104676
ODOM 832, 641, -0.029203673205104676
ODOM 833, 641, -0.029203673205104676
ODOM 834, 641, -0.029203673205104676
ODOM 835, 641, -0.029203673205104676
ODOM 836, 641, -0.029203673205104676
ODOM 837, 641, -0.029203673205104676
ODOM 838, 641, -0.029203673205104676
ODOM 839, 641, -0.029203673205104676
ODOM 840, 641, -0.029203673205104676
ODOM 841, 641, -0.029203673205104676
ODOM 842, 641, -0.029203673205104676
ODOM 843, 641, -0.029203673205104676
ODOM 844, 641, -0.009203673205104679
ODOM 845, 641, 0.010796326794895318
ODOM 846, 641, 0.030796326794895315
ODOM 847, 641, 0.05079632679489531
ODOM 848, 641, 0.07079632679489531
ODOM 849, 641, 0.0907963267948953
ODOM 850, 641, 0.11079632679489529
ODOM 851, 641, 0.13079632679489528
ODOM 852, 641, 0.1507963267948953
ODOM 853, 641, 0.1707963267948953
ODOM 854, 641, 0.19079632679489528
ODOM 855, 640, 0.21079632679489527
ODOM 856, 640, 0.23079632679489526
ODOM 857, 640, 0.2507963267948953
ODOM 858, 640, 0.2707963267948953
ODOM 859, 639, 0.2907963267948953
ODOM 860, 639, 0.31079632679489533
ODOM 861, 639, 0.33079632679489535
ODOM 862, 638, 0.35079632679489536
ODOM 863, 638, 0.3707963267948953
ODOM 864, 638, 0.3907963267948953
ODOM 865, 637, 0.4107963267948953
ODOM 865, 637, 0.43079632679489527
ODOM 866, 636, 0.45079632679489534
ODOM 867, 636, 0.47079632679489536
ODOM 868, 636, 0.4907963267948954
ODOM 869, 635, 0.5107963267948954
ODOM 870, 635, 0.5307963267948955
ODOM 871, 634, 0.5507963267948955
ODOM 872, 633, 0.5707963267948956
ODOM 872, 633, 0.5907963267948956
ODOM 873, 632, 0.6107963267948956
ODOM 874, 632, 0.6307963267948956
ODOM 875, 631, 0.6507963267948956
ODOM 876, 631, 0.6707963267948956
ODOM 876, 630, 0.6907963267948957
ODOM 877, 629, 0.7107963267948957
ODOM 878, 629, 0.7307963267948957
ODOM 879, 628, 0.7507963267948957
ODOM 879, 627, 0.7707963267948957
ODOM 880, 627, 0.7707963267948957
ODOM 881, 626, 0.7707963267948957
ODOM 882, 625, 0.7707963267948957
ODOM 882, 624, 0.7707963267948957
ODOM 883, 624, 0.7707963267948957
ODOM 884, 623, 0.7707963267948957
ODOM 884, 622, 0.7707963267948957
ODOM 885, 622, 0.7707963267948957
ODOM 886, 621, 0.7707963267948957
ODOM 887, 620, 0.7707963267948957
ODOM 887, 620, 0.7707963267948957
ODOM 888, 619, 0.7707963267948957
ODOM 889, 618, 0.7707963267948957
ODOM 889, 618, 0.7907963267948958
ODOM 890, 617, 0.8107963267948958
ODOM 891, 616, 0.8307963267948958
ODOM 891, 615, 0.8507963267948958
ODOM 892, 615, 0.8707963267948958
ODOM 893, 614, 0.8907963267948958
ODOM 893, 613, 0.9107963267948959
ODOM 894, 612, 0.9307963267948959
ODOM 895, 611, 0.9507963267948959
ODOM 895, 611, 0.9507963267948959
ODOM 896, 610, 0.9507963267948959
ODOM 896, 609, 0.9507963267948959
ODOM 897, 608, 0.9507963267948959
ODOM 897, 607, 0.9507963267948959
ODOM 898, 607, 0.9507963267948959
ODOM 899, 606, 0.9507963267948959
ODOM 899, 605, 0.9707963267948959
ODOM 900, 604, 0.9907963267948959
ODOM 900, 603, 1.0107963267948958
ODOM 901, 602, 1.0307963267948959
ODOM 901, 601, 1.0507963267948959
ODOM 902, 601, 1.070796326794896
ODOM 902, 600, 1.090796326794896
ODOM 903, 599, 1.110796326794896
ODOM 903, 598, 1.130796326794896
ODOM 904, 597, 1.150796326794896
ODOM 904, 596, 1.170796326794896
ODOM 904, 595, 1.190796326794896
ODOM 905, 594, 1.210796326794896
ODOM 905, 593, 1.230796326794896
ODOM 905, 592, 1.250796326794896
ODOM 906, 591, 1.250796326794896
ODOM 906, 590, 1.250796326794896
ODOM 906, 590, 1.250796326794896
ODOM 907, 589, 1.250796326794896
ODOM 907, 588, 1.250796326794896
ODOM 907, 587, 1.270796326794896
ODOM 908, 586, 1.290796326794896
ODOM 908, 585, 1.310796326794896
ODOM 908, 584, 1.3307963267948961
ODOM 908, 583, 1.3507963267948961
ODOM 909, 582, 1.3707963267948962
ODOM 909, 581, 1.3907963267948962
ODOM 909, 580, 1.4107963267948962
ODOM 909, 579, 1.4307963267948962
ODOM 909, 578, 1.4507963267948962
ODOM 909, 577, 1.4507963267948962
ODOM 909, 576, 1.4507963267948962
ODOM 910, 575, 1.4507963267948962
ODOM 910, 574, 1.4507963267948962
ODOM 910, 573, 1.4507963267948962
ODOM 910, 572, 1.4507963267948962
ODOM 910, 571, 1.4507963267948962
ODOM 910, 570, 1.4507963267948962
ODOM 910, 569, 1.4507963267948962
ODOM 910, 568, 1.4507963267948962
ODOM 910, 567, 1.4507963267948962
ODOM 911, 566, 1.4507963267948962
ODOM 911, 565, 1.4507963267948962
ODOM 911, 564, 1.4507963267948962
ODOM 911, 563, 1.4507963267948962
ODOM 911, 562, 1.4507963267948962
ODOM 911, 561, 1.4507963267948962
ODOM 911, 560, 1.4507963267948962
ODOM 911, 559, 1.4507963267948962
ODOM 912, 558, 1.4507963267948962
ODOM 912, 557, 1.4507963267948962
ODOM 912, 556, 1.4507963267948962
ODOM 912, 555, 1.4507963267948962
ODOM 912, 554, 1.4507963267948962
ODOM 912, 553, 1.4507963267948962
ODOM 912, 552, 1.4507963267948962
ODOM 912, 551, 1.4507963267948962
ODOM 913, 550, 1.4507963267948962
ODOM 913, 549, 1.4507963267948962
ODOM 913, 548, 1.4507963267948962
ODOM 913, 547, 1.4507963267948962
ODOM 913, 546, 1.4507963267948962
ODOM 913, 545, 1.4507963267948962
ODOM 913, 544, 1.4507963267948962
ODOM 913, 543, 1.4507963267948962
ODOM 913, 542, 1.4507963267948962
ODOM 914, 541, 1.4507963267948962
ODOM 914, 540, 1.4507963267948962
ODOM 914, 539, 1.4507963267948962
ODOM 914, 538, 1.4507963267948962
ODOM 914, 537, 1.4507963267948962
ODOM 914, 536, 1.4507963267948962
ODOM 914, 535, 1.4507963267948962
ODOM 914, 534, 1.4507963267948962
ODOM 915, 533, 1.4507963267948962
ODOM 915, 532, 1.4507963267948962
ODOM 915, 531, 1.4507963267948962
ODOM 915, 530, 1.4507963267948962
ODOM 915, 529, 1.4507963267948962
ODOM 915, 528, 1.4507963267948962
ODOM 915, 527, 1.4507963267948962
ODOM 915, 526, 1.4507963267948962
ODOM 916, 525, 1.4507963267948962
ODOM 916, 524, 1.4507963267948962
ODOM 916, 523, 1.4507963267948962
ODOM 916, 522, 1.4507963267948962
ODOM 916, 521, 1.4507963267948962
ODOM 916, 520, 1.4507963267948962
ODOM 916, 519, 1.4507963267948962
ODOM 916, 518, 1.4507963267948962
ODOM 916, 517, 1.4507963267948962
ODOM 917, 516, 1.4507963267948962
ODOM 917, 515, 1.4507963267948962
ODOM 917, 514, 1.4507963267948962
ODOM 917, 513, 1.4507963267948962
ODOM 917, 512, 1.4507963267948962
ODOM 917, 511, 1.4507963267948962
ODOM 917, 510, 1.4507963267948962
ODOM 917, 509, 1.4507963267948962
ODOM 918, 508, 1.4507963267948962
ODOM 918, 507, 1.4507963267948962
ODOM 918, 506, 1.4507963267948962
ODOM 918, 505, 1.4507963267948962
ODOM 918, 504, 1.4507963267948962
ODOM 918, 503, 1.4507963267948962
ODOM 918, 502, 1.4507963267948962
ODOM 918, 501, 1.4507963267948962
ODOM 919, 500, 1.4507963267948962
ODOM 919, 499, 1.4507963267948962
ODOM 919, 498, 1.4707963267948962
ODOM 919, 497, 1.4907963267948963
ODOM 919, 496, 1.5107963267948963
ODOM 919, 495, 1.5307963267948963
ODOM 919, 494, 1.5507963267948963
ODOM 919, 493, 1.5707963267948963
ODOM 919, 492, 1.5907963267948964
ODOM 919, 491, 1.6107963267948964
ODOM 919, 490, 1.6307963267948964
ODOM 919, 489, 1.6507963267948964
ODOM 919, 488, 1.6707963267948964
ODOM 919, 487, 1.6907963267948964
ODOM 919, 486, 1.7107963267948965
ODOM 918, 486, 1.7307963267948965
ODOM 918, 485, 1.7507963267948965
ODOM 918, 484, 1.7707963267948965
ODOM 918, 483, 1.7907963267948965
ODOM 918, 482, 1.8107963267948965
ODOM 917, 481, 1.8307963267948966
ODOM 917, 480, 1.8507963267948966
ODOM 917, 479, 1.8707963267948966
ODOM 916, 478, 1.8907963267948966
ODOM 916, 477, 1.9107963267948966
ODOM 916, 476, 1.9307963267948967
ODOM 915, 475, 1.9507963267948967
ODOM 915, 474, 1.9707963267948967
ODOM 915, 473, 1.9907963267948967
ODOM 914, 472, 2.0107963267948965
ODOM 914, 471, 2.0307963267948965
ODOM 913, 470, 2.0507963267948965
ODOM 913, 470, 2.0707963267948966
ODOM 912, 469, 2.0907963267948966
ODOM 912, 468, 2.1107963267948966
ODOM 911, 467, 2.1307963267948966
ODOM 911, 466, 2.1507963267948966
ODOM 910, 465, 2.1707963267948966
ODOM 910, 464, 2.1907963267948967
ODOM 909, 464, 2.2107963267948967
ODOM 908, 463, 2.2307963267948967
ODOM 908, 462, 2.2507963267948967
ODOM 907, 461, 2.2707963267948967
ODOM 907, 461, 2.2907963267948968
ODOM 906, 460, 2.3107963267948968
ODOM 905, 459, 2.330796326794897
ODOM 905, 458, 2.350796326794897
ODOM 904, 458, 2.370796326794897
ODOM 903, 457, 2.390796326794897
ODOM 902, 456, 2.410796326794897
ODOM 902, 456, 2.430796326794897
ODOM 901, 455, 2.450796326794897
ODOM 900, 454, 2.470796326794897
ODOM 899, 454, 2.490796326794897
ODOM 898, 453, 2.510796326794897
ODOM 898, 453, 2.530796326794897
ODOM 897, 452, 2.550796326794897
ODOM 896, 451, 2.570796326794897
ODOM 895, 451, 2.590796326794897
ODOM 894, 450, 2.610796326794897
ODOM 893, 450, 2.630796326794897
ODOM 893, 449, 2.650796326794897
ODOM 892, 449, 2.670796326794897
ODOM 891, 448, 2.690796326794897
ODOM 890, 448, 2.710796326794897
ODOM 889, 448, 2.730796326794897
ODOM 888, 447, 2.750796326794897
ODOM 887, 447, 2.770796326794897
ODOM 886, 447, 2.770796326794897
ODOM 885, 446, 2.770796326794897
ODOM 884, 446, 2.770796326794897
ODOM 883, 445, 2.770796326794897
ODOM 882, 445, 2.770796326794897
ODOM 882, 445, 2.770796326794897
ODOM 881, 444, 2.770796326794897
ODOM 880, 444, 2.770796326794897
ODOM 879, 444, 2.770796326794897
ODOM 878, 443, 2.770796326794897
ODOM 877, 443, 2.770796326794897
ODOM 876, 443, 2.750796326794897
ODOM 875, 442, 2.730796326794897
ODOM 874, 442, 2.710796326794897
ODOM 873, 441, 2.690796326794897
ODOM 872, 441, 2.670796326794897
ODOM 871, 440, 2.650796326794897
ODOM 871, 440, 2.630796326794897
ODOM 870, 439, 2.610796326794897
ODOM 869, 439, 2.590796326794897
ODOM 868, 438, 2.570796326794897
ODOM 867, 438, 2.550796326794897
ODOM 866, 437, 2.530796326794897
ODOM 865, 437, 2.510796326794897
ODOM 865, 436, 2.490796326794897
ODOM 864, 435, 2.470796326794897
ODOM 863, 435, 2.450796326794897
ODOM 862, 434, 2.430796326794897
ODOM 862, 434, 2.410796326794897
ODOM 861, 433, 2.390796326794897
ODOM 860, 432, 2.370796326794897
ODOM 859, 431, 2.350796326794897
ODOM 859, 431, 2.330796326794897
ODOM 858, 430, 2.3107963267948968
ODOM 857, 429, 2.2907963267948968
ODOM 857, 428, 2.2707963267948967
ODOM 856, 428, 2.2507963267948967
ODOM 855, 427, 2.2307963267948967
ODOM 855, 426, 2.2107963267948967
ODOM 854, 425, 2.1907963267948967
ODOM 854, 425, 2.1707963267948966
ODOM 853, 424, 2.1507963267948966
ODOM 853, 423, 2.1307963267948966
ODOM 852, 422, 2.1107963267948966
ODOM 852, 421, 2.0907963267948966
ODOM 851, 420, 2.0707963267948966
ODOM 851, 419, 2.0507963267948965
ODOM 850, 418, 2.0307963267948965
ODOM 850, 418, 2.0107963267948965
ODOM 849, 417, 1.9907963267948965
ODOM 849, 416, 1.9707963267948965
ODOM 849, 415, 1.9507963267948965
ODOM 848, 414, 1.9307963267948964
ODOM 848, 413, 1.9107963267948964
ODOM 848, 412, 1.8907963267948964
ODOM 847, 411, 1.8707963267948964
ODOM 847, 410, 1.8507963267948964
ODOM 847, 409, 1.8307963267948963
ODOM 846, 408, 1.8107963267948963
ODOM 846, 407, 1.7907963267948963
ODOM 846, 406, 1.7707963267948963
ODOM 846, 405, 1.7507963267948963
ODOM 846, 404, 1.7307963267948963
ODOM 845, 403, 1.7107963267948962
ODOM 845, 402, 1.6907963267948962
ODOM 845, 401, 1.6707963267948962
ODOM 845, 400, 1.6507963267948962
ODOM 845, 399, 1.6307963267948962
ODOM 845, 398, 1.6107963267948961
ODOM 845, 397, 1.5907963267948961
ODOM 845, 396, 1.5707963267948961
ODOM 845, 395, 1.550796326794896
ODOM 845, 394, 1.530796326794896
ODOM 845, 393, 1.510796326794896
ODOM 845, 392, 1.490796326794896
ODOM 845, 391, 1.470796326794896
ODOM 845, 390, 1.450796326794896
ODOM 845, 389, 1.430796326794896
ODOM 846, 388, 1.410796326794896
ODOM 846, 387, 1.390796326794896
ODOM 846, 386, 1.370796326794896
ODOM 846, 385, 1.350796326794896
ODOM 846, 384, 1.330796326794896
ODOM 847, 383, 1.3107963267948959
ODOM 847, 382, 1.2907963267948959
ODOM 847, 382, 1.2707963267948958
ODOM 848, 381, 1.2507963267948958
ODOM 848, 380, 1.2307963267948958
ODOM 848, 379, 1.2107963267948958
ODOM 849, 378, 1.1907963267948958
ODOM 849, 377, 1.1707963267948958
ODOM 849, 376, 1.1507963267948957
ODOM 850, 375, 1.1307963267948957
ODOM 850, 374, 1.1107963267948957
ODOM 851, 373, 1.0907963267948957
ODOM 851, 372, 1.0707963267948957
ODOM 852, 371, 1.0507963267948957
ODOM 852, 371, 1.0307963267948956
ODOM 853, 370, 1.0107963267948956
ODOM 853, 369, 0.9907963267948956
ODOM 854, 368, 0.9707963267948955
ODOM 854, 367, 0.9507963267948955
ODOM 855, 366, 0.9307963267948954
ODOM 855, 366, 0.9107963267948954
ODOM 856, 365, 0.9107963267948954
ODOM 857, 364, 0.9107963267948954
ODOM 857, 363, 0.9107963267948954
ODOM 858, 362, 0.9107963267948954
ODOM 859, 362, 0.9107963267948954
ODOM 859, 361, 0.9107963267948954
ODOM 860, 360, 0.9107963267948954
ODOM 860, 359, 0.9107963267948954
ODOM 861, 359, 0.9107963267948954
ODOM 862, 358, 0.9107963267948954
ODOM 862, 357, 0.9107963267948954
ODOM 863, 356, 0.9107963267948954
ODOM 863, 355, 0.9107963267948954
ODOM 864, 355, 0.9107963267948954
ODOM 865, 354, 0.9107963267948954
ODOM 865, 353, 0.9107963267948954
ODOM 866, 352, 0.9107963267948954
ODOM 867, 351, 0.9107963267948954
ODOM 867, 351, 0.9107963267948954
ODOM 868, 350, 0.9107963267948954
ODOM 868, 349, 0.9107963267948954
ODOM 869, 348, 0.9107963267948954
ODOM 870, 347, 0.9107963267948954
ODOM 870, 347, 0.9107963267948954
ODOM 871, 346, 0.9107963267948954
ODOM 871, 345, 0.9107963267948954
ODOM 872, 344, 0.9107963267948954
ODOM 873, 344, 0.9107963267948954
ODOM 873, 343, 0.9107963267948954
ODOM 874, 342, 0.9107963267948954
ODOM 874, 341, 0.9107963267948954
ODOM 875, 340, 0.9107963267948954
ODOM 876, 340, 0.9107963267948954
ODOM 876, 339, 0.9107963267948954
ODOM 877, 338, 0.9107963267948954
ODOM 878, 337, 0.9107963267948954
ODOM 878, 336, 0.9107963267948954
ODOM 879, 336, 0.9107963267948954
ODOM 879, 335, 0.9107963267948954
ODOM 880, 334, 0.9107963267948954
ODOM 881, 333, 0.9107963267948954
ODOM 881, 332, 0.9107963267948954
ODOM 882, 332, 0.9107963267948954
ODOM 882, 331, 0.9107963267948954
ODOM 883, 330, 0.9107963267948954
ODOM 884, 329, 0.9107963267948954
ODOM 884, 329, 0.9107963267948954
ODOM 885, 328, 0.9107963267948954
ODOM 886, 327, 0.9107963267948954
ODOM 886, 326, 0.9107963267948954
ODOM 887, 325, 0.9107963267948954
ODOM 887, 325, 0.9107963267948954
ODOM 888, 324, 0.9107963267948954
ODOM 889, 323, 0.9107963267948954
ODOM 889, 322, 0.9107963267948954
ODOM 890, 321, 0.9107963267948954
ODOM 890, 321, 0.9107963267948954
ODOM 891, 320, 0.9107963267948954
ODOM 892, 319, 0.9107963267948954
ODOM 892, 318, 0.9107963267948954
ODOM 893, 317, 0.9107963267948954
ODOM 893, 317, 0.9107963267948954
ODOM 894, 316, 0.9107963267948954
ODOM 895, 315, 0.9107963267948954
ODOM 895, 314, 0.9107963267948954
ODOM 896, 313, 0.9107963267948954
ODOM 897, 313, 0.9107963267948954
ODOM 897, 312, 0.9107963267948954
ODOM 898, 311, 0.9107963267948954
ODOM 898, 310, 0.9107963267948954
ODOM 899, 310, 0.9107963267948954
ODOM 900, 309, 0.9107963267948954
ODOM 900, 308, 0.9107963267948954
ODOM 901, 307, 0.9107963267948954
ODOM 901, 306, 0.9107963267948954
ODOM 902, 306, 0.9107963267948954
ODOM 903, 305, 0.9107963267948954
ODOM 903, 304, 0.9107963267948954
ODOM 904, 303, 0.9107963267948954
ODOM 905, 302, 0.9107963267948954
ODOM 905, 302, 0.9107963267948954
ODOM 906, 301, 0.9107963267948954
ODOM 906, 300, 0.9107963267948954
ODOM 907, 299, 0.9107963267948954
ODOM 908, 298, 0.9107963267948954
ODOM 908, 298, 0.9107963267948954
ODOM 909, 297, 0.9107963267948954
ODOM 909, 296, 0.9107963267948954
ODOM 910, 295, 0.9107963267948954
ODOM 911, 295, 0.9107963267948954
ODOM 911, 294, 0.9107963267948954
ODOM 912, 293, 0.9107963267948954
ODOM 912, 292, 0.9107963267948954
ODOM 913, 291, 0.9107963267948954
ODOM 914, 291, 0.9107963267948954
ODOM 914, 290, 0.9107963267948954
ODOM 915, 289, 0.9107963267948954
ODOM 916, 288, 0.9107963267948954
ODOM 916, 287, 0.9107963267948954
ODOM 917, 287, 0.9107963267948954
ODOM 917, 286, 0.9107963267948954
ODOM 918, 285, 0.9307963267948954
ODOM 919, 284, 0.9507963267948955
ODOM 919, 283, 0.9707963267948955
ODOM 920, 283, 0.9907963267948954
ODOM 920, 282, 1.0107963267948954
ODOM 921, 281, 1.0307963267948954
ODOM 921, 280, 1.0507963267948954
ODOM 922, 279, 1.0707963267948954
ODOM 922, 278, 1.0907963267948955
ODOM 923, 277, 1.1107963267948955
ODOM 923, 276, 1.1307963267948955
ODOM 924, 276, 1.1507963267948955
ODOM 924, 275, 1.1707963267948955
ODOM 924, 274, 1.1907963267948956
ODOM 925, 273, 1.2107963267948956
ODOM 925, 272, 1.2307963267948956
ODOM 925, 271, 1.2507963267948956
ODOM 926, 270, 1.2707963267948956
ODOM 926, 269, 1.2907963267948956
ODOM 926, 268, 1.3107963267948957
ODOM 926, 267, 1.3307963267948957
ODOM 927, 266, 1.3507963267948957
ODOM 927, 265, 1.3707963267948957
ODOM 927, 264, 1.3907963267948957
ODOM 927, 263, 1.4107963267948957
ODOM 927, 262, 1.4307963267948958
ODOM 928, 261, 1.4507963267948958
ODOM 928, 260, 1.4707963267948958
ODOM 928, 259, 1.4907963267948958
ODOM 928, 258, 1.5107963267948958
ODOM 928, 257, 1.5307963267948959
ODOM 928, 256, 1.5507963267948959
ODOM 928, 255, 1.570796326794896
ODOM 928, 254, 1.590796326794896
ODOM 928, 253, 1.610796326794896
ODOM 928, 252, 1.630796326794896
ODOM 928, 251, 1.650796326794896
ODOM 928, 250, 1.670796326794896
ODOM 928, 249, 1.690796326794896
ODOM 927, 248, 1.710796326794896
ODOM 927, 247, 1.730796326794896
ODOM 927, 246, 1.750796326794896
ODOM 927, 245, 1.770796326794896
ODOM 927, 244, 1.790796326794896
ODOM 926, 243, 1.810796326794896
ODOM 926, 242, 1.810796326794896
ODOM 926, 241, 1.810796326794896
ODOM 926, 240, 1.810796326794896
ODOM 926, 239, 1.810796326794896
ODOM 925, 238, 1.810796326794896
ODOM 925, 237, 1.810796326794896
ODOM 925, 237, 1.810796326794896
ODOM 925, 236, 1.810796326794896
ODOM 924, 235, 1.810796326794896
ODOM 924, 234, 1.810796326794896
ODOM 924, 233, 1.810796326794896
ODOM 924, 232, 1.810796326794896
ODOM 923, 231, 1.810796326794896
ODOM 923, 230, 1.810796326794896
ODOM 923, 229, 1.810796326794896
ODOM 923, 228, 1.810796326794896
ODOM 922, 227, 1.810796326794896
ODOM 922, 226, 1.810796326794896
ODOM 922, 225, 1.810796326794896
ODOM 922, 224, 1.810796326794896
ODOM 921, 223, 1.810796326794896
ODOM 921, 222, 1.810796326794896
ODOM 921, 221, 1.810796326794896
ODOM 921, 220, 1.810796326794896
ODOM 921, 219, 1.810796326794896
ODOM 920, 218, 1.810796326794896
ODOM 920, 217, 1.810796326794896
ODOM 920, 216, 1.810796326794896
ODOM 920, 215, 1.810796326794896
ODOM 919, 214, 1.810796326794896
ODOM 919, 213, 1.810796326794896
ODOM 919, 212, 1.810796326794896
ODOM 919, 211, 1.810796326794896
ODOM 918, 210, 1.810796326794896
ODOM 918, 209, 1.810796326794896
ODOM 918, 208, 1.810796326794896
ODOM 918, 207, 1.810796326794896
ODOM 917, 206, 1.810796326794896
ODOM 917, 205, 1.810796326794896
ODOM 917, 204, 1.810796326794896
ODOM 917, 203, 1.810796326794896
ODOM 916, 203, 1.810796326794896
ODOM 916, 202, 1.810796326794896
ODOM 916, 201, 1.810796326794896
ODOM 916, 200, 1.810796326794896
ODOM 916, 199, 1.810796326794896
ODOM 915, 198, 1.810796326794896
ODOM 915, 197, 1.8307963267948961
ODOM 915, 196, 1.8507963267948961
ODOM 914, 195, 1.8707963267948962
ODOM 914, 194, 1.8907963267948962
ODOM 914, 193, 1.9107963267948962
ODOM 914, 192, 1.9307963267948962
ODOM 913, 191, 1.9507963267948962
ODOM 913, 190, 1.9707963267948962
ODOM 912, 189, 1.9907963267948963
ODOM 912, 188, 2.010796326794896
ODOM 912, 187, 2.030796326794896
ODOM 911, 186, 2.050796326794896
ODOM 911, 186, 2.070796326794896
ODOM 910, 185, 2.090796326794896
ODOM 910, 184, 2.110796326794896
ODOM 909, 183, 2.130796326794896
ODOM 909, 182, 2.150796326794896
ODOM 908, 181, 2.170796326794896
ODOM 907, 180, 2.190796326794896
ODOM 907, 180, 2.2107963267948962
ODOM 906, 179, 2.2307963267948963
ODOM 906, 178, 2.2507963267948963
ODOM 905, 177, 2.2707963267948963
ODOM 904, 177, 2.2907963267948963
ODOM 904, 176, 2.3107963267948963
ODOM 903, 175, 2.3307963267948963
ODOM 902, 174, 2.3507963267948964
ODOM 902, 174, 2.3707963267948964
ODOM 901, 173, 2.3907963267948964
ODOM 900, 172, 2.4107963267948964
ODOM 899, 172, 2.4307963267948964
ODOM 899, 171, 2.4507963267948965
ODOM 898, 170, 2.4707963267948965
ODOM 897, 170, 2.4907963267948965
ODOM 896, 169, 2.5107963267948965
ODOM 895, 169, 2.5307963267948965
ODOM 895, 168, 2.5507963267948965
ODOM 894, 167, 2.5707963267948966
ODOM 893, 167, 2.5907963267948966
ODOM 892, 166, 2.6107963267948966
ODOM 891, 166, 2.6307963267948966
ODOM 890, 165, 2.6507963267948966
ODOM 889, 165, 2.6707963267948966
ODOM 889, 165, 2.6707963267948966
ODOM 888, 164, 2.6707963267948966
ODOM 887, 164, 2.6707963267948966
ODOM 886, 163, 2.6707963267948966
ODOM 885, 163, 2.6707963267948966
ODOM 884, 162, 2.6707963267948966
ODOM 883, 162, 2.6707963267948966
ODOM 882, 161, 2.6707963267948966
ODOM 881, 161, 2.6707963267948966
ODOM 881, 160, 2.6707963267948966
ODOM 880, 160, 2.6707963267948966
ODOM 879, 160, 2.6707963267948966
ODOM 878, 159, 2.6707963267948966
ODOM 877, 159, 2.6707963267948966
ODOM 876, 158, 2.6707963267948966
ODOM 875, 158, 2.6707963267948966
ODOM 874, 157, 2.6707963267948966
ODOM 873, 157, 2.6707963267948966
ODOM 872, 156, 2.6707963267948966
ODOM 872, 156, 2.6707963267948966
ODOM 871, 155, 2.6707963267948966
ODOM 870, 155, 2.6707963267948966
ODOM 869, 155, 2.6707963267948966
ODOM 868, 154, 2.6707963267948966
ODOM 867, 154, 2.6707963267948966
ODOM 866, 153, 2.6707963267948966
ODOM 865, 153, 2.6707963267948966
ODOM 864, 152, 2.6707963267948966
ODOM 864, 152, 2.6707963267948966
ODOM 863, 151, 2.6707963267948966
ODOM 862, 151, 2.6707963267948966
ODOM 861, 150, 2.6707963267948966
ODOM 860, 150, 2.6707963267948966
ODOM 859, 150, 2.6707963267948966
ODOM 858, 149, 2.6707963267948966
ODOM 857, 149, 2.6707963267948966
ODOM 856, 148, 2.6707963267948966
ODOM 856, 148, 2.6707963267948966
ODOM 855, 147, 2.6707963267948966
ODOM 854, 147, 2.6707963267948966
ODOM 853, 146, 2.6707963267948966
ODOM 852, 146, 2.6707963267948966
ODOM 851, 145, 2.6707963267948966
ODOM 850, 145, 2.6707963267948966
ODOM 849, 145, 2.6707963267948966
ODOM 848, 144, 2.6707963267948966
ODOM 848, 144, 2.6707963267948966
ODOM 847, 143, 2.6707963267948966
ODOM 846, 143, 2.6707963267948966
ODOM 845, 142, 2.6907963267948967
ODOM 844, 142, 2.7107963267948967
ODOM 843, 141, 2.7307963267948967
ODOM 842, 141, 2.7507963267948967
ODOM 841, 141, 2.7707963267948967
ODOM 840, 140, 2.7907963267948968
ODOM 839, 140, 2.8107963267948968
ODOM 838, 140, 2.830796326794897
ODOM 837, 139, 2.850796326794897
ODOM 836, 139, 2.870796326794897
ODOM 835, 139, 2.890796326794897
ODOM 835, 139, 2.910796326794897
ODOM 834, 138, 2.930796326794897
ODOM 833, 138, 2.950796326794897
ODOM 832, 138, 2.970796326794897
ODOM 831, 138, 2.990796326794897
ODOM 830, 138, 3.010796326794897
ODOM 829, 138, 3.030796326794897
ODOM 828, 138, 3.050796326794897
ODOM 827, 137, 3.070796326794897
ODOM 826, 137, 3.090796326794897
ODOM 825, 137, 3.110796326794897
ODOM 824, 137, 3.130796326794897
ODOM 823, 137, -3.1323889803846896
ODOM 822, 137, -3.1123889803846896
ODOM 821, 137, -3.0923889803846896
ODOM 820, 137, -3.0723889803846895
ODOM 819, 138, -3.0523889803846895
ODOM 818, 138, -3.0323889803846895
ODOM 817, 138, -3.0123889803846895
ODOM 816, 138, -2.9923889803846895
ODOM 815, 138, -2.9723889803846895
ODOM 814, 138, -2.9523889803846894
ODOM 813, 138, -2.9323889803846894
ODOM 812, 139, -2.9123889803846894
ODOM 811, 139, -2.8923889803846894
ODOM 810, 139, -2.8723889803846894
ODOM 809, 139, -2.8523889803846894
ODOM 808, 140, -2.8323889803846893
ODOM 807, 140, -2.8123889803846893
ODOM 806, 140, -2.7923889803846893
ODOM 805, 141, -2.7723889803846893
ODOM 804, 141, -2.7523889803846893
ODOM 803, 141, -2.7323889803846892
ODOM 802, 142, -2.7123889803846892
ODOM 801, 142, -2.692388980384689
ODOM 800, 143, -2.672388980384689
ODOM 800, 143, -2.652388980384689
ODOM 799, 144, -2.632388980384689
ODOM 798, 144, -2.612388980384689
ODOM 797, 145, -2.592388980384689
ODOM 796, 145, -2.572388980384689
ODOM 795, 146, -2.552388980384689
ODOM 794, 146, -2.532388980384689
ODOM 794, 147, -2.512388980384689
ODOM 793, 147, -2.492388980384689
ODOM 792, 148, -2.472388980384689
ODOM 791, 149, -2.452388980384689
ODOM 791, 149, -2.432388980384689
ODOM 790, 150, -2.412388980384689
ODOM 789, 151, -2.392388980384689
ODOM 788, 151, -2.372388980384689
ODOM 788, 152, -2.352388980384689
ODOM 787, 153, -2.332388980384689
ODOM 786, 154, -2.312388980384689
ODOM 786, 154, -2.292388980384689
ODOM 785, 155, -2.272388980384689
ODOM 784, 156, -2.252388980384689
ODOM 784, 157, -2.232388980384689
ODOM 783, 157, -2.212388980384689
ODOM 782, 158, -2.1923889803846888
ODOM 782, 159, -2.1723889803846888
ODOM 781, 160, -2.1523889803846887
ODOM 781, 161, -2.1323889803846887
ODOM 780, 162, -2.1123889803846887
ODOM 780, 162, -2.0923889803846887
ODOM 779, 163, -2.0723889803846887
ODOM 779, 164, -2.0523889803846886
ODOM 778, 165, -2.0323889803846886
ODOM 778, 166, -2.0123889803846886
ODOM 777, 167, -1.9923889803846886
ODOM 777, 168, -1.9723889803846886
ODOM 777, 169, -1.9523889803846886
ODOM 776, 170, -1.9323889803846885
ODOM 776, 171, -1.9123889803846885
ODOM 776, 172, -1.8923889803846885
ODOM 775, 172, -1.8723889803846885
ODOM 775, 173, -1.8523889803846885
ODOM 775, 174, -1.8323889803846884
ODOM 775, 175, -1.8123889803846884
ODOM 774, 176, -1.7923889803846884
ODOM 774, 177, -1.7723889803846884
ODOM 774, 178, -1.7523889803846884
ODOM 774, 179, -1.7323889803846884
ODOM 774, 180, -1.7123889803846883
ODOM 773, 181, -1.6923889803846883
ODOM 773, 182, -1.6723889803846883
ODOM 773, 183, -1.6523889803846883
ODOM 773, 184, -1.6323889803846883
ODOM 773, 185, -1.6123889803846883
ODOM 773, 186, -1.5923889803846882
ODOM 773, 187, -1.5723889803846882
ODOM 773, 188, -1.5523889803846882
ODOM 773, 189, -1.5323889803846882
ODOM 773, 190, -1.5123889803846882
ODOM 773, 191, -1.4923889803846881
ODOM 773, 192, -1.4723889803846881
ODOM 773, 193, -1.452388980384688
ODOM 774, 194, -1.432388980384688
ODOM 774, 195, -1.412388980384688
ODOM 774, 196, -1.392388980384688
ODOM 774, 197, -1.372388980384688
ODOM 774, 198, -1.352388980384688
ODOM 774, 199, -1.332388980384688
ODOM 775, 200, -1.312388980384688
ODOM 775, 201, -1.292388980384688
ODOM 775, 202, -1.272388980384688
ODOM 776, 203, -1.252388980384688
ODOM 776, 204, -1.232388980384688
ODOM 776, 205, -1.212388980384688
ODOM 777, 206, -1.1923889803846879
ODOM 777, 207, -1.1723889803846879
ODOM 777, 208, -1.1523889803846878
ODOM 778, 209, -1.1323889803846878
ODOM 778, 209, -1.1123889803846878
ODOM 779, 210, -1.0923889803846878
ODOM 779, 211, -1.0723889803846878
ODOM 780, 212, -1.0523889803846878
ODOM 780, 213, -1.0323889803846877
ODOM 781, 214, -1.0123889803846877
ODOM 781, 215, -0.9923889803846877
ODOM 782, 215, -0.9723889803846877
ODOM 782, 216, -0.9523889803846877
ODOM 783, 217, -0.9323889803846876
ODOM 784, 218, -0.9123889803846876
ODOM 784, 219, -0.8923889803846876
ODOM 785, 219, -0.8723889803846876
ODOM 785, 220, -0.8523889803846876
ODOM 786, 221, -0.8323889803846876
ODOM 787, 222, -0.8323889803846876
ODOM 787, 222, -0.8323889803846876
ODOM 788, 223, -0.8323889803846876
ODOM 789, 224, -0.8323889803846876
ODOM 789, 225, -0.8323889803846876
ODOM 790, 225, -0.8323889803846876
ODOM 791, 226, -0.8323889803846876
ODOM 791, 227, -0.8323889803846876
ODOM 792, 228, -0.8523889803846876
ODOM 793, 228, -0.8723889803846876
ODOM 793, 229, -0.8923889803846876
ODOM 794, 230, -0.9123889803846876
ODOM 795, 231, -0.9323889803846876
ODOM 795, 232, -0.9523889803846877
ODOM 796, 232, -0.9723889803846877
ODOM 796, 233, -0.9923889803846877
ODOM 797, 234, -1.0123889803846877
ODOM 797, 235, -1.0323889803846877
ODOM 798, 236, -1.0523889803846878
ODOM 798, 237, -1.0723889803846878
ODOM 799, 238, -1.0923889803846878
ODOM 799, 238, -1.1123889803846878
ODOM 800, 239, -1.1323889803846878
ODOM 800, 240, -1.1523889803846878
ODOM 801, 241, -1.1723889803846879
ODOM 801, 242, -1.1923889803846879
ODOM 801, 243, -1.212388980384688
ODOM 802, 244, -1.232388980384688
ODOM 802, 245, -1.252388980384688
ODOM 802, 246, -1.272388980384688
ODOM 803, 247, -1.292388980384688
ODOM 803, 248, -1.312388980384688
ODOM 803, 249, -1.332388980384688
ODOM 803, 250, -1.352388980384688
ODOM 804, 251, -1.372388980384688
ODOM 804, 252, -1.392388980384688
ODOM 804, 253, -1.412388980384688
ODOM 804, 254, -1.432388980384688
ODOM 804, 255, -1.452388980384688
ODOM 804, 256, -1.4723889803846881
ODOM 804, 257, -1.4923889803846881
ODOM 804, 258, -1.5123889803846882
ODOM 804, 259, -1.5323889803846882
