ODOM  50.000  805.000  1.571  0.000  0.000 0  1735634756.925 iRoC  0.010
ODOM  50.000  805.000  1.571  0.000  0.000 0  1735634756.935 iRoC  0.020
ODOM  50.000  805.000  1.571  0.000  0.000 0  1735634756.945 iRoC  0.030
ODOM  50.000  805.000  1.571  0.000  0.000 0  1735634756.955 iRoC  0.040
ODOM  50.000  805.000  1.571  0.000  0.000 0  1735634756.965 iRoC  0.050
ODOM  50.000  805.000  1.571  0.000  0.000 0  1735634756.975 iRoC  0.060
ODOM  50.000  805.000  1.571  0.000  0.000 0  1735634756.985 iRoC  0.070
ODOM  50.000  805.000  1.571  0.000  0.000 0  1735634756.995 iRoC  0.080
ODOM  50.000  805.000  1.571  0.000  0.000 0  1735634757.005 iRoC  0.090
ODOM  50.000  805.000  1.571  0.000  0.000 0  1735634757.015 iRoC  0.100
ODOM  50.000  805.000  1.571  0.000  0.000 0  1735634757.025 iRoC  0.110
ODOM  50.000  805.000  1.571  0.000  0.000 0  1735634757.035 iRoC  0.120
ODOM  50.000  805.000  1.571  0.000  0.000 0  1735634757.045 iRoC  0.130
ODOM  50.000  805.000  1.571  0.000  0.000 0  1735634757.055 iRoC  0.140
ODOM  50.000  805.000  1.571  0.000  0.000 0  1735634757.065 iRoC  0.150
ODOM  50.000  805.000  1.571  0.000  0.000 0  1735634757.075 iRoC  0.160
ODOM  50.000  805.000  1.571  0.000  0.000 0  1735634757.085 iRoC  0.170
ODOM  50.000  805.000  1.571  0.000  0.000 0  1735634757.095 iRoC  0.180
ODOM  50.000  805.000  1.571  0.000  0.000 0  1735634757.105 iRoC  0.190
ODOM  50.000  805.000  1.571  0.000  0.000 0  1735634757.115 iRoC  0.200
ODOM  50.000  805.000  1.571  0.000  0.000 0  1735634757.125 iRoC  0.210
ODOM  50.000  805.000  1.571  0.000  0.000 0  1735634757.135 iRoC  0.220
ODOM  50.000  805.000  1.571  0.000  0.000 0  1735634757.145 iRoC  0.230
ODOM  50.000  805.000  1.571  0.000  0.000 0  1735634757.155 iRoC  0.240
ODOM  50.000  805.000  1.571  0.000  0.000 0  1735634757.165 iRoC  0.250
ODOM  50.000  805.000  1.571  0.000  0.000 0  1735634757.175 iRoC  0.260
ODOM  50.000  805.000  1.571  0.000  0.000 0  1735634757.185 iRoC  0.270
ODOM  50.000  805.000  1.571  0.000  0.000 0  1735634757.195 iRoC  0.280
ODOM  50.000  805.000  1.571  0.000  0.000 0  1735634757.205 iRoC  0.290
ODOM  50.000  805.000  1.571  0.000  0.000 0  1735634757.215 iRoC  0.300
ODOM  50.000  805.000  1.571  0.000  0.000 0  1735634757.225 iRoC  0.310
ODOM  50.000  805.000  1.571  0.000  0.000 0  1735634757.235 iRoC  0.320
ODOM  50.000  805.000  1.571  0.000  0.000 0  1735634757.245 iRoC  0.330
ODOM  50.000  805.000  1.571  0.000  0.000 0  1735634757.255 iRoC  0.340
ODOM  50.000  805.000  1.571  0.000  0.000 0  1735634757.265 iRoC  0.350
ODOM  50.000  805.000  1.571  0.000  0.000 0  1735634757.275 iRoC  0.360
ODOM  50.000  805.000  1.571  0.000  0.000 0  1735634757.285 iRoC  0.370
ODOM  50.000  805.000  1.571  0.000  0.000 0  1735634757.295 iRoC  0.380
ODOM  50.000  805.000  1.571  0.000  0.000 0  1735634757.305 iRoC  0.390
ODOM  50.000  805.000  1.571  0.000  0.000 0  1735634757.315 iRoC  0.400
ODOM  50.000  805.000  1.571  0.000  0.000 0  1735634757.325 iRoC  0.410
ODOM  50.000  805.000  1.571  0.000  0.000 0  1735634757.335 iRoC  0.420
ODOM  50.000  805.000  1.571  0.000  0.000 0  1735634757.345 iRoC  0.430
ODOM  50.000  805.000  1.571  0.000  0.000 0  1735634757.355 iRoC  0.440
ODOM  50.000  805.000  1.571  0.000  0.000 0  1735634757.365 iRoC  0.450
ODOM  50.000  805.000  1.571  0.000  0.000 0  1735634757.375 iRoC  0.460
ODOM  50.000  805.000  1.571  0.000  0.000 0  1735634757.385 iRoC  0.470
ODOM  50.000  805.000  1.571  0.000  0.000 0  1735634757.395 iRoC  0.480
ODOM  50.000  805.000  1.571  0.000  0.000 0  1735634757.405 iRoC  0.490
ODOM  50.000  805.000  1.571  0.000  0.000 0  1735634757.415 iRoC  0.500
ODOM  50.000  805.000  1.571  0.000  0.000 0  1735634757.425 iRoC  0.510
ODOM  50.000  805.000  1.571  0.000  0.000 0  1735634757.435 iRoC  0.520
ODOM  50.000  805.000  1.571  0.000  0.000 0  1735634757.445 iRoC  0.530
ODOM  50.000  805.000  1.571  0.000  0.000 0  1735634757.455 iRoC  0.540
ODOM  50.000  805.000  1.571  0.000  0.000 0  1735634757.465 iRoC  0.550
ODOM  50.000  805.000  1.571  0.000  0.000 0  1735634757.475 iRoC  0.560
ODOM  50.000  805.000  1.571  0.000  0.000 0  1735634757.485 iRoC  0.570
ODOM  50.000  805.000  1.571  0.000  0.000 0  1735634757.495 iRoC  0.580
ODOM  50.000  805.000  1.571  0.000  0.000 0  1735634757.505 iRoC  0.590
ODOM  50.000  805.000  1.571  0.000  0.000 0  1735634757.515 iRoC  0.600
ODOM  50.000  805.000  1.571  0.000  0.000 0  1735634757.525 iRoC  0.610
ODOM  50.000  805.000  1.571  0.000  0.000 0  1735634757.535 iRoC  0.620
ODOM  50.000  805.000  1.571  0.000  0.000 0  1735634757.545 iRoC  0.630
ODOM  50.000  805.000  1.571  0.000  0.000 0  1735634757.555 iRoC  0.640
ODOM  50.000  805.000  1.571  0.000  0.000 0  1735634757.565 iRoC  0.650
ODOM  50.000  805.000  1.571  0.000  0.000 0  1735634757.575 iRoC  0.660
ODOM  50.000  805.000  1.571  0.000  0.000 0  1735634757.585 iRoC  0.670
ODOM  50.000  805.000  1.571  0.000  0.000 0  1735634757.595 iRoC  0.680
ODOM  50.000  805.000  1.571  0.000  0.000 0  1735634757.605 iRoC  0.690
ODOM  50.000  805.000  1.571  0.000  0.000 0  1735634757.615 iRoC  0.700
ODOM  50.000  805.000  1.571  0.000  0.000 0  1735634757.625 iRoC  0.710
ODOM  50.000  805.000  1.571  0.000  0.000 0  1735634757.635 iRoC  0.720
ODOM  50.000  805.000  1.571  0.000  0.000 0  1735634757.645 iRoC  0.730
ODOM  50.000  805.000  1.571  0.000  0.000 0  1735634757.655 iRoC  0.740
ODOM  50.000  805.000  1.571  0.000  0.000 0  1735634757.665 iRoC  0.750
ODOM  50.000  805.000  1.571  0.000  0.000 0  1735634757.675 iRoC  0.760
ODOM  50.000  805.000  1.571  0.000  0.000 0  1735634757.685 iRoC  0.770
ODOM  50.000  805.000  1.571  0.000  0.000 0  1735634757.695 iRoC  0.780
ODOM  50.000  805.000  1.571  0.000  0.000 0  1735634757.705 iRoC  0.790
ODOM  50.000  805.000  1.571  0.000  0.000 0  1735634757.715 iRoC  0.800
ODOM  50.000  805.000  1.571  0.000  0.000 0  1735634757.725 iRoC  0.810
ODOM  50.000  805.000  1.571  0.000  0.000 0  1735634757.735 iRoC  0.820
ODOM  50.000  805.000  1.571  0.000  0.000 0  1735634757.745 iRoC  0.830
ODOM  50.000  805.000  1.571  0.000  0.000 0  1735634757.755 iRoC  0.840
ODOM  50.000  805.000  1.571  0.000  0.000 0  1735634757.765 iRoC  0.850
ODOM  50.000  805.000  1.571  0.000  0.000 0  1735634757.775 iRoC  0.860
ODOM  50.000  805.000  1.571  0.000  0.000 0  1735634757.785 iRoC  0.870
ODOM  50.000  805.000  1.571  0.000  0.000 0  1735634757.795 iRoC  0.880
ODOM  50.000  805.000  1.571  0.000  0.000 0  1735634757.805 iRoC  0.890
ODOM  50.000  805.000  1.571  0.000  0.000 0  1735634757.815 iRoC  0.900
ODOM  50.000  805.000  1.571  0.000  0.000 0  1735634757.825 iRoC  0.910
ODOM  50.000  805.000  1.571  0.000  0.000 0  1735634757.835 iRoC  0.920
ODOM  50.000  805.000  1.571  0.000  0.000 0  1735634757.845 iRoC  0.930
ODOM  50.000  805.000  1.571  0.000  0.000 0  1735634757.855 iRoC  0.940
ODOM  50.000  805.000  1.571  0.000  0.000 0  1735634757.865 iRoC  0.950
ODOM  50.000  805.000  1.571  0.000  0.000 0  1735634757.875 iRoC  0.960
ODOM  50.000  805.000  1.571  0.000  0.000 0  1735634757.885 iRoC  0.970
ODOM  50.000  805.000  1.571  0.000  0.000 0  1735634757.895 iRoC  0.980
ODOM  50.000  805.000  1.571  0.000  0.000 0  1735634757.905 iRoC  0.990
ODOM  50.000  805.000  1.571  0.000  0.000 0  1735634757.915 iRoC  1.000
ODOM  50.000  805.000  1.571  0.000  0.000 0  1735634757.925 iRoC  1.010
ODOM  50.000  805.000  1.571  0.000  0.000 0  1735634757.935 iRoC  1.020
ODOM  50.000  805.000  1.571  0.000  0.000 0  1735634757.945 iRoC  1.030
ODOM  50.000  805.000  1.571  0.000  0.000 0  1735634757.955 iRoC  1.040
ODOM  50.000  805.000  1.571  0.000  0.000 0  1735634757.965 iRoC  1.050
ODOM  50.000  805.000  1.571  0.000  0.000 0  1735634757.975 iRoC  1.060
ODOM  50.000  805.000  1.571  0.000  0.000 0  1735634757.985 iRoC  1.070
ODOM  50.000  805.000  1.571  0.000  0.000 0  1735634757.995 iRoC  1.080
ODOM  50.000  805.000  1.571  0.000  0.000 0  1735634758.005 iRoC  1.090
ODOM  50.000  805.000  1.571  0.000  0.000 0  1735634758.015 iRoC  1.100
ODOM  50.000  805.000  1.571  0.000  0.000 0  1735634758.025 iRoC  1.110
ODOM  50.000  805.000  1.571  0.000  0.000 0  1735634758.035 iRoC  1.120
ODOM  50.000  805.000  1.571  0.000  0.000 0  1735634758.045 iRoC  1.130
ODOM  50.000  805.000  1.571  0.000  0.000 0  1735634758.055 iRoC  1.140
ODOM  50.000  805.000  1.571  0.000  0.000 0  1735634758.065 iRoC  1.150
ODOM  50.000  805.000  1.571  0.000  0.000 0  1735634758.075 iRoC  1.160
ODOM  50.000  805.000  1.571  0.000  0.000 0  1735634758.085 iRoC  1.170
ODOM  50.000  805.000  1.571  0.000  0.000 0  1735634758.095 iRoC  1.180
ODOM  50.000  805.000  1.571  0.000  0.000 0  1735634758.105 iRoC  1.190
ODOM  50.000  805.000  1.571  0.000  0.000 0  1735634758.115 iRoC  1.200
ODOM  50.000  805.000  1.571  0.000  0.000 0  1735634758.125 iRoC  1.210
ODOM  50.000  805.000  1.571  0.000  0.000 0  1735634758.135 iRoC  1.220
ODOM  50.000  805.000  1.571  0.000  0.000 0  1735634758.145 iRoC  1.230
ODOM  50.000  805.000  1.571  0.000  0.000 0  1735634758.155 iRoC  1.240
ODOM  50.000  805.000  1.571  0.000  0.000 0  1735634758.165 iRoC  1.250
ODOM  50.000  805.000  1.571  0.000  0.000 0  1735634758.175 iRoC  1.260
ODOM  50.000  805.000  1.571  0.000  0.000 0  1735634758.185 iRoC  1.270
ODOM  50.000  805.000  1.571  0.000  0.000 0  1735634758.195 iRoC  1.280
ODOM  50.000  805.000  1.571  0.000  0.000 0  1735634758.205 iRoC  1.290
ODOM  50.000  805.000  1.571  0.000  0.000 0  1735634758.215 iRoC  1.300
ODOM  50.000  805.000  1.571  0.000  0.000 0  1735634758.225 iRoC  1.310
ODOM  50.000  805.000  1.571  0.000  0.000 0  1735634758.235 iRoC  1.320
ODOM  50.000  805.000  1.571  0.000  0.000 0  1735634758.245 iRoC  1.330
ODOM  50.000  805.000  1.571  0.000  0.000 0  1735634758.255 iRoC  1.340
ODOM  50.000  805.000  1.571  0.000  0.000 0  1735634758.265 iRoC  1.350
ODOM  50.000  805.000  1.571  0.000  0.000 0  1735634758.275 iRoC  1.360
ODOM  50.000  805.000  1.571  0.000  0.000 0  1735634758.285 iRoC  1.370
ODOM  50.000  805.000  1.571  0.000  0.000 0  1735634758.295 iRoC  1.380
ODOM  50.000  805.000  1.571  0.000  0.000 0  1735634758.305 iRoC  1.390
ODOM  50.000  805.000  1.571  0.000  0.000 0  1735634758.315 iRoC  1.400
ODOM  50.000  805.000  1.571  0.000  0.000 0  1735634758.325 iRoC  1.410
ODOM  50.000  805.000  1.571  0.000  0.000 0  1735634758.335 iRoC  1.420
ODOM  50.000  805.000  1.571  0.000  0.000 0  1735634758.345 iRoC  1.430
ODOM  50.000  805.000  1.571  0.000  0.000 0  1735634758.355 iRoC  1.440
ODOM  50.000  805.000  1.571  0.000  0.000 0  1735634758.365 iRoC  1.450
ODOM  50.000  805.000  1.571  0.000  0.000 0  1735634758.375 iRoC  1.460
ODOM  50.000  805.000  1.571  0.000  0.000 0  1735634758.385 iRoC  1.470
ODOM  50.000  805.000  1.571  0.000  0.000 0  1735634758.395 iRoC  1.480
ODOM  50.000  805.000  1.571  0.000  0.000 0  1735634758.405 iRoC  1.490
ODOM  50.000  805.000  1.571  0.000  0.000 0  1735634758.415 iRoC  1.500
ODOM  50.000  805.000  1.571  0.000  0.000 0  1735634758.425 iRoC  1.510
ODOM  50.000  805.000  1.571  0.000  0.000 0  1735634758.435 iRoC  1.520
ODOM  50.000  805.000  1.571  0.000  0.000 0  1735634758.445 iRoC  1.530
ODOM  50.000  805.000  1.571  0.000  0.000 0  1735634758.455 iRoC  1.540
ODOM  50.000  805.000  1.571  0.000  0.000 0  1735634758.465 iRoC  1.550
ODOM  50.000  805.000  1.571  0.000  0.000 0  1735634758.475 iRoC  1.560
ODOM  50.000  805.000  1.571  0.000  0.000 0  1735634758.485 iRoC  1.570
ODOM  50.000  805.000  1.571  0.000  0.000 0  1735634758.495 iRoC  1.580
ODOM  50.000  805.000  1.571  0.000  0.000 0  1735634758.505 iRoC  1.590
ODOM  50.000  805.000  1.571  0.000  0.000 0  1735634758.515 iRoC  1.600
ODOM  50.000  804.000  1.571  2.000  0.000 0  1735634758.525 iRoC  1.610
ODOM  50.000  803.000  1.571  2.000  0.000 0  1735634758.535 iRoC  1.620
ODOM  50.000  802.000  1.571  2.000  0.000 0  1735634758.545 iRoC  1.630
ODOM  50.000  801.000  1.571  2.000  0.000 0  1735634758.555 iRoC  1.640
ODOM  50.000  800.000  1.571  2.000  0.000 0  1735634758.565 iRoC  1.650
ODOM  50.000  799.000  1.571  2.000  0.000 0  1735634758.575 iRoC  1.660
ODOM  50.000  798.000  1.571  2.000  0.000 0  1735634758.585 iRoC  1.670
ODOM  50.000  797.000  1.571  2.000  0.000 0  1735634758.595 iRoC  1.680
ODOM  50.000  796.000  1.571  2.000  0.000 0  1735634758.605 iRoC  1.690
ODOM  50.000  795.000  1.571  2.000  0.000 0  1735634758.615 iRoC  1.700
ODOM  50.000  794.000  1.571  2.000  0.000 0  1735634758.625 iRoC  1.710
ODOM  50.000  793.000  1.571  2.000  0.000 0  1735634758.635 iRoC  1.720
ODOM  50.000  792.000  1.571  2.000  0.000 0  1735634758.645 iRoC  1.730
ODOM  50.000  791.000  1.571  2.000  0.000 0  1735634758.655 iRoC  1.740
ODOM  50.000  790.000  1.571  2.000  0.000 0  1735634758.665 iRoC  1.750
ODOM  50.000  789.000  1.571  2.000  0.000 0  1735634758.675 iRoC  1.760
ODOM  50.000  788.000  1.571  2.000  0.000 0  1735634758.685 iRoC  1.770
ODOM  50.000  787.000  1.571  2.000  0.000 0  1735634758.695 iRoC  1.780
ODOM  50.000  786.000  1.571  2.000  0.000 0  1735634758.705 iRoC  1.790
ODOM  50.000  785.000  1.571  2.000  0.000 0  1735634758.715 iRoC  1.800
ODOM  50.000  784.000  1.551  2.000 -2.000 0  1735634758.725 iRoC  1.810
ODOM  50.000  783.000  1.531  2.000 -2.000 0  1735634758.735 iRoC  1.820
ODOM  50.000  782.000  1.511  2.000 -2.000 0  1735634758.745 iRoC  1.830
ODOM  50.000  781.000  1.491  2.000 -2.000 0  1735634758.755 iRoC  1.840
ODOM  50.000  780.000  1.471  2.000 -2.000 0  1735634758.765 iRoC  1.850
ODOM  50.000  779.000  1.451  2.000 -2.000 0  1735634758.775 iRoC  1.860
ODOM  50.000  778.000  1.431  2.000 -2.000 0  1735634758.785 iRoC  1.870
ODOM  50.000  777.000  1.411  2.000 -2.000 0  1735634758.795 iRoC  1.880
ODOM  50.000  776.000  1.391  2.000 -2.000 0  1735634758.805 iRoC  1.890
ODOM  50.000  775.000  1.371  2.000 -2.000 0  1735634758.815 iRoC  1.900
ODOM  51.000  774.000  1.351  2.000 -2.000 0  1735634758.825 iRoC  1.910
ODOM  51.000  773.000  1.331  2.000 -2.000 0  1735634758.835 iRoC  1.920
ODOM  51.000  772.000  1.311  2.000 -2.000 0  1735634758.845 iRoC  1.930
ODOM  51.000  771.000  1.291  2.000 -2.000 0  1735634758.855 iRoC  1.940
ODOM  52.000  770.000  1.271  2.000 -2.000 0  1735634758.865 iRoC  1.950
ODOM  52.000  769.000  1.251  2.000 -2.000 0  1735634758.875 iRoC  1.960
ODOM  52.000  768.000  1.231  2.000 -2.000 0  1735634758.885 iRoC  1.970
ODOM  53.000  767.000  1.211  2.000 -2.000 0  1735634758.895 iRoC  1.980
ODOM  53.000  766.000  1.191  2.000 -2.000 0  1735634758.905 iRoC  1.990
ODOM  53.000  765.000  1.171  2.000 -2.000 0  1735634758.915 iRoC  2.000
ODOM  54.000  764.000  1.151  2.000 -2.000 0  1735634758.925 iRoC  2.010
ODOM  54.000  763.000  1.131  2.000 -2.000 0  1735634758.935 iRoC  2.020
ODOM  55.000  762.000  1.111  2.000 -2.000 0  1735634758.945 iRoC  2.030
ODOM  55.000  761.000  1.091  2.000 -2.000 0  1735634758.955 iRoC  2.040
ODOM  56.000  761.000  1.071  2.000 -2.000 0  1735634758.965 iRoC  2.050
ODOM  56.000  760.000  1.051  2.000 -2.000 0  1735634758.975 iRoC  2.060
ODOM  57.000  759.000  1.031  2.000 -2.000 0  1735634758.985 iRoC  2.070
ODOM  57.000  758.000  1.011  2.000 -2.000 0  1735634758.995 iRoC  2.080
ODOM  58.000  757.000  0.991  2.000 -2.000 0  1735634759.005 iRoC  2.090
ODOM  58.000  756.000  0.971  2.000 -2.000 0  1735634759.015 iRoC  2.100
ODOM  59.000  755.000  0.951  2.000 -2.000 0  1735634759.025 iRoC  2.110
ODOM  59.000  755.000  0.931  2.000 -2.000 0  1735634759.035 iRoC  2.120
ODOM  60.000  754.000  0.911  2.000 -2.000 0  1735634759.045 iRoC  2.130
ODOM  61.000  753.000  0.891  2.000 -2.000 0  1735634759.055 iRoC  2.140
ODOM  61.000  752.000  0.871  2.000 -2.000 0  1735634759.065 iRoC  2.150
ODOM  62.000  752.000  0.851  2.000 -2.000 0  1735634759.075 iRoC  2.160
ODOM  63.000  751.000  0.831  2.000 -2.000 0  1735634759.085 iRoC  2.170
ODOM  63.000  750.000  0.811  2.000 -2.000 0  1735634759.095 iRoC  2.180
ODOM  64.000  749.000  0.791  2.000 -2.000 0  1735634759.105 iRoC  2.190
ODOM  65.000  749.000  0.771  2.000 -2.000 0  1735634759.115 iRoC  2.200
ODOM  65.000  748.000  0.751  2.000 -2.000 0  1735634759.125 iRoC  2.210
ODOM  66.000  747.000  0.731  2.000 -2.000 0  1735634759.135 iRoC  2.220
ODOM  67.000  747.000  0.711  2.000 -2.000 0  1735634759.145 iRoC  2.230
ODOM  68.000  746.000  0.691  2.000 -2.000 0  1735634759.155 iRoC  2.240
ODOM  68.000  745.000  0.671  2.000 -2.000 0  1735634759.165 iRoC  2.250
ODOM  69.000  745.000  0.651  2.000 -2.000 0  1735634759.175 iRoC  2.260
ODOM  70.000  744.000  0.631  2.000 -2.000 0  1735634759.185 iRoC  2.270
ODOM  71.000  744.000  0.611  2.000 -2.000 0  1735634759.195 iRoC  2.280
ODOM  72.000  743.000  0.591  2.000 -2.000 0  1735634759.205 iRoC  2.290
ODOM  72.000  742.000  0.571  2.000 -2.000 0  1735634759.215 iRoC  2.300
ODOM  73.000  742.000  0.551  2.000 -2.000 0  1735634759.225 iRoC  2.310
ODOM  74.000  741.000  0.531  2.000 -2.000 0  1735634759.235 iRoC  2.320
ODOM  75.000  741.000  0.511  2.000 -2.000 0  1735634759.245 iRoC  2.330
ODOM  76.000  740.000  0.491  2.000 -2.000 0  1735634759.255 iRoC  2.340
ODOM  77.000  740.000  0.471  2.000 -2.000 0  1735634759.265 iRoC  2.350
ODOM  78.000  739.000  0.451  2.000 -2.000 0  1735634759.275 iRoC  2.360
ODOM  79.000  739.000  0.431  2.000 -2.000 0  1735634759.285 iRoC  2.370
ODOM  80.000  739.000  0.411  2.000 -2.000 0  1735634759.295 iRoC  2.380
ODOM  80.000  738.000  0.391  2.000 -2.000 0  1735634759.305 iRoC  2.390
ODOM  81.000  738.000  0.371  2.000 -2.000 0  1735634759.315 iRoC  2.400
ODOM  82.000  738.000  0.351  2.000 -2.000 0  1735634759.325 iRoC  2.410
ODOM  83.000  737.000  0.331  2.000 -2.000 0  1735634759.335 iRoC  2.420
ODOM  84.000  737.000  0.311  2.000 -2.000 0  1735634759.345 iRoC  2.430
ODOM  85.000  737.000  0.291  2.000 -2.000 0  1735634759.355 iRoC  2.440
ODOM  86.000  736.000  0.271  2.000 -2.000 0  1735634759.365 iRoC  2.450
ODOM  87.000  736.000  0.251  2.000 -2.000 0  1735634759.375 iRoC  2.460
ODOM  88.000  736.000  0.231  2.000 -2.000 0  1735634759.385 iRoC  2.470
ODOM  89.000  736.000  0.211  2.000 -2.000 0  1735634759.395 iRoC  2.480
ODOM  90.000  735.000  0.191  2.000 -2.000 0  1735634759.405 iRoC  2.490
ODOM  91.000  735.000  0.171  2.000 -2.000 0  1735634759.415 iRoC  2.500
ODOM  92.000  735.000  0.151  2.000 -2.000 0  1735634759.425 iRoC  2.510
ODOM  93.000  735.000  0.131  2.000 -2.000 0  1735634759.435 iRoC  2.520
ODOM  94.000  735.000  0.111  2.000 -2.000 0  1735634759.445 iRoC  2.530
ODOM  95.000  735.000  0.091  2.000 -2.000 0  1735634759.455 iRoC  2.540
ODOM  96.000  735.000  0.071  2.000 -2.000 0  1735634759.465 iRoC  2.550
ODOM  97.000  735.000  0.051  2.000 -2.000 0  1735634759.475 iRoC  2.560
ODOM  98.000  735.000  0.031  2.000 -2.000 0  1735634759.485 iRoC  2.570
ODOM  99.000  735.000  0.011  2.000 -2.000 0  1735634759.495 iRoC  2.580
ODOM  100.000  735.000 -0.009  2.000 -2.000 0  1735634759.505 iRoC  2.590
ODOM  101.000  735.000 -0.029  2.000 -2.000 0  1735634759.515 iRoC  2.600
ODOM  102.000  735.000 -0.029  2.000  0.000 0  1735634759.525 iRoC  2.610
ODOM  103.000  735.000 -0.029  2.000  0.000 0  1735634759.535 iRoC  2.620
ODOM  104.000  735.000 -0.029  2.000  0.000 0  1735634759.545 iRoC  2.630
ODOM  105.000  735.000 -0.029  2.000  0.000 0  1735634759.555 iRoC  2.640
ODOM  106.000  735.000 -0.029  2.000  0.000 0  1735634759.565 iRoC  2.650
ODOM  107.000  735.000 -0.029  2.000  0.000 0  1735634759.575 iRoC  2.660
ODOM  108.000  735.000 -0.029  2.000  0.000 0  1735634759.585 iRoC  2.670
ODOM  109.000  735.000 -0.029  2.000  0.000 0  1735634759.595 iRoC  2.680
ODOM  110.000  735.000 -0.029  2.000  0.000 0  1735634759.605 iRoC  2.690
ODOM  111.000  735.000 -0.029  2.000  0.000 0  1735634759.615 iRoC  2.700
ODOM  112.000  735.000 -0.029  2.000  0.000 0  1735634759.625 iRoC  2.710
ODOM  113.000  735.000 -0.029  2.000  0.000 0  1735634759.635 iRoC  2.720
ODOM  114.000  735.000 -0.029  2.000  0.000 0  1735634759.645 iRoC  2.730
ODOM  115.000  735.000 -0.029  2.000  0.000 0  1735634759.655 iRoC  2.740
ODOM  116.000  735.000 -0.029  2.000  0.000 0  1735634759.665 iRoC  2.750
ODOM  117.000  735.000 -0.029  2.000  0.000 0  1735634759.675 iRoC  2.760
ODOM  118.000  735.000 -0.029  2.000  0.000 0  1735634759.685 iRoC  2.770
ODOM  119.000  735.000 -0.029  2.000  0.000 0  1735634759.695 iRoC  2.780
ODOM  120.000  735.000 -0.029  2.000  0.000 0  1735634759.705 iRoC  2.790
ODOM  121.000  735.000 -0.029  2.000  0.000 0  1735634759.715 iRoC  2.800
ODOM  122.000  735.000 -0.029  2.000  0.000 0  1735634759.725 iRoC  2.810
ODOM  123.000  735.000 -0.029  2.000  0.000 0  1735634759.735 iRoC  2.820
ODOM  124.000  735.000 -0.029  2.000  0.000 0  1735634759.745 iRoC  2.830
ODOM  125.000  735.000 -0.029  2.000  0.000 0  1735634759.755 iRoC  2.840
ODOM  126.000  735.000 -0.029  2.000  0.000 0  1735634759.765 iRoC  2.850
ODOM  127.000  735.000 -0.029  2.000  0.000 0  1735634759.775 iRoC  2.860
ODOM  128.000  735.000 -0.029  2.000  0.000 0  1735634759.785 iRoC  2.870
ODOM  129.000  735.000 -0.029  2.000  0.000 0  1735634759.795 iRoC  2.880
ODOM  130.000  735.000 -0.029  2.000  0.000 0  1735634759.805 iRoC  2.890
ODOM  131.000  735.000 -0.029  2.000  0.000 0  1735634759.815 iRoC  2.900
ODOM  132.000  735.000 -0.029  2.000  0.000 0  1735634759.825 iRoC  2.910
ODOM  133.000  735.000 -0.029  2.000  0.000 0  1735634759.835 iRoC  2.920
ODOM  134.000  735.000 -0.029  2.000  0.000 0  1735634759.845 iRoC  2.930
ODOM  135.000  736.000 -0.029  2.000  0.000 0  1735634759.855 iRoC  2.940
ODOM  136.000  736.000 -0.029  2.000  0.000 0  1735634759.865 iRoC  2.950
ODOM  137.000  736.000 -0.029  2.000  0.000 0  1735634759.875 iRoC  2.960
ODOM  138.000  736.000 -0.029  2.000  0.000 0  1735634759.885 iRoC  2.970
ODOM  139.000  736.000 -0.029  2.000  0.000 0  1735634759.895 iRoC  2.980
ODOM  140.000  736.000 -0.029  2.000  0.000 0  1735634759.905 iRoC  2.990
ODOM  141.000  736.000 -0.029  2.000  0.000 0  1735634759.915 iRoC  3.000
ODOM  142.000  736.000 -0.029  2.000  0.000 0  1735634759.925 iRoC  3.010
ODOM  143.000  736.000 -0.029  2.000  0.000 0  1735634759.935 iRoC  3.020
ODOM  144.000  736.000 -0.029  2.000  0.000 0  1735634759.945 iRoC  3.030
ODOM  145.000  736.000 -0.029  2.000  0.000 0  1735634759.955 iRoC  3.040
ODOM  146.000  736.000 -0.029  2.000  0.000 0  1735634759.965 iRoC  3.050
ODOM  147.000  736.000 -0.029  2.000  0.000 0  1735634759.975 iRoC  3.060
ODOM  148.000  736.000 -0.029  2.000  0.000 0  1735634759.985 iRoC  3.070
ODOM  149.000  736.000 -0.029  2.000  0.000 0  1735634759.995 iRoC  3.080
ODOM  150.000  736.000 -0.029  2.000  0.000 0  1735634760.005 iRoC  3.090
ODOM  151.000  736.000 -0.029  2.000  0.000 0  1735634760.015 iRoC  3.100
ODOM  152.000  736.000 -0.029  2.000  0.000 0  1735634760.025 iRoC  3.110
ODOM  153.000  736.000 -0.029  2.000  0.000 0  1735634760.035 iRoC  3.120
ODOM  154.000  736.000 -0.029  2.000  0.000 0  1735634760.045 iRoC  3.130
ODOM  155.000  736.000 -0.029  2.000  0.000 0  1735634760.055 iRoC  3.140
ODOM  156.000  736.000 -0.029  2.000  0.000 0  1735634760.065 iRoC  3.150
ODOM  157.000  736.000 -0.029  2.000  0.000 0  1735634760.075 iRoC  3.160
ODOM  158.000  736.000 -0.029  2.000  0.000 0  1735634760.085 iRoC  3.170
ODOM  159.000  736.000 -0.029  2.000  0.000 0  1735634760.095 iRoC  3.180
ODOM  160.000  736.000 -0.029  2.000  0.000 0  1735634760.105 iRoC  3.190
ODOM  161.000  736.000 -0.029  2.000  0.000 0  1735634760.115 iRoC  3.200
ODOM  162.000  736.000 -0.029  2.000  0.000 0  1735634760.125 iRoC  3.210
ODOM  163.000  736.000 -0.029  2.000  0.000 0  1735634760.135 iRoC  3.220
ODOM  164.000  736.000 -0.029  2.000  0.000 0  1735634760.145 iRoC  3.230
ODOM  165.000  736.000 -0.029  2.000  0.000 0  1735634760.155 iRoC  3.240
ODOM  166.000  736.000 -0.029  2.000  0.000 0  1735634760.165 iRoC  3.250
ODOM  167.000  736.000 -0.029  2.000  0.000 0  1735634760.175 iRoC  3.260
ODOM  168.000  736.000 -0.029  2.000  0.000 0  1735634760.185 iRoC  3.270
ODOM  169.000  737.000 -0.029  2.000  0.000 0  1735634760.195 iRoC  3.280
ODOM  170.000  737.000 -0.029  2.000  0.000 0  1735634760.205 iRoC  3.290
ODOM  171.000  737.000 -0.029  2.000  0.000 0  1735634760.215 iRoC  3.300
ODOM  172.000  737.000 -0.029  2.000  0.000 0  1735634760.225 iRoC  3.310
ODOM  173.000  737.000 -0.029  2.000  0.000 0  1735634760.235 iRoC  3.320
ODOM  174.000  737.000 -0.029  2.000  0.000 0  1735634760.245 iRoC  3.330
ODOM  175.000  737.000 -0.029  2.000  0.000 0  1735634760.255 iRoC  3.340
ODOM  176.000  737.000 -0.029  2.000  0.000 0  1735634760.265 iRoC  3.350
ODOM  177.000  737.000 -0.029  2.000  0.000 0  1735634760.275 iRoC  3.360
ODOM  178.000  737.000 -0.029  2.000  0.000 0  1735634760.285 iRoC  3.370
ODOM  179.000  737.000 -0.029  2.000  0.000 0  1735634760.295 iRoC  3.380
ODOM  180.000  737.000 -0.029  2.000  0.000 0  1735634760.305 iRoC  3.390
ODOM  181.000  737.000 -0.029  2.000  0.000 0  1735634760.315 iRoC  3.400
ODOM  182.000  737.000 -0.029  2.000  0.000 0  1735634760.325 iRoC  3.410
ODOM  183.000  737.000 -0.029  2.000  0.000 0  1735634760.335 iRoC  3.420
ODOM  184.000  737.000 -0.029  2.000  0.000 0  1735634760.345 iRoC  3.430
ODOM  185.000  737.000 -0.029  2.000  0.000 0  1735634760.355 iRoC  3.440
ODOM  186.000  737.000 -0.029  2.000  0.000 0  1735634760.365 iRoC  3.450
ODOM  187.000  737.000 -0.029  2.000  0.000 0  1735634760.375 iRoC  3.460
ODOM  188.000  737.000 -0.029  2.000  0.000 0  1735634760.385 iRoC  3.470
ODOM  189.000  737.000 -0.029  2.000  0.000 0  1735634760.395 iRoC  3.480
ODOM  190.000  737.000 -0.029  2.000  0.000 0  1735634760.405 iRoC  3.490
ODOM  191.000  737.000 -0.029  2.000  0.000 0  1735634760.415 iRoC  3.500
ODOM  192.000  737.000 -0.029  2.000  0.000 0  1735634760.425 iRoC  3.510
ODOM  193.000  737.000 -0.029  2.000  0.000 0  1735634760.435 iRoC  3.520
ODOM  194.000  737.000 -0.029  2.000  0.000 0  1735634760.445 iRoC  3.530
ODOM  195.000  737.000 -0.029  2.000  0.000 0  1735634760.455 iRoC  3.540
ODOM  196.000  737.000 -0.029  2.000  0.000 0  1735634760.465 iRoC  3.550
ODOM  197.000  737.000 -0.029  2.000  0.000 0  1735634760.475 iRoC  3.560
ODOM  198.000  737.000 -0.029  2.000  0.000 0  1735634760.485 iRoC  3.570
ODOM  199.000  737.000 -0.029  2.000  0.000 0  1735634760.495 iRoC  3.580
ODOM  200.000  737.000 -0.029  2.000  0.000 0  1735634760.505 iRoC  3.590
ODOM  201.000  737.000 -0.029  2.000  0.000 0  1735634760.515 iRoC  3.600
ODOM  202.000  737.000 -0.029  2.000  0.000 0  1735634760.525 iRoC  3.610
ODOM  203.000  737.000 -0.029  2.000  0.000 0  1735634760.535 iRoC  3.620
ODOM  204.000  738.000 -0.029  2.000  0.000 0  1735634760.545 iRoC  3.630
ODOM  205.000  738.000 -0.029  2.000  0.000 0  1735634760.555 iRoC  3.640
ODOM  206.000  738.000 -0.029  2.000  0.000 0  1735634760.565 iRoC  3.650
ODOM  207.000  738.000 -0.029  2.000  0.000 0  1735634760.575 iRoC  3.660
ODOM  208.000  738.000 -0.029  2.000  0.000 0  1735634760.585 iRoC  3.670
ODOM  209.000  738.000 -0.029  2.000  0.000 0  1735634760.595 iRoC  3.680
ODOM  210.000  738.000 -0.029  2.000  0.000 0  1735634760.605 iRoC  3.690
ODOM  211.000  738.000 -0.029  2.000  0.000 0  1735634760.615 iRoC  3.700
ODOM  212.000  738.000 -0.029  2.000  0.000 0  1735634760.625 iRoC  3.710
ODOM  213.000  738.000 -0.029  2.000  0.000 0  1735634760.635 iRoC  3.720
ODOM  214.000  738.000 -0.029  2.000  0.000 0  1735634760.645 iRoC  3.730
ODOM  215.000  738.000 -0.029  2.000  0.000 0  1735634760.655 iRoC  3.740
ODOM  216.000  738.000 -0.029  2.000  0.000 0  1735634760.665 iRoC  3.750
ODOM  217.000  738.000 -0.029  2.000  0.000 0  1735634760.675 iRoC  3.760
ODOM  218.000  738.000 -0.029  2.000  0.000 0  1735634760.685 iRoC  3.770
ODOM  219.000  738.000 -0.029  2.000  0.000 0  1735634760.695 iRoC  3.780
ODOM  220.000  738.000 -0.029  2.000  0.000 0  1735634760.705 iRoC  3.790
ODOM  221.000  738.000 -0.029  2.000  0.000 0  1735634760.715 iRoC  3.800
ODOM  222.000  738.000 -0.029  2.000  0.000 0  1735634760.725 iRoC  3.810
ODOM  223.000  738.000 -0.029  2.000  0.000 0  1735634760.735 iRoC  3.820
ODOM  224.000  738.000 -0.029  2.000  0.000 0  1735634760.745 iRoC  3.830
ODOM  225.000  738.000 -0.029  2.000  0.000 0  1735634760.755 iRoC  3.840
ODOM  226.000  738.000 -0.029  2.000  0.000 0  1735634760.765 iRoC  3.850
ODOM  227.000  738.000 -0.029  2.000  0.000 0  1735634760.775 iRoC  3.860
ODOM  228.000  738.000 -0.029  2.000  0.000 0  1735634760.785 iRoC  3.870
ODOM  229.000  738.000 -0.029  2.000  0.000 0  1735634760.795 iRoC  3.880
ODOM  230.000  738.000 -0.029  2.000  0.000 0  1735634760.805 iRoC  3.890
ODOM  231.000  738.000 -0.029  2.000  0.000 0  1735634760.815 iRoC  3.900
ODOM  232.000  738.000 -0.029  2.000  0.000 0  1735634760.825 iRoC  3.910
ODOM  233.000  738.000 -0.029  2.000  0.000 0  1735634760.835 iRoC  3.920
ODOM  234.000  738.000 -0.029  2.000  0.000 0  1735634760.845 iRoC  3.930
ODOM  235.000  738.000 -0.029  2.000  0.000 0  1735634760.855 iRoC  3.940
ODOM  236.000  738.000 -0.029  2.000  0.000 0  1735634760.865 iRoC  3.950
ODOM  237.000  738.000 -0.029  2.000  0.000 0  1735634760.875 iRoC  3.960
ODOM  238.000  739.000 -0.029  2.000  0.000 0  1735634760.885 iRoC  3.970
ODOM  239.000  739.000 -0.029  2.000  0.000 0  1735634760.895 iRoC  3.980
ODOM  240.000  739.000 -0.029  2.000  0.000 0  1735634760.905 iRoC  3.990
ODOM  241.000  739.000 -0.029  2.000  0.000 0  1735634760.915 iRoC  4.000
ODOM  242.000  739.000 -0.029  2.000  0.000 0  1735634760.925 iRoC  4.010
ODOM  243.000  739.000 -0.029  2.000  0.000 0  1735634760.935 iRoC  4.020
ODOM  244.000  739.000 -0.029  2.000  0.000 0  1735634760.945 iRoC  4.030
ODOM  245.000  739.000 -0.029  2.000  0.000 0  1735634760.955 iRoC  4.040
ODOM  246.000  739.000 -0.029  2.000  0.000 0  1735634760.965 iRoC  4.050
ODOM  247.000  739.000 -0.029  2.000  0.000 0  1735634760.975 iRoC  4.060
ODOM  248.000  739.000 -0.029  2.000  0.000 0  1735634760.985 iRoC  4.070
ODOM  249.000  739.000 -0.029  2.000  0.000 0  1735634760.995 iRoC  4.080
ODOM  250.000  739.000 -0.029  2.000  0.000 0  1735634761.005 iRoC  4.090
ODOM  251.000  739.000 -0.029  2.000  0.000 0  1735634761.015 iRoC  4.100
ODOM  252.000  739.000 -0.029  2.000  0.000 0  1735634761.025 iRoC  4.110
ODOM  253.000  739.000 -0.029  2.000  0.000 0  1735634761.035 iRoC  4.120
ODOM  254.000  739.000 -0.029  2.000  0.000 0  1735634761.045 iRoC  4.130
ODOM  255.000  739.000 -0.029  2.000  0.000 0  1735634761.055 iRoC  4.140
ODOM  256.000  739.000 -0.029  2.000  0.000 0  1735634761.065 iRoC  4.150
ODOM  257.000  739.000 -0.029  2.000  0.000 0  1735634761.075 iRoC  4.160
ODOM  258.000  739.000 -0.029  2.000  0.000 0  1735634761.085 iRoC  4.170
ODOM  259.000  739.000 -0.029  2.000  0.000 0  1735634761.095 iRoC  4.180
ODOM  260.000  739.000 -0.029  2.000  0.000 0  1735634761.105 iRoC  4.190
ODOM  261.000  739.000 -0.029  2.000  0.000 0  1735634761.115 iRoC  4.200
ODOM  262.000  739.000 -0.029  2.000  0.000 0  1735634761.125 iRoC  4.210
ODOM  263.000  739.000 -0.029  2.000  0.000 0  1735634761.135 iRoC  4.220
ODOM  264.000  739.000 -0.029  2.000  0.000 0  1735634761.145 iRoC  4.230
ODOM  265.000  739.000 -0.029  2.000  0.000 0  1735634761.155 iRoC  4.240
ODOM  266.000  739.000 -0.029  2.000  0.000 0  1735634761.165 iRoC  4.250
ODOM  267.000  739.000 -0.029  2.000  0.000 0  1735634761.175 iRoC  4.260
ODOM  268.000  739.000 -0.029  2.000  0.000 0  1735634761.185 iRoC  4.270
ODOM  269.000  739.000 -0.029  2.000  0.000 0  1735634761.195 iRoC  4.280
ODOM  270.000  739.000 -0.029  2.000  0.000 0  1735634761.205 iRoC  4.290
ODOM  271.000  739.000 -0.029  2.000  0.000 0  1735634761.215 iRoC  4.300
ODOM  272.000  740.000 -0.029  2.000  0.000 0  1735634761.225 iRoC  4.310
ODOM  273.000  740.000 -0.029  2.000  0.000 0  1735634761.235 iRoC  4.320
ODOM  274.000  740.000 -0.029  2.000  0.000 0  1735634761.245 iRoC  4.330
ODOM  275.000  740.000 -0.029  2.000  0.000 0  1735634761.255 iRoC  4.340
ODOM  276.000  740.000 -0.029  2.000  0.000 0  1735634761.265 iRoC  4.350
ODOM  277.000  740.000 -0.029  2.000  0.000 0  1735634761.275 iRoC  4.360
ODOM  278.000  740.000 -0.029  2.000  0.000 0  1735634761.285 iRoC  4.370
ODOM  279.000  740.000 -0.029  2.000  0.000 0  1735634761.295 iRoC  4.380
ODOM  280.000  740.000 -0.029  2.000  0.000 0  1735634761.305 iRoC  4.390
ODOM  281.000  740.000 -0.029  2.000  0.000 0  1735634761.315 iRoC  4.400
ODOM  282.000  740.000 -0.049  2.000 -2.000 0  1735634761.325 iRoC  4.410
ODOM  283.000  740.000 -0.069  2.000 -2.000 0  1735634761.335 iRoC  4.420
ODOM  284.000  740.000 -0.089  2.000 -2.000 0  1735634761.345 iRoC  4.430
ODOM  285.000  740.000 -0.109  2.000 -2.000 0  1735634761.355 iRoC  4.440
ODOM  286.000  740.000 -0.129  2.000 -2.000 0  1735634761.365 iRoC  4.450
ODOM  287.000  740.000 -0.149  2.000 -2.000 0  1735634761.375 iRoC  4.460
ODOM  288.000  740.000 -0.169  2.000 -2.000 0  1735634761.385 iRoC  4.470
ODOM  289.000  741.000 -0.189  2.000 -2.000 0  1735634761.395 iRoC  4.480
ODOM  290.000  741.000 -0.209  2.000 -2.000 0  1735634761.405 iRoC  4.490
ODOM  291.000  741.000 -0.229  2.000 -2.000 0  1735634761.415 iRoC  4.500
ODOM  292.000  741.000 -0.249  2.000 -2.000 0  1735634761.425 iRoC  4.510
ODOM  293.000  742.000 -0.269  2.000 -2.000 0  1735634761.435 iRoC  4.520
ODOM  294.000  742.000 -0.289  2.000 -2.000 0  1735634761.445 iRoC  4.530
ODOM  295.000  742.000 -0.309  2.000 -2.000 0  1735634761.455 iRoC  4.540
ODOM  296.000  742.000 -0.329  2.000 -2.000 0  1735634761.465 iRoC  4.550
ODOM  297.000  743.000 -0.349  2.000 -2.000 0  1735634761.475 iRoC  4.560
ODOM  297.000  743.000 -0.369  2.000 -2.000 0  1735634761.485 iRoC  4.570
ODOM  298.000  743.000 -0.389  2.000 -2.000 0  1735634761.495 iRoC  4.580
ODOM  299.000  744.000 -0.409  2.000 -2.000 0  1735634761.505 iRoC  4.590
ODOM  300.000  744.000 -0.429  2.000 -2.000 0  1735634761.515 iRoC  4.600
ODOM  301.000  745.000 -0.429  2.000  0.000 0  1735634761.525 iRoC  4.610
ODOM  302.000  745.000 -0.429  2.000  0.000 0  1735634761.535 iRoC  4.620
ODOM  303.000  746.000 -0.429  2.000  0.000 0  1735634761.545 iRoC  4.630
ODOM  304.000  746.000 -0.429  2.000  0.000 0  1735634761.555 iRoC  4.640
ODOM  305.000  746.000 -0.429  2.000  0.000 0  1735634761.565 iRoC  4.650
ODOM  306.000  747.000 -0.429  2.000  0.000 0  1735634761.575 iRoC  4.660
ODOM  307.000  747.000 -0.429  2.000  0.000 0  1735634761.585 iRoC  4.670
ODOM  308.000  748.000 -0.429  2.000  0.000 0  1735634761.595 iRoC  4.680
ODOM  308.000  748.000 -0.429  2.000  0.000 0  1735634761.605 iRoC  4.690
ODOM  309.000  748.000 -0.429  2.000  0.000 0  1735634761.615 iRoC  4.700
ODOM  310.000  749.000 -0.429  2.000  0.000 0  1735634761.625 iRoC  4.710
ODOM  311.000  749.000 -0.429  2.000  0.000 0  1735634761.635 iRoC  4.720
ODOM  312.000  750.000 -0.429  2.000  0.000 0  1735634761.645 iRoC  4.730
ODOM  313.000  750.000 -0.429  2.000  0.000 0  1735634761.655 iRoC  4.740
ODOM  314.000  751.000 -0.429  2.000  0.000 0  1735634761.665 iRoC  4.750
ODOM  315.000  751.000 -0.429  2.000  0.000 0  1735634761.675 iRoC  4.760
ODOM  316.000  751.000 -0.429  2.000  0.000 0  1735634761.685 iRoC  4.770
ODOM  317.000  752.000 -0.429  2.000  0.000 0  1735634761.695 iRoC  4.780
ODOM  318.000  752.000 -0.429  2.000  0.000 0  1735634761.705 iRoC  4.790
ODOM  318.000  753.000 -0.429  2.000  0.000 0  1735634761.715 iRoC  4.800
ODOM  319.000  753.000 -0.429  2.000  0.000 0  1735634761.725 iRoC  4.810
ODOM  320.000  753.000 -0.429  2.000  0.000 0  1735634761.735 iRoC  4.820
ODOM  321.000  754.000 -0.429  2.000  0.000 0  1735634761.745 iRoC  4.830
ODOM  322.000  754.000 -0.429  2.000  0.000 0  1735634761.755 iRoC  4.840
ODOM  323.000  755.000 -0.429  2.000  0.000 0  1735634761.765 iRoC  4.850
ODOM  324.000  755.000 -0.429  2.000  0.000 0  1735634761.775 iRoC  4.860
ODOM  325.000  756.000 -0.429  2.000  0.000 0  1735634761.785 iRoC  4.870
ODOM  326.000  756.000 -0.429  2.000  0.000 0  1735634761.795 iRoC  4.880
ODOM  327.000  756.000 -0.429  2.000  0.000 0  1735634761.805 iRoC  4.890
ODOM  328.000  757.000 -0.429  2.000  0.000 0  1735634761.815 iRoC  4.900
ODOM  328.000  757.000 -0.429  2.000  0.000 0  1735634761.825 iRoC  4.910
ODOM  329.000  758.000 -0.429  2.000  0.000 0  1735634761.835 iRoC  4.920
ODOM  330.000  758.000 -0.429  2.000  0.000 0  1735634761.845 iRoC  4.930
ODOM  331.000  758.000 -0.429  2.000  0.000 0  1735634761.855 iRoC  4.940
ODOM  332.000  759.000 -0.429  2.000  0.000 0  1735634761.865 iRoC  4.950
ODOM  333.000  759.000 -0.429  2.000  0.000 0  1735634761.875 iRoC  4.960
ODOM  334.000  760.000 -0.429  2.000  0.000 0  1735634761.885 iRoC  4.970
ODOM  335.000  760.000 -0.429  2.000  0.000 0  1735634761.895 iRoC  4.980
ODOM  336.000  761.000 -0.429  2.000  0.000 0  1735634761.905 iRoC  4.990
ODOM  337.000  761.000 -0.429  2.000  0.000 0  1735634761.915 iRoC  5.000
ODOM  338.000  761.000 -0.429  2.000  0.000 0  1735634761.925 iRoC  5.010
ODOM  338.000  762.000 -0.429  2.000  0.000 0  1735634761.935 iRoC  5.020
ODOM  339.000  762.000 -0.429  2.000  0.000 0  1735634761.945 iRoC  5.030
ODOM  340.000  763.000 -0.429  2.000  0.000 0  1735634761.955 iRoC  5.040
ODOM  341.000  763.000 -0.429  2.000  0.000 0  1735634761.965 iRoC  5.050
ODOM  342.000  763.000 -0.429  2.000  0.000 0  1735634761.975 iRoC  5.060
ODOM  343.000  764.000 -0.429  2.000  0.000 0  1735634761.985 iRoC  5.070
ODOM  344.000  764.000 -0.429  2.000  0.000 0  1735634761.995 iRoC  5.080
ODOM  345.000  765.000 -0.429  2.000  0.000 0  1735634762.005 iRoC  5.090
ODOM  346.000  765.000 -0.429  2.000  0.000 0  1735634762.015 iRoC  5.100
ODOM  347.000  766.000 -0.429  2.000  0.000 0  1735634762.025 iRoC  5.110
ODOM  348.000  766.000 -0.429  2.000  0.000 0  1735634762.035 iRoC  5.120
ODOM  348.000  766.000 -0.429  2.000  0.000 0  1735634762.045 iRoC  5.130
ODOM  349.000  767.000 -0.429  2.000  0.000 0  1735634762.055 iRoC  5.140
ODOM  350.000  767.000 -0.429  2.000  0.000 0  1735634762.065 iRoC  5.150
ODOM  351.000  768.000 -0.429  2.000  0.000 0  1735634762.075 iRoC  5.160
ODOM  352.000  768.000 -0.429  2.000  0.000 0  1735634762.085 iRoC  5.170
ODOM  353.000  768.000 -0.429  2.000  0.000 0  1735634762.095 iRoC  5.180
ODOM  354.000  769.000 -0.429  2.000  0.000 0  1735634762.105 iRoC  5.190
ODOM  355.000  769.000 -0.429  2.000  0.000 0  1735634762.115 iRoC  5.200
ODOM  356.000  770.000 -0.429  2.000  0.000 0  1735634762.125 iRoC  5.210
ODOM  357.000  770.000 -0.429  2.000  0.000 0  1735634762.135 iRoC  5.220
ODOM  358.000  771.000 -0.429  2.000  0.000 0  1735634762.145 iRoC  5.230
ODOM  358.000  771.000 -0.429  2.000  0.000 0  1735634762.155 iRoC  5.240
ODOM  359.000  771.000 -0.429  2.000  0.000 0  1735634762.165 iRoC  5.250
ODOM  360.000  772.000 -0.429  2.000  0.000 0  1735634762.175 iRoC  5.260
ODOM  361.000  772.000 -0.429  2.000  0.000 0  1735634762.185 iRoC  5.270
ODOM  362.000  773.000 -0.429  2.000  0.000 0  1735634762.195 iRoC  5.280
ODOM  363.000  773.000 -0.429  2.000  0.000 0  1735634762.205 iRoC  5.290
ODOM  364.000  773.000 -0.429  2.000  0.000 0  1735634762.215 iRoC  5.300
ODOM  365.000  774.000 -0.429  2.000  0.000 0  1735634762.225 iRoC  5.310
ODOM  366.000  774.000 -0.409  2.000  2.000 0  1735634762.235 iRoC  5.320
ODOM  367.000  775.000 -0.389  2.000  2.000 0  1735634762.245 iRoC  5.330
ODOM  368.000  775.000 -0.369  2.000  2.000 0  1735634762.255 iRoC  5.340
ODOM  368.000  775.000 -0.349  2.000  2.000 0  1735634762.265 iRoC  5.350
ODOM  369.000  776.000 -0.329  2.000  2.000 0  1735634762.275 iRoC  5.360
ODOM  370.000  776.000 -0.309  2.000  2.000 0  1735634762.285 iRoC  5.370
ODOM  371.000  776.000 -0.289  2.000  2.000 0  1735634762.295 iRoC  5.380
ODOM  372.000  777.000 -0.269  2.000  2.000 0  1735634762.305 iRoC  5.390
ODOM  373.000  777.000 -0.249  2.000  2.000 0  1735634762.315 iRoC  5.400
ODOM  374.000  777.000 -0.229  2.000  2.000 0  1735634762.325 iRoC  5.410
ODOM  375.000  777.000 -0.209  2.000  2.000 0  1735634762.335 iRoC  5.420
ODOM  376.000  777.000 -0.209  2.000  0.000 0  1735634762.345 iRoC  5.430
ODOM  377.000  778.000 -0.209  2.000  0.000 0  1735634762.355 iRoC  5.440
ODOM  378.000  778.000 -0.209  2.000  0.000 0  1735634762.365 iRoC  5.450
ODOM  379.000  778.000 -0.209  2.000  0.000 0  1735634762.375 iRoC  5.460
ODOM  380.000  778.000 -0.209  2.000  0.000 0  1735634762.385 iRoC  5.470
ODOM  381.000  779.000 -0.209  2.000  0.000 0  1735634762.395 iRoC  5.480
ODOM  382.000  779.000 -0.209  2.000  0.000 0  1735634762.405 iRoC  5.490
ODOM  383.000  779.000 -0.209  2.000  0.000 0  1735634762.415 iRoC  5.500
ODOM  384.000  779.000 -0.209  2.000  0.000 0  1735634762.425 iRoC  5.510
ODOM  385.000  779.000 -0.209  2.000  0.000 0  1735634762.435 iRoC  5.520
ODOM  386.000  780.000 -0.209  2.000  0.000 0  1735634762.445 iRoC  5.530
ODOM  387.000  780.000 -0.209  2.000  0.000 0  1735634762.455 iRoC  5.540
ODOM  388.000  780.000 -0.209  2.000  0.000 0  1735634762.465 iRoC  5.550
ODOM  389.000  780.000 -0.209  2.000  0.000 0  1735634762.475 iRoC  5.560
ODOM  390.000  780.000 -0.209  2.000  0.000 0  1735634762.485 iRoC  5.570
ODOM  391.000  781.000 -0.209  2.000  0.000 0  1735634762.495 iRoC  5.580
ODOM  392.000  781.000 -0.209  2.000  0.000 0  1735634762.505 iRoC  5.590
ODOM  393.000  781.000 -0.209  2.000  0.000 0  1735634762.515 iRoC  5.600
ODOM  394.000  781.000 -0.189  2.000  2.000 0  1735634762.525 iRoC  5.610
ODOM  395.000  781.000 -0.169  2.000  2.000 0  1735634762.535 iRoC  5.620
ODOM  396.000  782.000 -0.149  2.000  2.000 0  1735634762.545 iRoC  5.630
ODOM  397.000  782.000 -0.129  2.000  2.000 0  1735634762.555 iRoC  5.640
ODOM  398.000  782.000 -0.109  2.000  2.000 0  1735634762.565 iRoC  5.650
ODOM  399.000  782.000 -0.089  2.000  2.000 0  1735634762.575 iRoC  5.660
ODOM  400.000  782.000 -0.069  2.000  2.000 0  1735634762.585 iRoC  5.670
ODOM  401.000  782.000 -0.049  2.000  2.000 0  1735634762.595 iRoC  5.680
ODOM  402.000  782.000 -0.029  2.000  2.000 0  1735634762.605 iRoC  5.690
ODOM  403.000  782.000 -0.009  2.000  2.000 0  1735634762.615 iRoC  5.700
ODOM  404.000  782.000 -0.009  2.000  0.000 0  1735634762.625 iRoC  5.710
ODOM  405.000  782.000 -0.009  2.000  0.000 0  1735634762.635 iRoC  5.720
ODOM  406.000  782.000 -0.009  2.000  0.000 0  1735634762.645 iRoC  5.730
ODOM  407.000  782.000 -0.009  2.000  0.000 0  1735634762.655 iRoC  5.740
ODOM  408.000  782.000 -0.009  2.000  0.000 0  1735634762.665 iRoC  5.750
ODOM  409.000  782.000 -0.009  2.000  0.000 0  1735634762.675 iRoC  5.760
ODOM  410.000  782.000 -0.009  2.000  0.000 0  1735634762.685 iRoC  5.770
ODOM  411.000  782.000 -0.009  2.000  0.000 0  1735634762.695 iRoC  5.780
ODOM  412.000  782.000 -0.009  2.000  0.000 0  1735634762.705 iRoC  5.790
ODOM  413.000  782.000 -0.009  2.000  0.000 0  1735634762.715 iRoC  5.800
ODOM  414.000  782.000 -0.009  2.000  0.000 0  1735634762.725 iRoC  5.810
ODOM  415.000  782.000 -0.009  2.000  0.000 0  1735634762.735 iRoC  5.820
ODOM  416.000  782.000 -0.009  2.000  0.000 0  1735634762.745 iRoC  5.830
ODOM  417.000  782.000 -0.009  2.000  0.000 0  1735634762.755 iRoC  5.840
ODOM  418.000  782.000 -0.009  2.000  0.000 0  1735634762.765 iRoC  5.850
ODOM  419.000  782.000 -0.009  2.000  0.000 0  1735634762.775 iRoC  5.860
ODOM  420.000  782.000 -0.009  2.000  0.000 0  1735634762.785 iRoC  5.870
ODOM  421.000  782.000 -0.009  2.000  0.000 0  1735634762.795 iRoC  5.880
ODOM  422.000  782.000 -0.009  2.000  0.000 0  1735634762.805 iRoC  5.890
ODOM  423.000  782.000 -0.009  2.000  0.000 0  1735634762.815 iRoC  5.900
ODOM  424.000  782.000 -0.009  2.000  0.000 0  1735634762.825 iRoC  5.910
ODOM  425.000  782.000 -0.009  2.000  0.000 0  1735634762.835 iRoC  5.920
ODOM  426.000  782.000 -0.009  2.000  0.000 0  1735634762.845 iRoC  5.930
ODOM  427.000  782.000 -0.009  2.000  0.000 0  1735634762.855 iRoC  5.940
ODOM  428.000  782.000 -0.009  2.000  0.000 0  1735634762.865 iRoC  5.950
ODOM  429.000  782.000 -0.009  2.000  0.000 0  1735634762.875 iRoC  5.960
ODOM  430.000  782.000 -0.009  2.000  0.000 0  1735634762.885 iRoC  5.970
ODOM  431.000  782.000 -0.009  2.000  0.000 0  1735634762.895 iRoC  5.980
ODOM  432.000  782.000 -0.009  2.000  0.000 0  1735634762.905 iRoC  5.990
ODOM  433.000  782.000 -0.009  2.000  0.000 0  1735634762.915 iRoC  6.000
ODOM  434.000  782.000 -0.009  2.000  0.000 0  1735634762.925 iRoC  6.010
ODOM  435.000  782.000 -0.009  2.000  0.000 0  1735634762.935 iRoC  6.020
ODOM  436.000  782.000 -0.009  2.000  0.000 0  1735634762.945 iRoC  6.030
ODOM  437.000  782.000 -0.009  2.000  0.000 0  1735634762.955 iRoC  6.040
ODOM  438.000  782.000 -0.009  2.000  0.000 0  1735634762.965 iRoC  6.050
ODOM  439.000  782.000 -0.009  2.000  0.000 0  1735634762.975 iRoC  6.060
ODOM  440.000  782.000 -0.009  2.000  0.000 0  1735634762.985 iRoC  6.070
ODOM  441.000  782.000 -0.009  2.000  0.000 0  1735634762.995 iRoC  6.080
ODOM  442.000  782.000 -0.009  2.000  0.000 0  1735634763.005 iRoC  6.090
ODOM  443.000  782.000 -0.009  2.000  0.000 0  1735634763.015 iRoC  6.100
ODOM  444.000  782.000 -0.009  2.000  0.000 0  1735634763.025 iRoC  6.110
ODOM  445.000  782.000 -0.009  2.000  0.000 0  1735634763.035 iRoC  6.120
ODOM  446.000  783.000 -0.009  2.000  0.000 0  1735634763.045 iRoC  6.130
ODOM  447.000  783.000 -0.009  2.000  0.000 0  1735634763.055 iRoC  6.140
ODOM  448.000  783.000 -0.009  2.000  0.000 0  1735634763.065 iRoC  6.150
ODOM  449.000  783.000 -0.009  2.000  0.000 0  1735634763.075 iRoC  6.160
ODOM  450.000  783.000 -0.009  2.000  0.000 0  1735634763.085 iRoC  6.170
ODOM  451.000  783.000 -0.009  2.000  0.000 0  1735634763.095 iRoC  6.180
ODOM  452.000  783.000 -0.009  2.000  0.000 0  1735634763.105 iRoC  6.190
ODOM  453.000  783.000 -0.009  2.000  0.000 0  1735634763.115 iRoC  6.200
ODOM  454.000  783.000 -0.009  2.000  0.000 0  1735634763.125 iRoC  6.210
ODOM  455.000  783.000 -0.009  2.000  0.000 0  1735634763.135 iRoC  6.220
ODOM  456.000  783.000 -0.009  2.000  0.000 0  1735634763.145 iRoC  6.230
ODOM  457.000  783.000 -0.009  2.000  0.000 0  1735634763.155 iRoC  6.240
ODOM  458.000  783.000 -0.009  2.000  0.000 0  1735634763.165 iRoC  6.250
ODOM  459.000  783.000 -0.009  2.000  0.000 0  1735634763.175 iRoC  6.260
ODOM  460.000  783.000 -0.009  2.000  0.000 0  1735634763.185 iRoC  6.270
ODOM  461.000  783.000 -0.009  2.000  0.000 0  1735634763.195 iRoC  6.280
ODOM  462.000  783.000 -0.009  2.000  0.000 0  1735634763.205 iRoC  6.290
ODOM  463.000  783.000 -0.009  2.000  0.000 0  1735634763.215 iRoC  6.300
ODOM  464.000  783.000 -0.009  2.000  0.000 0  1735634763.225 iRoC  6.310
ODOM  465.000  783.000 -0.009  2.000  0.000 0  1735634763.235 iRoC  6.320
ODOM  466.000  783.000 -0.009  2.000  0.000 0  1735634763.245 iRoC  6.330
ODOM  467.000  783.000 -0.009  2.000  0.000 0  1735634763.255 iRoC  6.340
ODOM  468.000  783.000 -0.009  2.000  0.000 0  1735634763.265 iRoC  6.350
ODOM  469.000  783.000 -0.009  2.000  0.000 0  1735634763.275 iRoC  6.360
ODOM  470.000  783.000 -0.009  2.000  0.000 0  1735634763.285 iRoC  6.370
ODOM  471.000  783.000 -0.009  2.000  0.000 0  1735634763.295 iRoC  6.380
ODOM  472.000  783.000 -0.009  2.000  0.000 0  1735634763.305 iRoC  6.390
ODOM  473.000  783.000 -0.009  2.000  0.000 0  1735634763.315 iRoC  6.400
ODOM  474.000  783.000 -0.009  2.000  0.000 0  1735634763.325 iRoC  6.410
ODOM  475.000  783.000 -0.009  2.000  0.000 0  1735634763.335 iRoC  6.420
ODOM  476.000  783.000 -0.009  2.000  0.000 0  1735634763.345 iRoC  6.430
ODOM  477.000  783.000 -0.009  2.000  0.000 0  1735634763.355 iRoC  6.440
ODOM  478.000  783.000 -0.009  2.000  0.000 0  1735634763.365 iRoC  6.450
ODOM  479.000  783.000 -0.009  2.000  0.000 0  1735634763.375 iRoC  6.460
ODOM  480.000  783.000 -0.009  2.000  0.000 0  1735634763.385 iRoC  6.470
ODOM  481.000  783.000 -0.009  2.000  0.000 0  1735634763.395 iRoC  6.480
ODOM  482.000  783.000 -0.009  2.000  0.000 0  1735634763.405 iRoC  6.490
ODOM  483.000  783.000 -0.009  2.000  0.000 0  1735634763.415 iRoC  6.500
ODOM  484.000  783.000 -0.009  2.000  0.000 0  1735634763.425 iRoC  6.510
ODOM  485.000  783.000 -0.009  2.000  0.000 0  1735634763.435 iRoC  6.520
ODOM  486.000  783.000 -0.009  2.000  0.000 0  1735634763.445 iRoC  6.530
ODOM  487.000  783.000 -0.009  2.000  0.000 0  1735634763.455 iRoC  6.540
ODOM  488.000  783.000 -0.009  2.000  0.000 0  1735634763.465 iRoC  6.550
ODOM  489.000  783.000 -0.009  2.000  0.000 0  1735634763.475 iRoC  6.560
ODOM  490.000  783.000 -0.009  2.000  0.000 0  1735634763.485 iRoC  6.570
ODOM  491.000  783.000 -0.009  2.000  0.000 0  1735634763.495 iRoC  6.580
ODOM  492.000  783.000 -0.009  2.000  0.000 0  1735634763.505 iRoC  6.590
ODOM  493.000  783.000 -0.009  2.000  0.000 0  1735634763.515 iRoC  6.600
ODOM  494.000  783.000 -0.009  2.000  0.000 0  1735634763.525 iRoC  6.610
ODOM  495.000  783.000 -0.009  2.000  0.000 0  1735634763.535 iRoC  6.620
ODOM  496.000  783.000 -0.009  2.000  0.000 0  1735634763.545 iRoC  6.630
ODOM  497.000  783.000 -0.009  2.000  0.000 0  1735634763.555 iRoC  6.640
ODOM  498.000  783.000 -0.009  2.000  0.000 0  1735634763.565 iRoC  6.650
ODOM  499.000  783.000 -0.009  2.000  0.000 0  1735634763.575 iRoC  6.660
ODOM  500.000  783.000 -0.009  2.000  0.000 0  1735634763.585 iRoC  6.670
ODOM  501.000  783.000 -0.009  2.000  0.000 0  1735634763.595 iRoC  6.680
ODOM  502.000  783.000 -0.009  2.000  0.000 0  1735634763.605 iRoC  6.690
ODOM  503.000  783.000 -0.009  2.000  0.000 0  1735634763.615 iRoC  6.700
ODOM  504.000  783.000 -0.009  2.000  0.000 0  1735634763.625 iRoC  6.710
ODOM  505.000  783.000 -0.009  2.000  0.000 0  1735634763.635 iRoC  6.720
ODOM  506.000  783.000 -0.009  2.000  0.000 0  1735634763.645 iRoC  6.730
ODOM  507.000  783.000 -0.009  2.000  0.000 0  1735634763.655 iRoC  6.740
ODOM  508.000  783.000 -0.009  2.000  0.000 0  1735634763.665 iRoC  6.750
ODOM  509.000  783.000 -0.009  2.000  0.000 0  1735634763.675 iRoC  6.760
ODOM  510.000  783.000 -0.009  2.000  0.000 0  1735634763.685 iRoC  6.770
ODOM  511.000  783.000 -0.009  2.000  0.000 0  1735634763.695 iRoC  6.780
ODOM  512.000  783.000 -0.009  2.000  0.000 0  1735634763.705 iRoC  6.790
ODOM  513.000  783.000 -0.009  2.000  0.000 0  1735634763.715 iRoC  6.800
ODOM  514.000  783.000 -0.009  2.000  0.000 0  1735634763.725 iRoC  6.810
ODOM  515.000  783.000 -0.009  2.000  0.000 0  1735634763.735 iRoC  6.820
ODOM  516.000  783.000 -0.009  2.000  0.000 0  1735634763.745 iRoC  6.830
ODOM  517.000  783.000 -0.009  2.000  0.000 0  1735634763.755 iRoC  6.840
ODOM  518.000  783.000 -0.009  2.000  0.000 0  1735634763.765 iRoC  6.850
ODOM  519.000  783.000 -0.009  2.000  0.000 0  1735634763.775 iRoC  6.860
ODOM  520.000  783.000 -0.009  2.000  0.000 0  1735634763.785 iRoC  6.870
ODOM  521.000  783.000 -0.009  2.000  0.000 0  1735634763.795 iRoC  6.880
ODOM  522.000  783.000 -0.009  2.000  0.000 0  1735634763.805 iRoC  6.890
ODOM  523.000  783.000 -0.009  2.000  0.000 0  1735634763.815 iRoC  6.900
ODOM  524.000  783.000 -0.009  2.000  0.000 0  1735634763.825 iRoC  6.910
ODOM  525.000  783.000 -0.009  2.000  0.000 0  1735634763.835 iRoC  6.920
ODOM  526.000  783.000 -0.009  2.000  0.000 0  1735634763.845 iRoC  6.930
ODOM  527.000  783.000 -0.009  2.000  0.000 0  1735634763.855 iRoC  6.940
ODOM  528.000  783.000 -0.009  2.000  0.000 0  1735634763.865 iRoC  6.950
ODOM  529.000  783.000 -0.009  2.000  0.000 0  1735634763.875 iRoC  6.960
ODOM  530.000  783.000 -0.009  2.000  0.000 0  1735634763.885 iRoC  6.970
ODOM  531.000  783.000 -0.009  2.000  0.000 0  1735634763.895 iRoC  6.980
ODOM  532.000  783.000 -0.009  2.000  0.000 0  1735634763.905 iRoC  6.990
ODOM  533.000  783.000 -0.009  2.000  0.000 0  1735634763.915 iRoC  7.000
ODOM  534.000  783.000 -0.009  2.000  0.000 0  1735634763.925 iRoC  7.010
ODOM  535.000  783.000 -0.009  2.000  0.000 0  1735634763.935 iRoC  7.020
ODOM  536.000  783.000 -0.009  2.000  0.000 0  1735634763.945 iRoC  7.030
ODOM  537.000  783.000 -0.009  2.000  0.000 0  1735634763.955 iRoC  7.040
ODOM  538.000  783.000 -0.009  2.000  0.000 0  1735634763.965 iRoC  7.050
ODOM  539.000  783.000 -0.009  2.000  0.000 0  1735634763.975 iRoC  7.060
ODOM  540.000  783.000 -0.009  2.000  0.000 0  1735634763.985 iRoC  7.070
ODOM  541.000  783.000 -0.009  2.000  0.000 0  1735634763.995 iRoC  7.080
ODOM  542.000  783.000 -0.009  2.000  0.000 0  1735634764.005 iRoC  7.090
ODOM  543.000  783.000 -0.009  2.000  0.000 0  1735634764.015 iRoC  7.100
ODOM  544.000  783.000 -0.009  2.000  0.000 0  1735634764.025 iRoC  7.110
ODOM  545.000  783.000 -0.009  2.000  0.000 0  1735634764.035 iRoC  7.120
ODOM  546.000  783.000 -0.009  2.000  0.000 0  1735634764.045 iRoC  7.130
ODOM  547.000  783.000 -0.009  2.000  0.000 0  1735634764.055 iRoC  7.140
ODOM  548.000  783.000 -0.009  2.000  0.000 0  1735634764.065 iRoC  7.150
ODOM  549.000  783.000 -0.009  2.000  0.000 0  1735634764.075 iRoC  7.160
ODOM  550.000  783.000 -0.009  2.000  0.000 0  1735634764.085 iRoC  7.170
ODOM  551.000  783.000 -0.009  2.000  0.000 0  1735634764.095 iRoC  7.180
ODOM  552.000  783.000 -0.009  2.000  0.000 0  1735634764.105 iRoC  7.190
ODOM  553.000  783.000 -0.009  2.000  0.000 0  1735634764.115 iRoC  7.200
ODOM  554.000  783.000 -0.009  2.000  0.000 0  1735634764.125 iRoC  7.210
ODOM  555.000  784.000 -0.009  2.000  0.000 0  1735634764.135 iRoC  7.220
ODOM  556.000  784.000 -0.009  2.000  0.000 0  1735634764.145 iRoC  7.230
ODOM  557.000  784.000 -0.009  2.000  0.000 0  1735634764.155 iRoC  7.240
ODOM  558.000  784.000 -0.009  2.000  0.000 0  1735634764.165 iRoC  7.250
ODOM  559.000  784.000 -0.009  2.000  0.000 0  1735634764.175 iRoC  7.260
ODOM  560.000  784.000 -0.009  2.000  0.000 0  1735634764.185 iRoC  7.270
ODOM  561.000  784.000 -0.009  2.000  0.000 0  1735634764.195 iRoC  7.280
ODOM  562.000  784.000 -0.009  2.000  0.000 0  1735634764.205 iRoC  7.290
ODOM  563.000  784.000 -0.009  2.000  0.000 0  1735634764.215 iRoC  7.300
ODOM  564.000  784.000 -0.009  2.000  0.000 0  1735634764.225 iRoC  7.310
ODOM  565.000  784.000 -0.009  2.000  0.000 0  1735634764.235 iRoC  7.320
ODOM  566.000  784.000 -0.009  2.000  0.000 0  1735634764.245 iRoC  7.330
ODOM  567.000  784.000 -0.009  2.000  0.000 0  1735634764.255 iRoC  7.340
ODOM  568.000  784.000 -0.009  2.000  0.000 0  1735634764.265 iRoC  7.350
ODOM  569.000  784.000 -0.009  2.000  0.000 0  1735634764.275 iRoC  7.360
ODOM  570.000  784.000 -0.009  2.000  0.000 0  1735634764.285 iRoC  7.370
ODOM  571.000  784.000 -0.009  2.000  0.000 0  1735634764.295 iRoC  7.380
ODOM  572.000  784.000 -0.009  2.000  0.000 0  1735634764.305 iRoC  7.390
ODOM  573.000  784.000 -0.009  2.000  0.000 0  1735634764.315 iRoC  7.400
ODOM  574.000  784.000 -0.009  2.000  0.000 0  1735634764.325 iRoC  7.410
ODOM  575.000  784.000 -0.009  2.000  0.000 0  1735634764.335 iRoC  7.420
ODOM  576.000  784.000 -0.009  2.000  0.000 0  1735634764.345 iRoC  7.430
ODOM  577.000  784.000 -0.009  2.000  0.000 0  1735634764.355 iRoC  7.440
ODOM  578.000  784.000 -0.009  2.000  0.000 0  1735634764.365 iRoC  7.450
ODOM  579.000  784.000 -0.009  2.000  0.000 0  1735634764.375 iRoC  7.460
ODOM  580.000  784.000 -0.009  2.000  0.000 0  1735634764.385 iRoC  7.470
ODOM  581.000  784.000 -0.009  2.000  0.000 0  1735634764.395 iRoC  7.480
ODOM  582.000  784.000 -0.009  2.000  0.000 0  1735634764.405 iRoC  7.490
ODOM  583.000  784.000 -0.009  2.000  0.000 0  1735634764.415 iRoC  7.500
ODOM  584.000  784.000 -0.009  2.000  0.000 0  1735634764.425 iRoC  7.510
ODOM  585.000  784.000 -0.009  2.000  0.000 0  1735634764.435 iRoC  7.520
ODOM  586.000  784.000 -0.009  2.000  0.000 0  1735634764.445 iRoC  7.530
ODOM  587.000  784.000 -0.009  2.000  0.000 0  1735634764.455 iRoC  7.540
ODOM  588.000  784.000 -0.009  2.000  0.000 0  1735634764.465 iRoC  7.550
ODOM  589.000  784.000 -0.009  2.000  0.000 0  1735634764.475 iRoC  7.560
ODOM  590.000  784.000 -0.009  2.000  0.000 0  1735634764.485 iRoC  7.570
ODOM  591.000  784.000 -0.009  2.000  0.000 0  1735634764.495 iRoC  7.580
ODOM  592.000  784.000 -0.009  2.000  0.000 0  1735634764.505 iRoC  7.590
ODOM  593.000  784.000 -0.009  2.000  0.000 0  1735634764.515 iRoC  7.600
ODOM  594.000  784.000 -0.009  2.000  0.000 0  1735634764.525 iRoC  7.610
ODOM  595.000  784.000 -0.009  2.000  0.000 0  1735634764.535 iRoC  7.620
ODOM  596.000  784.000 -0.009  2.000  0.000 0  1735634764.545 iRoC  7.630
ODOM  597.000  784.000 -0.009  2.000  0.000 0  1735634764.555 iRoC  7.640
ODOM  598.000  784.000 -0.009  2.000  0.000 0  1735634764.565 iRoC  7.650
ODOM  599.000  784.000 -0.009  2.000  0.000 0  1735634764.575 iRoC  7.660
ODOM  600.000  784.000 -0.009  2.000  0.000 0  1735634764.585 iRoC  7.670
ODOM  601.000  784.000 -0.009  2.000  0.000 0  1735634764.595 iRoC  7.680
ODOM  602.000  784.000 -0.009  2.000  0.000 0  1735634764.605 iRoC  7.690
ODOM  603.000  784.000 -0.009  2.000  0.000 0  1735634764.615 iRoC  7.700
ODOM  604.000  784.000 -0.009  2.000  0.000 0  1735634764.625 iRoC  7.710
ODOM  605.000  784.000 -0.009  2.000  0.000 0  1735634764.635 iRoC  7.720
ODOM  606.000  784.000 -0.009  2.000  0.000 0  1735634764.645 iRoC  7.730
ODOM  607.000  784.000 -0.009  2.000  0.000 0  1735634764.655 iRoC  7.740
ODOM  608.000  784.000 -0.009  2.000  0.000 0  1735634764.665 iRoC  7.750
ODOM  609.000  784.000 -0.009  2.000  0.000 0  1735634764.675 iRoC  7.760
ODOM  610.000  784.000 -0.009  2.000  0.000 0  1735634764.685 iRoC  7.770
ODOM  611.000  784.000 -0.009  2.000  0.000 0  1735634764.695 iRoC  7.780
ODOM  612.000  784.000 -0.009  2.000  0.000 0  1735634764.705 iRoC  7.790
ODOM  613.000  784.000 -0.009  2.000  0.000 0  1735634764.715 iRoC  7.800
ODOM  614.000  784.000 -0.009  2.000  0.000 0  1735634764.725 iRoC  7.810
ODOM  615.000  784.000 -0.009  2.000  0.000 0  1735634764.735 iRoC  7.820
ODOM  616.000  784.000 -0.009  2.000  0.000 0  1735634764.745 iRoC  7.830
ODOM  617.000  784.000 -0.009  2.000  0.000 0  1735634764.755 iRoC  7.840
ODOM  618.000  784.000 -0.009  2.000  0.000 0  1735634764.765 iRoC  7.850
ODOM  619.000  784.000 -0.009  2.000  0.000 0  1735634764.775 iRoC  7.860
ODOM  620.000  784.000 -0.009  2.000  0.000 0  1735634764.785 iRoC  7.870
ODOM  621.000  784.000 -0.009  2.000  0.000 0  1735634764.795 iRoC  7.880
ODOM  622.000  784.000 -0.009  2.000  0.000 0  1735634764.805 iRoC  7.890
ODOM  623.000  784.000 -0.009  2.000  0.000 0  1735634764.815 iRoC  7.900
ODOM  624.000  784.000 -0.009  2.000  0.000 0  1735634764.825 iRoC  7.910
ODOM  625.000  784.000 -0.009  2.000  0.000 0  1735634764.835 iRoC  7.920
ODOM  626.000  784.000 -0.009  2.000  0.000 0  1735634764.845 iRoC  7.930
ODOM  627.000  784.000 -0.009  2.000  0.000 0  1735634764.855 iRoC  7.940
ODOM  628.000  784.000 -0.009  2.000  0.000 0  1735634764.865 iRoC  7.950
ODOM  629.000  784.000 -0.009  2.000  0.000 0  1735634764.875 iRoC  7.960
ODOM  630.000  784.000 -0.009  2.000  0.000 0  1735634764.885 iRoC  7.970
ODOM  631.000  784.000 -0.009  2.000  0.000 0  1735634764.895 iRoC  7.980
ODOM  632.000  784.000 -0.009  2.000  0.000 0  1735634764.905 iRoC  7.990
ODOM  633.000  784.000 -0.009  2.000  0.000 0  1735634764.915 iRoC  8.000
ODOM  634.000  784.000 -0.009  2.000  0.000 0  1735634764.925 iRoC  8.010
ODOM  635.000  784.000 -0.009  2.000  0.000 0  1735634764.935 iRoC  8.020
ODOM  636.000  784.000 -0.009  2.000  0.000 0  1735634764.945 iRoC  8.030
ODOM  637.000  784.000 -0.009  2.000  0.000 0  1735634764.955 iRoC  8.040
ODOM  638.000  784.000 -0.009  2.000  0.000 0  1735634764.965 iRoC  8.050
ODOM  639.000  784.000 -0.009  2.000  0.000 0  1735634764.975 iRoC  8.060
ODOM  640.000  784.000 -0.009  2.000  0.000 0  1735634764.985 iRoC  8.070
ODOM  641.000  784.000 -0.009  2.000  0.000 0  1735634764.995 iRoC  8.080
ODOM  642.000  784.000 -0.009  2.000  0.000 0  1735634765.005 iRoC  8.090
ODOM  643.000  784.000 -0.009  2.000  0.000 0  1735634765.015 iRoC  8.100
ODOM  644.000  784.000 -0.009  2.000  0.000 0  1735634765.025 iRoC  8.110
ODOM  645.000  784.000 -0.009  2.000  0.000 0  1735634765.035 iRoC  8.120
ODOM  646.000  784.000 -0.009  2.000  0.000 0  1735634765.045 iRoC  8.130
ODOM  647.000  784.000 -0.009  2.000  0.000 0  1735634765.055 iRoC  8.140
