ODOM  50.000  805.000  1.571  0.000  0.000 0  1735631475.376 iRoC  0.010
ODOM  50.000  805.000  1.571  0.000  0.000 0  1735631475.386 iRoC  0.020
ODOM  50.000  805.000  1.571  0.000  0.000 0  1735631475.396 iRoC  0.030
ODOM  50.000  805.000  1.571  0.000  0.000 0  1735631475.406 iRoC  0.040
ODOM  50.000  805.000  1.571  0.000  0.000 0  1735631475.416 iRoC  0.050
ODOM  50.000  805.000  1.571  0.000  0.000 0  1735631475.426 iRoC  0.060
ODOM  50.000  805.000  1.571  0.000  0.000 0  1735631475.436 iRoC  0.070
ODOM  50.000  805.000  1.571  0.000  0.000 0  1735631475.446 iRoC  0.080
ODOM  50.000  805.000  1.571  0.000  0.000 0  1735631475.456 iRoC  0.090
ODOM  50.000  805.000  1.571  0.000  0.000 0  1735631475.466 iRoC  0.100
ODOM  50.000  805.000  1.571  0.000  0.000 0  1735631475.476 iRoC  0.110
ODOM  50.000  805.000  1.571  0.000  0.000 0  1735631475.486 iRoC  0.120
ODOM  50.000  805.000  1.571  0.000  0.000 0  1735631475.496 iRoC  0.130
ODOM  50.000  805.000  1.571  0.000  0.000 0  1735631475.506 iRoC  0.140
ODOM  50.000  805.000  1.571  0.000  0.000 0  1735631475.516 iRoC  0.150
ODOM  50.000  805.000  1.571  0.000  0.000 0  1735631475.526 iRoC  0.160
ODOM  50.000  805.000  1.571  0.000  0.000 0  1735631475.536 iRoC  0.170
ODOM  50.000  805.000  1.571  0.000  0.000 0  1735631475.546 iRoC  0.180
ODOM  50.000  805.000  1.571  0.000  0.000 0  1735631475.556 iRoC  0.190
ODOM  50.000  805.000  1.571  0.000  0.000 0  1735631475.566 iRoC  0.200
ODOM  50.000  805.000  1.571  0.000  0.000 0  1735631475.576 iRoC  0.210
ODOM  50.000  805.000  1.571  0.000  0.000 0  1735631475.586 iRoC  0.220
ODOM  50.000  805.000  1.571  0.000  0.000 0  1735631475.596 iRoC  0.230
ODOM  50.000  805.000  1.571  0.000  0.000 0  1735631475.606 iRoC  0.240
ODOM  50.000  805.000  1.571  0.000  0.000 0  1735631475.616 iRoC  0.250
ODOM  50.000  805.000  1.571  0.000  0.000 0  1735631475.626 iRoC  0.260
ODOM  50.000  805.000  1.571  0.000  0.000 0  1735631475.636 iRoC  0.270
ODOM  50.000  805.000  1.571  0.000  0.000 0  1735631475.646 iRoC  0.280
ODOM  50.000  805.000  1.571  0.000  0.000 0  1735631475.656 iRoC  0.290
ODOM  50.000  805.000  1.571  0.000  0.000 0  1735631475.666 iRoC  0.300
ODOM  50.000  805.000  1.571  0.000  0.000 0  1735631475.676 iRoC  0.310
ODOM  50.000  805.000  1.571  0.000  0.000 0  1735631475.686 iRoC  0.320
ODOM  50.000  805.000  1.571  0.000  0.000 0  1735631475.696 iRoC  0.330
ODOM  50.000  805.000  1.571  0.000  0.000 0  1735631475.706 iRoC  0.340
ODOM  50.000  805.000  1.571  0.000  0.000 0  1735631475.716 iRoC  0.350
ODOM  50.000  805.000  1.571  0.000  0.000 0  1735631475.726 iRoC  0.360
ODOM  50.000  805.000  1.571  0.000  0.000 0  1735631475.736 iRoC  0.370
ODOM  50.000  805.000  1.571  0.000  0.000 0  1735631475.746 iRoC  0.380
ODOM  50.000  805.000  1.571  0.000  0.000 0  1735631475.756 iRoC  0.390
ODOM  50.000  805.000  1.571  0.000  0.000 0  1735631475.766 iRoC  0.400
ODOM  50.000  805.000  1.571  0.000  0.000 0  1735631475.776 iRoC  0.410
ODOM  50.000  805.000  1.571  0.000  0.000 0  1735631475.786 iRoC  0.420
ODOM  50.000  805.000  1.571  0.000  0.000 0  1735631475.796 iRoC  0.430
ODOM  50.000  805.000  1.571  0.000  0.000 0  1735631475.806 iRoC  0.440
ODOM  50.000  805.000  1.571  0.000  0.000 0  1735631475.816 iRoC  0.450
ODOM  50.000  805.000  1.571  0.000  0.000 0  1735631475.826 iRoC  0.460
ODOM  50.000  805.000  1.571  0.000  0.000 0  1735631475.836 iRoC  0.470
ODOM  50.000  805.000  1.571  0.000  0.000 0  1735631475.846 iRoC  0.480
ODOM  50.000  805.000  1.571  0.000  0.000 0  1735631475.856 iRoC  0.490
ODOM  50.000  805.000  1.571  0.000  0.000 0  1735631475.866 iRoC  0.500
ODOM  50.000  805.000  1.571  0.000  0.000 0  1735631475.876 iRoC  0.510
ODOM  50.000  805.000  1.571  0.000  0.000 0  1735631475.886 iRoC  0.520
ODOM  50.000  805.000  1.571  0.000  0.000 0  1735631475.896 iRoC  0.530
ODOM  50.000  805.000  1.571  0.000  0.000 0  1735631475.906 iRoC  0.540
ODOM  50.000  805.000  1.571  0.000  0.000 0  1735631475.916 iRoC  0.550
ODOM  50.000  805.000  1.571  0.000  0.000 0  1735631475.926 iRoC  0.560
ODOM  50.000  805.000  1.571  0.000  0.000 0  1735631475.936 iRoC  0.570
ODOM  50.000  805.000  1.571  0.000  0.000 0  1735631475.946 iRoC  0.580
ODOM  50.000  805.000  1.571  0.000  0.000 0  1735631475.956 iRoC  0.590
ODOM  50.000  805.000  1.571  0.000  0.000 0  1735631475.966 iRoC  0.600
ODOM  50.000  805.000  1.571  0.000  0.000 0  1735631475.976 iRoC  0.610
ODOM  50.000  805.000  1.571  0.000  0.000 0  1735631475.986 iRoC  0.620
ODOM  50.000  805.000  1.571  0.000  0.000 0  1735631475.996 iRoC  0.630
ODOM  50.000  805.000  1.571  0.000  0.000 0  1735631476.006 iRoC  0.640
ODOM  50.000  805.000  1.571  0.000  0.000 0  1735631476.016 iRoC  0.650
ODOM  50.000  805.000  1.571  0.000  0.000 0  1735631476.026 iRoC  0.660
ODOM  50.000  805.000  1.571  0.000  0.000 0  1735631476.036 iRoC  0.670
ODOM  50.000  805.000  1.571  0.000  0.000 0  1735631476.046 iRoC  0.680
ODOM  50.000  805.000  1.571  0.000  0.000 0  1735631476.056 iRoC  0.690
ODOM  50.000  805.000  1.571  0.000  0.000 0  1735631476.066 iRoC  0.700
ODOM  50.000  805.000  1.571  0.000  0.000 0  1735631476.076 iRoC  0.710
ODOM  50.000  805.000  1.571  0.000  0.000 0  1735631476.086 iRoC  0.720
ODOM  50.000  805.000  1.571  0.000  0.000 0  1735631476.096 iRoC  0.730
ODOM  50.000  805.000  1.571  0.000  0.000 0  1735631476.106 iRoC  0.740
ODOM  50.000  805.000  1.571  0.000  0.000 0  1735631476.116 iRoC  0.750
ODOM  50.000  805.000  1.571  0.000  0.000 0  1735631476.126 iRoC  0.760
ODOM  50.000  805.000  1.571  0.000  0.000 0  1735631476.136 iRoC  0.770
ODOM  50.000  805.000  1.571  0.000  0.000 0  1735631476.146 iRoC  0.780
ODOM  50.000  805.000  1.571  0.000  0.000 0  1735631476.156 iRoC  0.790
ODOM  50.000  805.000  1.571  0.000  0.000 0  1735631476.166 iRoC  0.800
ODOM  50.000  805.000  1.571  0.000  0.000 0  1735631476.176 iRoC  0.810
ODOM  50.000  805.000  1.571  0.000  0.000 0  1735631476.186 iRoC  0.820
ODOM  50.000  805.000  1.571  0.000  0.000 0  1735631476.196 iRoC  0.830
ODOM  50.000  805.000  1.571  0.000  0.000 0  1735631476.206 iRoC  0.840
ODOM  50.000  805.000  1.571  0.000  0.000 0  1735631476.216 iRoC  0.850
ODOM  50.000  805.000  1.571  0.000  0.000 0  1735631476.226 iRoC  0.860
ODOM  50.000  805.000  1.571  0.000  0.000 0  1735631476.236 iRoC  0.870
ODOM  50.000  805.000  1.571  0.000  0.000 0  1735631476.246 iRoC  0.880
ODOM  50.000  805.000  1.571  0.000  0.000 0  1735631476.256 iRoC  0.890
ODOM  50.000  805.000  1.571  0.000  0.000 0  1735631476.266 iRoC  0.900
ODOM  50.000  805.000  1.571  0.000  0.000 0  1735631476.276 iRoC  0.910
ODOM  50.000  805.000  1.571  0.000  0.000 0  1735631476.286 iRoC  0.920
ODOM  50.000  805.000  1.571  0.000  0.000 0  1735631476.296 iRoC  0.930
ODOM  50.000  805.000  1.571  0.000  0.000 0  1735631476.306 iRoC  0.940
ODOM  50.000  805.000  1.571  0.000  0.000 0  1735631476.316 iRoC  0.950
ODOM  50.000  805.000  1.571  0.000  0.000 0  1735631476.326 iRoC  0.960
ODOM  50.000  805.000  1.571  0.000  0.000 0  1735631476.336 iRoC  0.970
ODOM  50.000  805.000  1.571  0.000  0.000 0  1735631476.346 iRoC  0.980
ODOM  50.000  805.000  1.571  0.000  0.000 0  1735631476.356 iRoC  0.990
ODOM  50.000  805.000  1.571  0.000  0.000 0  1735631476.366 iRoC  1.000
ODOM  50.000  805.000  1.571  0.000  0.000 0  1735631476.376 iRoC  1.010
ODOM  50.000  805.000  1.571  0.000  0.000 0  1735631476.386 iRoC  1.020
ODOM  50.000  805.000  1.571  0.000  0.000 0  1735631476.396 iRoC  1.030
ODOM  50.000  805.000  1.571  0.000  0.000 0  1735631476.406 iRoC  1.040
ODOM  50.000  805.000  1.571  0.000  0.000 0  1735631476.416 iRoC  1.050
ODOM  50.000  805.000  1.571  0.000  0.000 0  1735631476.426 iRoC  1.060
ODOM  50.000  805.000  1.571  0.000  0.000 0  1735631476.436 iRoC  1.070
ODOM  50.000  805.000  1.571  0.000  0.000 0  1735631476.446 iRoC  1.080
ODOM  50.000  805.000  1.571  0.000  0.000 0  1735631476.456 iRoC  1.090
ODOM  50.000  805.000  1.571  0.000  0.000 0  1735631476.466 iRoC  1.100
ODOM  50.000  805.000  1.571  0.000  0.000 0  1735631476.476 iRoC  1.110
ODOM  50.000  805.000  1.571  0.000  0.000 0  1735631476.486 iRoC  1.120
ODOM  50.000  805.000  1.571  0.000  0.000 0  1735631476.496 iRoC  1.130
ODOM  50.000  805.000  1.571  0.000  0.000 0  1735631476.506 iRoC  1.140
ODOM  50.000  805.000  1.571  0.000  0.000 0  1735631476.516 iRoC  1.150
ODOM  50.000  805.000  1.571  0.000  0.000 0  1735631476.526 iRoC  1.160
ODOM  50.000  805.000  1.571  0.000  0.000 0  1735631476.536 iRoC  1.170
ODOM  50.000  805.000  1.571  0.000  0.000 0  1735631476.546 iRoC  1.180
ODOM  50.000  805.000  1.571  0.000  0.000 0  1735631476.556 iRoC  1.190
ODOM  50.000  805.000  1.571  0.000  0.000 0  1735631476.566 iRoC  1.200
ODOM  50.000  805.000  1.571  0.000  0.000 0  1735631476.576 iRoC  1.210
ODOM  50.000  805.000  1.571  0.000  0.000 0  1735631476.586 iRoC  1.220
ODOM  50.000  805.000  1.571  0.000  0.000 0  1735631476.596 iRoC  1.230
ODOM  50.000  805.000  1.571  0.000  0.000 0  1735631476.606 iRoC  1.240
ODOM  50.000  805.000  1.571  0.000  0.000 0  1735631476.616 iRoC  1.250
ODOM  50.000  805.000  1.571  0.000  0.000 0  1735631476.626 iRoC  1.260
ODOM  50.000  805.000  1.571  0.000  0.000 0  1735631476.636 iRoC  1.270
ODOM  50.000  805.000  1.571  0.000  0.000 0  1735631476.646 iRoC  1.280
ODOM  50.000  805.000  1.571  0.000  0.000 0  1735631476.656 iRoC  1.290
ODOM  50.000  805.000  1.571  0.000  0.000 0  1735631476.666 iRoC  1.300
ODOM  50.000  805.000  1.571  0.000  0.000 0  1735631476.676 iRoC  1.310
ODOM  50.000  805.000  1.571  0.000  0.000 0  1735631476.686 iRoC  1.320
ODOM  50.000  805.000  1.571  0.000  0.000 0  1735631476.696 iRoC  1.330
ODOM  50.000  805.000  1.571  0.000  0.000 0  1735631476.706 iRoC  1.340
ODOM  50.000  805.000  1.571  0.000  0.000 0  1735631476.716 iRoC  1.350
ODOM  50.000  805.000  1.571  0.000  0.000 0  1735631476.726 iRoC  1.360
ODOM  50.000  805.000  1.571  0.000  0.000 0  1735631476.736 iRoC  1.370
ODOM  50.000  805.000  1.571  0.000  0.000 0  1735631476.746 iRoC  1.380
ODOM  50.000  805.000  1.571  0.000  0.000 0  1735631476.756 iRoC  1.390
ODOM  50.000  805.000  1.571  0.000  0.000 0  1735631476.766 iRoC  1.400
ODOM  50.000  805.000  1.571  0.000  0.000 0  1735631476.776 iRoC  1.410
ODOM  50.000  805.000  1.571  0.000  0.000 0  1735631476.786 iRoC  1.420
ODOM  50.000  805.000  1.571  0.000  0.000 0  1735631476.796 iRoC  1.430
ODOM  50.000  805.000  1.571  0.000  0.000 0  1735631476.806 iRoC  1.440
ODOM  50.000  805.000  1.571  0.000  0.000 0  1735631476.816 iRoC  1.450
ODOM  50.000  805.000  1.571  0.000  0.000 0  1735631476.826 iRoC  1.460
ODOM  50.000  805.000  1.571  0.000  0.000 0  1735631476.836 iRoC  1.470
ODOM  50.000  805.000  1.571  0.000  0.000 0  1735631476.846 iRoC  1.480
ODOM  50.000  805.000  1.571  0.000  0.000 0  1735631476.856 iRoC  1.490
ODOM  50.000  805.000  1.571  0.000  0.000 0  1735631476.866 iRoC  1.500
ODOM  50.000  805.000  1.571  0.000  0.000 0  1735631476.876 iRoC  1.510
ODOM  50.000  805.000  1.571  0.000  0.000 0  1735631476.886 iRoC  1.520
ODOM  50.000  805.000  1.571  0.000  0.000 0  1735631476.896 iRoC  1.530
ODOM  50.000  805.000  1.571  0.000  0.000 0  1735631476.906 iRoC  1.540
ODOM  50.000  805.000  1.571  0.000  0.000 0  1735631476.916 iRoC  1.550
ODOM  50.000  805.000  1.571  0.000  0.000 0  1735631476.926 iRoC  1.560
ODOM  50.000  805.000  1.571  0.000  0.000 0  1735631476.936 iRoC  1.570
ODOM  50.000  805.000  1.571  0.000  0.000 0  1735631476.946 iRoC  1.580
ODOM  50.000  805.000  1.571  0.000  0.000 0  1735631476.956 iRoC  1.590
ODOM  50.000  805.000  1.571  0.000  0.000 0  1735631476.966 iRoC  1.600
ODOM  50.000  805.000  1.571  0.000  0.000 0  1735631476.976 iRoC  1.610
ODOM  50.000  805.000  1.571  0.000  0.000 0  1735631476.986 iRoC  1.620
ODOM  50.000  805.000  1.571  0.000  0.000 0  1735631476.996 iRoC  1.630
ODOM  50.000  805.000  1.571  0.000  0.000 0  1735631477.006 iRoC  1.640
ODOM  50.000  805.000  1.571  0.000  0.000 0  1735631477.016 iRoC  1.650
ODOM  50.000  805.000  1.571  0.000  0.000 0  1735631477.026 iRoC  1.660
ODOM  50.000  805.000  1.571  0.000  0.000 0  1735631477.036 iRoC  1.670
ODOM  50.000  805.000  1.571  0.000  0.000 0  1735631477.046 iRoC  1.680
ODOM  50.000  805.000  1.571  0.000  0.000 0  1735631477.056 iRoC  1.690
ODOM  50.000  805.000  1.571  0.000  0.000 0  1735631477.066 iRoC  1.700
ODOM  50.000  805.000  1.571  0.000  0.000 0  1735631477.076 iRoC  1.710
ODOM  50.000  805.000  1.571  0.000  0.000 0  1735631477.086 iRoC  1.720
ODOM  50.000  805.000  1.571  0.000  0.000 0  1735631477.096 iRoC  1.730
ODOM  50.000  805.000  1.571  0.000  0.000 0  1735631477.106 iRoC  1.740
ODOM  50.000  805.000  1.571  0.000  0.000 0  1735631477.116 iRoC  1.750
ODOM  50.000  805.000  1.571  0.000  0.000 0  1735631477.126 iRoC  1.760
ODOM  50.000  805.000  1.571  0.000  0.000 0  1735631477.136 iRoC  1.770
ODOM  50.000  805.000  1.571  0.000  0.000 0  1735631477.146 iRoC  1.780
ODOM  50.000  805.000  1.571  0.000  0.000 0  1735631477.156 iRoC  1.790
ODOM  50.000  805.000  1.571  0.000  0.000 0  1735631477.166 iRoC  1.800
ODOM  50.000  805.000  1.571  0.000  0.000 0  1735631477.176 iRoC  1.810
ODOM  50.000  805.000  1.571  0.000  0.000 0  1735631477.186 iRoC  1.820
ODOM  50.000  804.000  1.571  2.000  0.000 0  1735631477.196 iRoC  1.830
ODOM  50.000  803.000  1.571  2.000  0.000 0  1735631477.206 iRoC  1.840
ODOM  50.000  802.000  1.571  2.000  0.000 0  1735631477.216 iRoC  1.850
ODOM  50.000  801.000  1.571  2.000  0.000 0  1735631477.226 iRoC  1.860
ODOM  50.000  800.000  1.571  2.000  0.000 0  1735631477.236 iRoC  1.870
ODOM  50.000  799.000  1.571  2.000  0.000 0  1735631477.246 iRoC  1.880
ODOM  50.000  798.000  1.571  2.000  0.000 0  1735631477.256 iRoC  1.890
ODOM  50.000  797.000  1.571  2.000  0.000 0  1735631477.266 iRoC  1.900
ODOM  50.000  796.000  1.571  2.000  0.000 0  1735631477.276 iRoC  1.910
ODOM  50.000  795.000  1.571  2.000  0.000 0  1735631477.286 iRoC  1.920
ODOM  50.000  794.000  1.571  2.000  0.000 0  1735631477.296 iRoC  1.930
ODOM  50.000  793.000  1.571  2.000  0.000 0  1735631477.306 iRoC  1.940
ODOM  50.000  792.000  1.571  2.000  0.000 0  1735631477.316 iRoC  1.950
ODOM  50.000  791.000  1.571  2.000  0.000 0  1735631477.326 iRoC  1.960
ODOM  50.000  790.000  1.571  2.000  0.000 0  1735631477.336 iRoC  1.970
ODOM  50.000  789.000  1.571  2.000  0.000 0  1735631477.345 iRoC  1.980
ODOM  50.000  788.000  1.571  2.000  0.000 0  1735631477.355 iRoC  1.990
ODOM  50.000  787.000  1.571  2.000  0.000 0  1735631477.365 iRoC  2.000
ODOM  50.000  786.000  1.551  2.000 -2.000 0  1735631477.375 iRoC  2.010
ODOM  50.000  785.000  1.531  2.000 -2.000 0  1735631477.385 iRoC  2.020
ODOM  50.000  784.000  1.511  2.000 -2.000 0  1735631477.395 iRoC  2.030
ODOM  50.000  783.000  1.491  2.000 -2.000 0  1735631477.405 iRoC  2.040
ODOM  50.000  782.000  1.471  2.000 -2.000 0  1735631477.415 iRoC  2.050
ODOM  50.000  781.000  1.451  2.000 -2.000 0  1735631477.425 iRoC  2.060
ODOM  50.000  780.000  1.431  2.000 -2.000 0  1735631477.435 iRoC  2.070
ODOM  50.000  779.000  1.411  2.000 -2.000 0  1735631477.445 iRoC  2.080
ODOM  50.000  778.000  1.391  2.000 -2.000 0  1735631477.455 iRoC  2.090
ODOM  50.000  777.000  1.371  2.000 -2.000 0  1735631477.465 iRoC  2.100
ODOM  51.000  776.000  1.351  2.000 -2.000 0  1735631477.475 iRoC  2.110
ODOM  51.000  775.000  1.331  2.000 -2.000 0  1735631477.485 iRoC  2.120
ODOM  51.000  774.000  1.311  2.000 -2.000 0  1735631477.495 iRoC  2.130
ODOM  51.000  773.000  1.291  2.000 -2.000 0  1735631477.505 iRoC  2.140
ODOM  52.000  772.000  1.271  2.000 -2.000 0  1735631477.515 iRoC  2.150
ODOM  52.000  771.000  1.251  2.000 -2.000 0  1735631477.525 iRoC  2.160
ODOM  52.000  770.000  1.231  2.000 -2.000 0  1735631477.535 iRoC  2.170
ODOM  53.000  769.000  1.211  2.000 -2.000 0  1735631477.545 iRoC  2.180
ODOM  53.000  768.000  1.191  2.000 -2.000 0  1735631477.555 iRoC  2.190
ODOM  53.000  767.000  1.171  2.000 -2.000 0  1735631477.565 iRoC  2.200
ODOM  54.000  766.000  1.171  2.000  0.000 0  1735631477.575 iRoC  2.210
ODOM  54.000  765.000  1.171  2.000  0.000 0  1735631477.585 iRoC  2.220
ODOM  55.000  764.000  1.171  2.000  0.000 0  1735631477.595 iRoC  2.230
ODOM  55.000  763.000  1.171  2.000  0.000 0  1735631477.605 iRoC  2.240
ODOM  55.000  762.000  1.171  2.000  0.000 0  1735631477.615 iRoC  2.250
ODOM  56.000  762.000  1.171  2.000  0.000 0  1735631477.625 iRoC  2.260
ODOM  56.000  761.000  1.171  2.000  0.000 0  1735631477.635 iRoC  2.270
ODOM  57.000  760.000  1.171  2.000  0.000 0  1735631477.645 iRoC  2.280
ODOM  57.000  759.000  1.171  2.000  0.000 0  1735631477.655 iRoC  2.290
ODOM  57.000  758.000  1.171  2.000  0.000 0  1735631477.665 iRoC  2.300
ODOM  58.000  757.000  1.171  2.000  0.000 0  1735631477.675 iRoC  2.310
ODOM  58.000  756.000  1.171  2.000  0.000 0  1735631477.685 iRoC  2.320
ODOM  59.000  755.000  1.171  2.000  0.000 0  1735631477.695 iRoC  2.330
ODOM  59.000  754.000  1.171  2.000  0.000 0  1735631477.705 iRoC  2.340
ODOM  59.000  753.000  1.171  2.000  0.000 0  1735631477.715 iRoC  2.350
ODOM  60.000  752.000  1.171  2.000  0.000 0  1735631477.725 iRoC  2.360
ODOM  60.000  751.000  1.171  2.000  0.000 0  1735631477.735 iRoC  2.370
ODOM  60.000  750.000  1.171  2.000  0.000 0  1735631477.745 iRoC  2.380
ODOM  61.000  750.000  1.171  2.000  0.000 0  1735631477.755 iRoC  2.390
ODOM  61.000  749.000  1.171  2.000  0.000 0  1735631477.765 iRoC  2.400
ODOM  62.000  748.000  1.171  2.000  0.000 0  1735631477.775 iRoC  2.410
ODOM  62.000  747.000  1.171  2.000  0.000 0  1735631477.785 iRoC  2.420
ODOM  62.000  746.000  1.171  2.000  0.000 0  1735631477.795 iRoC  2.430
ODOM  63.000  745.000  1.171  2.000  0.000 0  1735631477.805 iRoC  2.440
ODOM  63.000  744.000  1.171  2.000  0.000 0  1735631477.815 iRoC  2.450
ODOM  64.000  743.000  1.171  2.000  0.000 0  1735631477.825 iRoC  2.460
ODOM  64.000  742.000  1.171  2.000  0.000 0  1735631477.835 iRoC  2.470
ODOM  64.000  741.000  1.171  2.000  0.000 0  1735631477.845 iRoC  2.480
ODOM  65.000  740.000  1.171  2.000  0.000 0  1735631477.855 iRoC  2.490
ODOM  65.000  739.000  1.171  2.000  0.000 0  1735631477.865 iRoC  2.500
ODOM  66.000  738.000  1.171  2.000  0.000 0  1735631477.875 iRoC  2.510
ODOM  66.000  738.000  1.171  2.000  0.000 0  1735631477.885 iRoC  2.520
ODOM  66.000  737.000  1.171  2.000  0.000 0  1735631477.895 iRoC  2.530
ODOM  67.000  736.000  1.171  2.000  0.000 0  1735631477.905 iRoC  2.540
ODOM  67.000  735.000  1.171  2.000  0.000 0  1735631477.915 iRoC  2.550
ODOM  67.000  734.000  1.171  2.000  0.000 0  1735631477.925 iRoC  2.560
ODOM  68.000  733.000  1.171  2.000  0.000 0  1735631477.935 iRoC  2.570
ODOM  68.000  732.000  1.171  2.000  0.000 0  1735631477.945 iRoC  2.580
ODOM  69.000  731.000  1.171  2.000  0.000 0  1735631477.955 iRoC  2.590
ODOM  69.000  730.000  1.171  2.000  0.000 0  1735631477.965 iRoC  2.600
ODOM  69.000  729.000  1.151  2.000 -2.000 0  1735631477.975 iRoC  2.610
ODOM  70.000  728.000  1.131  2.000 -2.000 0  1735631477.985 iRoC  2.620
ODOM  70.000  727.000  1.111  2.000 -2.000 0  1735631477.995 iRoC  2.630
ODOM  71.000  727.000  1.091  2.000 -2.000 0  1735631478.005 iRoC  2.640
ODOM  71.000  726.000  1.071  2.000 -2.000 0  1735631478.015 iRoC  2.650
ODOM  72.000  725.000  1.051  2.000 -2.000 0  1735631478.025 iRoC  2.660
ODOM  72.000  724.000  1.031  2.000 -2.000 0  1735631478.035 iRoC  2.670
ODOM  73.000  723.000  1.011  2.000 -2.000 0  1735631478.045 iRoC  2.680
ODOM  73.000  722.000  0.991  2.000 -2.000 0  1735631478.055 iRoC  2.690
ODOM  74.000  721.000  0.971  2.000 -2.000 0  1735631478.065 iRoC  2.700
ODOM  74.000  721.000  0.951  2.000 -2.000 0  1735631478.075 iRoC  2.710
ODOM  75.000  720.000  0.931  2.000 -2.000 0  1735631478.085 iRoC  2.720
ODOM  76.000  719.000  0.911  2.000 -2.000 0  1735631478.095 iRoC  2.730
ODOM  76.000  718.000  0.891  2.000 -2.000 0  1735631478.105 iRoC  2.740
ODOM  77.000  717.000  0.871  2.000 -2.000 0  1735631478.115 iRoC  2.750
ODOM  77.000  717.000  0.851  2.000 -2.000 0  1735631478.125 iRoC  2.760
ODOM  78.000  716.000  0.831  2.000 -2.000 0  1735631478.135 iRoC  2.770
ODOM  79.000  715.000  0.811  2.000 -2.000 0  1735631478.145 iRoC  2.780
ODOM  80.000  714.000  0.791  2.000 -2.000 0  1735631478.155 iRoC  2.790
ODOM  80.000  714.000  0.771  2.000 -2.000 0  1735631478.165 iRoC  2.800
ODOM  81.000  713.000  0.771  2.000  0.000 0  1735631478.175 iRoC  2.810
ODOM  82.000  712.000  0.771  2.000  0.000 0  1735631478.185 iRoC  2.820
ODOM  82.000  712.000  0.771  2.000  0.000 0  1735631478.195 iRoC  2.830
ODOM  83.000  711.000  0.771  2.000  0.000 0  1735631478.205 iRoC  2.840
ODOM  84.000  710.000  0.771  2.000  0.000 0  1735631478.215 iRoC  2.850
ODOM  85.000  710.000  0.771  2.000  0.000 0  1735631478.225 iRoC  2.860
ODOM  85.000  709.000  0.771  2.000  0.000 0  1735631478.235 iRoC  2.870
ODOM  86.000  708.000  0.771  2.000  0.000 0  1735631478.245 iRoC  2.880
ODOM  87.000  708.000  0.771  2.000  0.000 0  1735631478.255 iRoC  2.890
ODOM  87.000  707.000  0.771  2.000  0.000 0  1735631478.265 iRoC  2.900
ODOM  88.000  706.000  0.771  2.000  0.000 0  1735631478.275 iRoC  2.910
ODOM  89.000  705.000  0.771  2.000  0.000 0  1735631478.285 iRoC  2.920
ODOM  90.000  705.000  0.771  2.000  0.000 0  1735631478.295 iRoC  2.930
ODOM  90.000  704.000  0.771  2.000  0.000 0  1735631478.305 iRoC  2.940
ODOM  91.000  703.000  0.771  2.000  0.000 0  1735631478.315 iRoC  2.950
ODOM  92.000  703.000  0.771  2.000  0.000 0  1735631478.325 iRoC  2.960
ODOM  92.000  702.000  0.771  2.000  0.000 0  1735631478.335 iRoC  2.970
ODOM  93.000  701.000  0.771  2.000  0.000 0  1735631478.345 iRoC  2.980
ODOM  94.000  701.000  0.771  2.000  0.000 0  1735631478.355 iRoC  2.990
ODOM  95.000  700.000  0.771  2.000  0.000 0  1735631478.365 iRoC  3.000
ODOM  95.000  699.000  0.771  2.000  0.000 0  1735631478.375 iRoC  3.010
ODOM  96.000  698.000  0.771  2.000  0.000 0  1735631478.385 iRoC  3.020
ODOM  97.000  698.000  0.771  2.000  0.000 0  1735631478.395 iRoC  3.030
ODOM  97.000  697.000  0.771  2.000  0.000 0  1735631478.405 iRoC  3.040
ODOM  98.000  696.000  0.771  2.000  0.000 0  1735631478.415 iRoC  3.050
ODOM  99.000  696.000  0.771  2.000  0.000 0  1735631478.425 iRoC  3.060
ODOM  100.000  695.000  0.771  2.000  0.000 0  1735631478.435 iRoC  3.070
ODOM  100.000  694.000  0.771  2.000  0.000 0  1735631478.445 iRoC  3.080
ODOM  101.000  694.000  0.771  2.000  0.000 0  1735631478.455 iRoC  3.090
ODOM  102.000  693.000  0.771  2.000  0.000 0  1735631478.465 iRoC  3.100
ODOM  102.000  692.000  0.771  2.000  0.000 0  1735631478.475 iRoC  3.110
ODOM  103.000  691.000  0.771  2.000  0.000 0  1735631478.485 iRoC  3.120
ODOM  104.000  691.000  0.771  2.000  0.000 0  1735631478.495 iRoC  3.130
ODOM  105.000  690.000  0.771  2.000  0.000 0  1735631478.505 iRoC  3.140
ODOM  105.000  689.000  0.771  2.000  0.000 0  1735631478.515 iRoC  3.150
ODOM  106.000  689.000  0.771  2.000  0.000 0  1735631478.525 iRoC  3.160
ODOM  107.000  688.000  0.771  2.000  0.000 0  1735631478.535 iRoC  3.170
ODOM  108.000  687.000  0.771  2.000  0.000 0  1735631478.545 iRoC  3.180
ODOM  108.000  687.000  0.771  2.000  0.000 0  1735631478.555 iRoC  3.190
ODOM  109.000  686.000  0.771  2.000  0.000 0  1735631478.565 iRoC  3.200
ODOM  110.000  685.000  0.771  2.000  0.000 0  1735631478.575 iRoC  3.210
ODOM  110.000  685.000  0.771  2.000  0.000 0  1735631478.585 iRoC  3.220
ODOM  111.000  684.000  0.771  2.000  0.000 0  1735631478.595 iRoC  3.230
ODOM  112.000  683.000  0.771  2.000  0.000 0  1735631478.605 iRoC  3.240
ODOM  113.000  682.000  0.771  2.000  0.000 0  1735631478.615 iRoC  3.250
ODOM  113.000  682.000  0.771  2.000  0.000 0  1735631478.625 iRoC  3.260
ODOM  114.000  681.000  0.771  2.000  0.000 0  1735631478.635 iRoC  3.270
ODOM  115.000  680.000  0.771  2.000  0.000 0  1735631478.645 iRoC  3.280
ODOM  115.000  680.000  0.771  2.000  0.000 0  1735631478.655 iRoC  3.290
ODOM  116.000  679.000  0.771  2.000  0.000 0  1735631478.665 iRoC  3.300
ODOM  117.000  678.000  0.771  2.000  0.000 0  1735631478.675 iRoC  3.310
ODOM  118.000  678.000  0.771  2.000  0.000 0  1735631478.685 iRoC  3.320
ODOM  118.000  677.000  0.771  2.000  0.000 0  1735631478.695 iRoC  3.330
ODOM  119.000  676.000  0.771  2.000  0.000 0  1735631478.705 iRoC  3.340
ODOM  120.000  675.000  0.771  2.000  0.000 0  1735631478.715 iRoC  3.350
ODOM  120.000  675.000  0.771  2.000  0.000 0  1735631478.725 iRoC  3.360
ODOM  121.000  674.000  0.771  2.000  0.000 0  1735631478.735 iRoC  3.370
ODOM  122.000  673.000  0.771  2.000  0.000 0  1735631478.745 iRoC  3.380
ODOM  123.000  673.000  0.771  2.000  0.000 0  1735631478.755 iRoC  3.390
ODOM  123.000  672.000  0.771  2.000  0.000 0  1735631478.765 iRoC  3.400
ODOM  124.000  671.000  0.771  2.000  0.000 0  1735631478.775 iRoC  3.410
ODOM  125.000  671.000  0.771  2.000  0.000 0  1735631478.785 iRoC  3.420
ODOM  125.000  670.000  0.771  2.000  0.000 0  1735631478.795 iRoC  3.430
ODOM  126.000  669.000  0.771  2.000  0.000 0  1735631478.805 iRoC  3.440
ODOM  127.000  669.000  0.771  2.000  0.000 0  1735631478.815 iRoC  3.450
ODOM  128.000  668.000  0.771  2.000  0.000 0  1735631478.825 iRoC  3.460
ODOM  128.000  667.000  0.771  2.000  0.000 0  1735631478.835 iRoC  3.470
ODOM  129.000  666.000  0.771  2.000  0.000 0  1735631478.845 iRoC  3.480
ODOM  130.000  666.000  0.771  2.000  0.000 0  1735631478.855 iRoC  3.490
ODOM  130.000  665.000  0.771  2.000  0.000 0  1735631478.865 iRoC  3.500
ODOM  131.000  664.000  0.771  2.000  0.000 0  1735631478.875 iRoC  3.510
ODOM  132.000  664.000  0.771  2.000  0.000 0  1735631478.885 iRoC  3.520
ODOM  133.000  663.000  0.771  2.000  0.000 0  1735631478.895 iRoC  3.530
ODOM  133.000  662.000  0.771  2.000  0.000 0  1735631478.905 iRoC  3.540
ODOM  134.000  662.000  0.771  2.000  0.000 0  1735631478.915 iRoC  3.550
ODOM  135.000  661.000  0.771  2.000  0.000 0  1735631478.925 iRoC  3.560
ODOM  135.000  660.000  0.771  2.000  0.000 0  1735631478.935 iRoC  3.570
ODOM  136.000  659.000  0.771  2.000  0.000 0  1735631478.945 iRoC  3.580
ODOM  137.000  659.000  0.771  2.000  0.000 0  1735631478.955 iRoC  3.590
ODOM  138.000  658.000  0.771  2.000  0.000 0  1735631478.965 iRoC  3.600
ODOM  138.000  657.000  0.771  2.000  0.000 0  1735631478.975 iRoC  3.610
ODOM  139.000  657.000  0.771  2.000  0.000 0  1735631478.985 iRoC  3.620
ODOM  140.000  656.000  0.771  2.000  0.000 0  1735631478.995 iRoC  3.630
ODOM  140.000  655.000  0.771  2.000  0.000 0  1735631479.005 iRoC  3.640
ODOM  141.000  655.000  0.771  2.000  0.000 0  1735631479.015 iRoC  3.650
ODOM  142.000  654.000  0.771  2.000  0.000 0  1735631479.025 iRoC  3.660
ODOM  143.000  653.000  0.771  2.000  0.000 0  1735631479.035 iRoC  3.670
ODOM  143.000  652.000  0.771  2.000  0.000 0  1735631479.045 iRoC  3.680
ODOM  144.000  652.000  0.771  2.000  0.000 0  1735631479.055 iRoC  3.690
ODOM  145.000  651.000  0.771  2.000  0.000 0  1735631479.065 iRoC  3.700
ODOM  146.000  650.000  0.771  2.000  0.000 0  1735631479.075 iRoC  3.710
ODOM  146.000  650.000  0.771  2.000  0.000 0  1735631479.085 iRoC  3.720
ODOM  147.000  649.000  0.771  2.000  0.000 0  1735631479.095 iRoC  3.730
ODOM  148.000  648.000  0.771  2.000  0.000 0  1735631479.105 iRoC  3.740
ODOM  148.000  648.000  0.771  2.000  0.000 0  1735631479.115 iRoC  3.750
ODOM  149.000  647.000  0.771  2.000  0.000 0  1735631479.125 iRoC  3.760
ODOM  150.000  646.000  0.771  2.000  0.000 0  1735631479.135 iRoC  3.770
ODOM  151.000  646.000  0.771  2.000  0.000 0  1735631479.145 iRoC  3.780
ODOM  151.000  645.000  0.771  2.000  0.000 0  1735631479.155 iRoC  3.790
ODOM  152.000  644.000  0.771  2.000  0.000 0  1735631479.165 iRoC  3.800
ODOM  153.000  643.000  0.771  2.000  0.000 0  1735631479.175 iRoC  3.810
ODOM  153.000  643.000  0.771  2.000  0.000 0  1735631479.185 iRoC  3.820
ODOM  154.000  642.000  0.771  2.000  0.000 0  1735631479.195 iRoC  3.830
ODOM  155.000  641.000  0.771  2.000  0.000 0  1735631479.205 iRoC  3.840
ODOM  156.000  641.000  0.771  2.000  0.000 0  1735631479.215 iRoC  3.850
ODOM  156.000  640.000  0.771  2.000  0.000 0  1735631479.225 iRoC  3.860
ODOM  157.000  639.000  0.771  2.000  0.000 0  1735631479.235 iRoC  3.870
ODOM  158.000  639.000  0.771  2.000  0.000 0  1735631479.245 iRoC  3.880
ODOM  158.000  638.000  0.771  2.000  0.000 0  1735631479.255 iRoC  3.890
ODOM  159.000  637.000  0.771  2.000  0.000 0  1735631479.265 iRoC  3.900
ODOM  160.000  636.000  0.771  2.000  0.000 0  1735631479.275 iRoC  3.910
ODOM  161.000  636.000  0.771  2.000  0.000 0  1735631479.285 iRoC  3.920
ODOM  161.000  635.000  0.771  2.000  0.000 0  1735631479.295 iRoC  3.930
ODOM  162.000  634.000  0.771  2.000  0.000 0  1735631479.305 iRoC  3.940
ODOM  163.000  634.000  0.771  2.000  0.000 0  1735631479.315 iRoC  3.950
ODOM  163.000  633.000  0.771  2.000  0.000 0  1735631479.325 iRoC  3.960
ODOM  164.000  632.000  0.771  2.000  0.000 0  1735631479.335 iRoC  3.970
ODOM  165.000  632.000  0.771  2.000  0.000 0  1735631479.345 iRoC  3.980
ODOM  166.000  631.000  0.771  2.000  0.000 0  1735631479.355 iRoC  3.990
ODOM  166.000  630.000  0.771  2.000  0.000 0  1735631479.365 iRoC  4.000
ODOM  167.000  629.000  0.771  2.000  0.000 0  1735631479.375 iRoC  4.010
ODOM  168.000  629.000  0.771  2.000  0.000 0  1735631479.385 iRoC  4.020
ODOM  168.000  628.000  0.771  2.000  0.000 0  1735631479.395 iRoC  4.030
ODOM  169.000  627.000  0.771  2.000  0.000 0  1735631479.405 iRoC  4.040
ODOM  170.000  627.000  0.771  2.000  0.000 0  1735631479.415 iRoC  4.050
ODOM  171.000  626.000  0.771  2.000  0.000 0  1735631479.425 iRoC  4.060
ODOM  171.000  625.000  0.771  2.000  0.000 0  1735631479.435 iRoC  4.070
ODOM  172.000  625.000  0.771  2.000  0.000 0  1735631479.445 iRoC  4.080
ODOM  173.000  624.000  0.771  2.000  0.000 0  1735631479.455 iRoC  4.090
ODOM  173.000  623.000  0.771  2.000  0.000 0  1735631479.465 iRoC  4.100
ODOM  174.000  623.000  0.771  2.000  0.000 0  1735631479.475 iRoC  4.110
ODOM  175.000  622.000  0.771  2.000  0.000 0  1735631479.485 iRoC  4.120
ODOM  176.000  621.000  0.771  2.000  0.000 0  1735631479.495 iRoC  4.130
ODOM  176.000  620.000  0.771  2.000  0.000 0  1735631479.505 iRoC  4.140
ODOM  177.000  620.000  0.771  2.000  0.000 0  1735631479.515 iRoC  4.150
ODOM  178.000  619.000  0.771  2.000  0.000 0  1735631479.525 iRoC  4.160
ODOM  179.000  618.000  0.771  2.000  0.000 0  1735631479.535 iRoC  4.170
ODOM  179.000  618.000  0.771  2.000  0.000 0  1735631479.545 iRoC  4.180
ODOM  180.000  617.000  0.771  2.000  0.000 0  1735631479.555 iRoC  4.190
ODOM  181.000  616.000  0.771  2.000  0.000 0  1735631479.565 iRoC  4.200
ODOM  181.000  616.000  0.791  2.000  2.000 0  1735631479.575 iRoC  4.210
ODOM  182.000  615.000  0.811  2.000  2.000 0  1735631479.585 iRoC  4.220
ODOM  183.000  614.000  0.831  2.000  2.000 0  1735631479.595 iRoC  4.230
ODOM  183.000  613.000  0.851  2.000  2.000 0  1735631479.605 iRoC  4.240
ODOM  184.000  613.000  0.871  2.000  2.000 0  1735631479.615 iRoC  4.250
ODOM  185.000  612.000  0.891  2.000  2.000 0  1735631479.625 iRoC  4.260
ODOM  185.000  611.000  0.911  2.000  2.000 0  1735631479.635 iRoC  4.270
ODOM  186.000  610.000  0.931  2.000  2.000 0  1735631479.645 iRoC  4.280
ODOM  187.000  609.000  0.951  2.000  2.000 0  1735631479.655 iRoC  4.290
ODOM  187.000  609.000  0.971  2.000  2.000 0  1735631479.665 iRoC  4.300
ODOM  188.000  608.000  0.991  2.000  2.000 0  1735631479.675 iRoC  4.310
ODOM  188.000  607.000  1.011  2.000  2.000 0  1735631479.685 iRoC  4.320
ODOM  189.000  606.000  1.031  2.000  2.000 0  1735631479.695 iRoC  4.330
ODOM  189.000  605.000  1.051  2.000  2.000 0  1735631479.705 iRoC  4.340
ODOM  190.000  604.000  1.051  2.000  0.000 0  1735631479.715 iRoC  4.350
ODOM  190.000  603.000  1.051  2.000  0.000 0  1735631479.725 iRoC  4.360
ODOM  191.000  603.000  1.051  2.000  0.000 0  1735631479.735 iRoC  4.370
ODOM  191.000  602.000  1.051  2.000  0.000 0  1735631479.745 iRoC  4.380
ODOM  192.000  601.000  1.051  2.000  0.000 0  1735631479.755 iRoC  4.390
ODOM  192.000  600.000  1.051  2.000  0.000 0  1735631479.765 iRoC  4.400
ODOM  193.000  599.000  1.051  2.000  0.000 0  1735631479.775 iRoC  4.410
ODOM  193.000  598.000  1.051  2.000  0.000 0  1735631479.785 iRoC  4.420
ODOM  194.000  597.000  1.051  2.000  0.000 0  1735631479.795 iRoC  4.430
ODOM  194.000  597.000  1.051  2.000  0.000 0  1735631479.805 iRoC  4.440
ODOM  195.000  596.000  1.051  2.000  0.000 0  1735631479.815 iRoC  4.450
ODOM  195.000  595.000  1.051  2.000  0.000 0  1735631479.825 iRoC  4.460
ODOM  196.000  594.000  1.051  2.000  0.000 0  1735631479.835 iRoC  4.470
ODOM  196.000  593.000  1.051  2.000  0.000 0  1735631479.845 iRoC  4.480
ODOM  197.000  592.000  1.051  2.000  0.000 0  1735631479.855 iRoC  4.490
ODOM  197.000  591.000  1.051  2.000  0.000 0  1735631479.865 iRoC  4.500
ODOM  198.000  590.000  1.051  2.000  0.000 0  1735631479.875 iRoC  4.510
ODOM  198.000  590.000  1.051  2.000  0.000 0  1735631479.885 iRoC  4.520
ODOM  199.000  589.000  1.051  2.000  0.000 0  1735631479.895 iRoC  4.530
ODOM  199.000  588.000  1.051  2.000  0.000 0  1735631479.905 iRoC  4.540
ODOM  200.000  587.000  1.071  2.000  2.000 0  1735631479.915 iRoC  4.550
ODOM  200.000  586.000  1.091  2.000  2.000 0  1735631479.925 iRoC  4.560
ODOM  201.000  585.000  1.111  2.000  2.000 0  1735631479.935 iRoC  4.570
ODOM  201.000  584.000  1.131  2.000  2.000 0  1735631479.945 iRoC  4.580
ODOM  201.000  583.000  1.151  2.000  2.000 0  1735631479.955 iRoC  4.590
ODOM  202.000  582.000  1.171  2.000  2.000 0  1735631479.965 iRoC  4.600
ODOM  202.000  582.000  1.171  2.000  0.000 0  1735631479.975 iRoC  4.610
ODOM  203.000  581.000  1.171  2.000  0.000 0  1735631479.985 iRoC  4.620
ODOM  203.000  580.000  1.171  2.000  0.000 0  1735631479.995 iRoC  4.630
ODOM  203.000  579.000  1.171  2.000  0.000 0  1735631480.005 iRoC  4.640
ODOM  204.000  578.000  1.171  2.000  0.000 0  1735631480.015 iRoC  4.650
ODOM  204.000  577.000  1.171  2.000  0.000 0  1735631480.025 iRoC  4.660
ODOM  205.000  576.000  1.171  2.000  0.000 0  1735631480.035 iRoC  4.670
ODOM  205.000  575.000  1.171  2.000  0.000 0  1735631480.045 iRoC  4.680
ODOM  205.000  574.000  1.171  2.000  0.000 0  1735631480.055 iRoC  4.690
ODOM  206.000  573.000  1.171  2.000  0.000 0  1735631480.065 iRoC  4.700
ODOM  206.000  572.000  1.171  2.000  0.000 0  1735631480.075 iRoC  4.710
ODOM  206.000  571.000  1.171  2.000  0.000 0  1735631480.085 iRoC  4.720
ODOM  207.000  571.000  1.171  2.000  0.000 0  1735631480.095 iRoC  4.730
ODOM  207.000  570.000  1.171  2.000  0.000 0  1735631480.105 iRoC  4.740
ODOM  208.000  569.000  1.171  2.000  0.000 0  1735631480.115 iRoC  4.750
ODOM  208.000  568.000  1.171  2.000  0.000 0  1735631480.125 iRoC  4.760
ODOM  208.000  567.000  1.171  2.000  0.000 0  1735631480.135 iRoC  4.770
ODOM  209.000  566.000  1.171  2.000  0.000 0  1735631480.145 iRoC  4.780
ODOM  209.000  565.000  1.171  2.000  0.000 0  1735631480.155 iRoC  4.790
ODOM  210.000  564.000  1.171  2.000  0.000 0  1735631480.165 iRoC  4.800
ODOM  210.000  563.000  1.191  2.000  2.000 0  1735631480.175 iRoC  4.810
ODOM  210.000  562.000  1.211  2.000  2.000 0  1735631480.185 iRoC  4.820
ODOM  211.000  561.000  1.231  2.000  2.000 0  1735631480.195 iRoC  4.830
ODOM  211.000  560.000  1.251  2.000  2.000 0  1735631480.205 iRoC  4.840
ODOM  211.000  559.000  1.271  2.000  2.000 0  1735631480.215 iRoC  4.850
ODOM  212.000  558.000  1.271  2.000  0.000 0  1735631480.225 iRoC  4.860
ODOM  212.000  557.000  1.271  2.000  0.000 0  1735631480.235 iRoC  4.870
ODOM  212.000  557.000  1.271  2.000  0.000 0  1735631480.245 iRoC  4.880
ODOM  213.000  556.000  1.271  2.000  0.000 0  1735631480.255 iRoC  4.890
ODOM  213.000  555.000  1.271  2.000  0.000 0  1735631480.265 iRoC  4.900
ODOM  213.000  554.000  1.271  2.000  0.000 0  1735631480.275 iRoC  4.910
ODOM  213.000  553.000  1.271  2.000  0.000 0  1735631480.285 iRoC  4.920
ODOM  214.000  552.000  1.271  2.000  0.000 0  1735631480.295 iRoC  4.930
ODOM  214.000  551.000  1.271  2.000  0.000 0  1735631480.305 iRoC  4.940
ODOM  214.000  550.000  1.271  2.000  0.000 0  1735631480.315 iRoC  4.950
ODOM  215.000  549.000  1.271  2.000  0.000 0  1735631480.325 iRoC  4.960
ODOM  215.000  548.000  1.271  2.000  0.000 0  1735631480.335 iRoC  4.970
ODOM  215.000  547.000  1.271  2.000  0.000 0  1735631480.345 iRoC  4.980
ODOM  215.000  546.000  1.271  2.000  0.000 0  1735631480.355 iRoC  4.990
ODOM  216.000  545.000  1.271  2.000  0.000 0  1735631480.365 iRoC  5.000
ODOM  216.000  544.000  1.271  2.000  0.000 0  1735631480.375 iRoC  5.010
ODOM  216.000  543.000  1.271  2.000  0.000 0  1735631480.385 iRoC  5.020
ODOM  217.000  542.000  1.271  2.000  0.000 0  1735631480.395 iRoC  5.030
ODOM  217.000  541.000  1.271  2.000  0.000 0  1735631480.405 iRoC  5.040
ODOM  217.000  540.000  1.271  2.000  0.000 0  1735631480.415 iRoC  5.050
ODOM  218.000  539.000  1.271  2.000  0.000 0  1735631480.425 iRoC  5.060
ODOM  218.000  538.000  1.271  2.000  0.000 0  1735631480.435 iRoC  5.070
ODOM  218.000  537.000  1.271  2.000  0.000 0  1735631480.445 iRoC  5.080
ODOM  218.000  536.000  1.271  2.000  0.000 0  1735631480.455 iRoC  5.090
ODOM  219.000  535.000  1.271  2.000  0.000 0  1735631480.465 iRoC  5.100
ODOM  219.000  535.000  1.271  2.000  0.000 0  1735631480.475 iRoC  5.110
ODOM  219.000  534.000  1.271  2.000  0.000 0  1735631480.485 iRoC  5.120
ODOM  220.000  533.000  1.271  2.000  0.000 0  1735631480.495 iRoC  5.130
ODOM  220.000  532.000  1.271  2.000  0.000 0  1735631480.505 iRoC  5.140
ODOM  220.000  531.000  1.271  2.000  0.000 0  1735631480.515 iRoC  5.150
ODOM  220.000  530.000  1.291  2.000  2.000 0  1735631480.525 iRoC  5.160
ODOM  221.000  529.000  1.311  2.000  2.000 0  1735631480.535 iRoC  5.170
ODOM  221.000  528.000  1.331  2.000  2.000 0  1735631480.545 iRoC  5.180
ODOM  221.000  527.000  1.351  2.000  2.000 0  1735631480.555 iRoC  5.190
ODOM  221.000  526.000  1.371  2.000  2.000 0  1735631480.565 iRoC  5.200
ODOM  222.000  525.000  1.371  2.000  0.000 0  1735631480.575 iRoC  5.210
ODOM  222.000  524.000  1.371  2.000  0.000 0  1735631480.585 iRoC  5.220
ODOM  222.000  523.000  1.371  2.000  0.000 0  1735631480.595 iRoC  5.230
ODOM  222.000  522.000  1.371  2.000  0.000 0  1735631480.605 iRoC  5.240
ODOM  222.000  521.000  1.371  2.000  0.000 0  1735631480.615 iRoC  5.250
ODOM  223.000  520.000  1.371  2.000  0.000 0  1735631480.625 iRoC  5.260
ODOM  223.000  519.000  1.371  2.000  0.000 0  1735631480.635 iRoC  5.270
ODOM  223.000  518.000  1.371  2.000  0.000 0  1735631480.645 iRoC  5.280
ODOM  223.000  517.000  1.371  2.000  0.000 0  1735631480.655 iRoC  5.290
ODOM  223.000  516.000  1.371  2.000  0.000 0  1735631480.665 iRoC  5.300
ODOM  224.000  515.000  1.371  2.000  0.000 0  1735631480.675 iRoC  5.310
ODOM  224.000  514.000  1.371  2.000  0.000 0  1735631480.685 iRoC  5.320
ODOM  224.000  513.000  1.371  2.000  0.000 0  1735631480.695 iRoC  5.330
ODOM  224.000  512.000  1.371  2.000  0.000 0  1735631480.705 iRoC  5.340
ODOM  224.000  511.000  1.371  2.000  0.000 0  1735631480.715 iRoC  5.350
ODOM  225.000  510.000  1.371  2.000  0.000 0  1735631480.725 iRoC  5.360
ODOM  225.000  509.000  1.371  2.000  0.000 0  1735631480.735 iRoC  5.370
ODOM  225.000  508.000  1.371  2.000  0.000 0  1735631480.745 iRoC  5.380
ODOM  225.000  507.000  1.371  2.000  0.000 0  1735631480.755 iRoC  5.390
ODOM  225.000  506.000  1.371  2.000  0.000 0  1735631480.765 iRoC  5.400
ODOM  226.000  505.000  1.351  2.000 -2.000 0  1735631480.775 iRoC  5.410
ODOM  226.000  504.000  1.331  2.000 -2.000 0  1735631480.785 iRoC  5.420
ODOM  226.000  503.000  1.311  2.000 -2.000 0  1735631480.795 iRoC  5.430
ODOM  226.000  502.000  1.291  2.000 -2.000 0  1735631480.805 iRoC  5.440
ODOM  227.000  501.000  1.271  2.000 -2.000 0  1735631480.815 iRoC  5.450
ODOM  227.000  500.000  1.251  2.000 -2.000 0  1735631480.825 iRoC  5.460
ODOM  227.000  500.000  1.231  2.000 -2.000 0  1735631480.835 iRoC  5.470
ODOM  228.000  499.000  1.211  2.000 -2.000 0  1735631480.845 iRoC  5.480
ODOM  228.000  498.000  1.191  2.000 -2.000 0  1735631480.855 iRoC  5.490
ODOM  228.000  497.000  1.171  2.000 -2.000 0  1735631480.865 iRoC  5.500
ODOM  229.000  496.000  1.151  2.000 -2.000 0  1735631480.875 iRoC  5.510
ODOM  229.000  495.000  1.131  2.000 -2.000 0  1735631480.885 iRoC  5.520
ODOM  230.000  494.000  1.111  2.000 -2.000 0  1735631480.895 iRoC  5.530
ODOM  230.000  493.000  1.091  2.000 -2.000 0  1735631480.905 iRoC  5.540
ODOM  231.000  492.000  1.071  2.000 -2.000 0  1735631480.915 iRoC  5.550
ODOM  231.000  491.000  1.051  2.000 -2.000 0  1735631480.925 iRoC  5.560
ODOM  232.000  491.000  1.031  2.000 -2.000 0  1735631480.935 iRoC  5.570
ODOM  232.000  490.000  1.011  2.000 -2.000 0  1735631480.945 iRoC  5.580
ODOM  233.000  489.000  0.991  2.000 -2.000 0  1735631480.955 iRoC  5.590
ODOM  233.000  488.000  0.971  2.000 -2.000 0  1735631480.965 iRoC  5.600
ODOM  234.000  487.000  0.971  2.000  0.000 0  1735631480.975 iRoC  5.610
ODOM  234.000  486.000  0.971  2.000  0.000 0  1735631480.985 iRoC  5.620
ODOM  235.000  486.000  0.971  2.000  0.000 0  1735631480.995 iRoC  5.630
ODOM  235.000  485.000  0.971  2.000  0.000 0  1735631481.005 iRoC  5.640
ODOM  236.000  484.000  0.971  2.000  0.000 0  1735631481.015 iRoC  5.650
ODOM  237.000  483.000  0.971  2.000  0.000 0  1735631481.025 iRoC  5.660
ODOM  237.000  482.000  0.971  2.000  0.000 0  1735631481.035 iRoC  5.670
ODOM  238.000  481.000  0.971  2.000  0.000 0  1735631481.045 iRoC  5.680
ODOM  238.000  481.000  0.971  2.000  0.000 0  1735631481.055 iRoC  5.690
ODOM  239.000  480.000  0.971  2.000  0.000 0  1735631481.065 iRoC  5.700
ODOM  239.000  479.000  0.971  2.000  0.000 0  1735631481.075 iRoC  5.710
ODOM  240.000  478.000  0.971  2.000  0.000 0  1735631481.085 iRoC  5.720
ODOM  240.000  477.000  0.971  2.000  0.000 0  1735631481.095 iRoC  5.730
ODOM  241.000  476.000  0.971  2.000  0.000 0  1735631481.105 iRoC  5.740
ODOM  242.000  476.000  0.971  2.000  0.000 0  1735631481.115 iRoC  5.750
ODOM  242.000  475.000  0.971  2.000  0.000 0  1735631481.125 iRoC  5.760
ODOM  243.000  474.000  0.971  2.000  0.000 0  1735631481.135 iRoC  5.770
ODOM  243.000  473.000  0.971  2.000  0.000 0  1735631481.145 iRoC  5.780
ODOM  244.000  472.000  0.971  2.000  0.000 0  1735631481.155 iRoC  5.790
ODOM  244.000  471.000  0.971  2.000  0.000 0  1735631481.165 iRoC  5.800
ODOM  245.000  471.000  0.951  2.000 -2.000 0  1735631481.175 iRoC  5.810
ODOM  246.000  470.000  0.931  2.000 -2.000 0  1735631481.185 iRoC  5.820
ODOM  246.000  469.000  0.911  2.000 -2.000 0  1735631481.195 iRoC  5.830
ODOM  247.000  468.000  0.891  2.000 -2.000 0  1735631481.205 iRoC  5.840
ODOM  247.000  467.000  0.871  2.000 -2.000 0  1735631481.215 iRoC  5.850
ODOM  248.000  467.000  0.851  2.000 -2.000 0  1735631481.225 iRoC  5.860
ODOM  249.000  466.000  0.831  2.000 -2.000 0  1735631481.235 iRoC  5.870
ODOM  249.000  465.000  0.811  2.000 -2.000 0  1735631481.245 iRoC  5.880
ODOM  250.000  465.000  0.791  2.000 -2.000 0  1735631481.255 iRoC  5.890
ODOM  251.000  464.000  0.771  2.000 -2.000 0  1735631481.265 iRoC  5.900
ODOM  252.000  463.000  0.751  2.000 -2.000 0  1735631481.275 iRoC  5.910
ODOM  252.000  462.000  0.731  2.000 -2.000 0  1735631481.285 iRoC  5.920
ODOM  253.000  462.000  0.711  2.000 -2.000 0  1735631481.295 iRoC  5.930
ODOM  254.000  461.000  0.691  2.000 -2.000 0  1735631481.305 iRoC  5.940
ODOM  255.000  461.000  0.671  2.000 -2.000 0  1735631481.315 iRoC  5.950
ODOM  255.000  460.000  0.651  2.000 -2.000 0  1735631481.325 iRoC  5.960
ODOM  256.000  459.000  0.631  2.000 -2.000 0  1735631481.335 iRoC  5.970
ODOM  257.000  459.000  0.611  2.000 -2.000 0  1735631481.345 iRoC  5.980
ODOM  258.000  458.000  0.591  2.000 -2.000 0  1735631481.355 iRoC  5.990
ODOM  259.000  458.000  0.571  2.000 -2.000 0  1735631481.365 iRoC  6.000
ODOM  260.000  457.000  0.551  2.000 -2.000 0  1735631481.375 iRoC  6.010
ODOM  260.000  457.000  0.531  2.000 -2.000 0  1735631481.385 iRoC  6.020
ODOM  261.000  456.000  0.511  2.000 -2.000 0  1735631481.395 iRoC  6.030
ODOM  262.000  456.000  0.491  2.000 -2.000 0  1735631481.405 iRoC  6.040
ODOM  263.000  455.000  0.471  2.000 -2.000 0  1735631481.415 iRoC  6.050
ODOM  264.000  455.000  0.451  2.000 -2.000 0  1735631481.425 iRoC  6.060
ODOM  265.000  454.000  0.431  2.000 -2.000 0  1735631481.435 iRoC  6.070
ODOM  266.000  454.000  0.411  2.000 -2.000 0  1735631481.445 iRoC  6.080
ODOM  267.000  453.000  0.391  2.000 -2.000 0  1735631481.455 iRoC  6.090
ODOM  268.000  453.000  0.371  2.000 -2.000 0  1735631481.465 iRoC  6.100
ODOM  269.000  453.000  0.351  2.000 -2.000 0  1735631481.475 iRoC  6.110
ODOM  269.000  452.000  0.331  2.000 -2.000 0  1735631481.485 iRoC  6.120
ODOM  270.000  452.000  0.311  2.000 -2.000 0  1735631481.495 iRoC  6.130
ODOM  271.000  452.000  0.291  2.000 -2.000 0  1735631481.505 iRoC  6.140
ODOM  272.000  452.000  0.271  2.000 -2.000 0  1735631481.515 iRoC  6.150
ODOM  273.000  451.000  0.251  2.000 -2.000 0  1735631481.525 iRoC  6.160
ODOM  274.000  451.000  0.231  2.000 -2.000 0  1735631481.535 iRoC  6.170
ODOM  275.000  451.000  0.211  2.000 -2.000 0  1735631481.545 iRoC  6.180
ODOM  276.000  451.000  0.191  2.000 -2.000 0  1735631481.555 iRoC  6.190
ODOM  277.000  450.000  0.171  2.000 -2.000 0  1735631481.565 iRoC  6.200
ODOM  278.000  450.000  0.171  2.000  0.000 0  1735631481.575 iRoC  6.210
ODOM  279.000  450.000  0.171  2.000  0.000 0  1735631481.585 iRoC  6.220
ODOM  280.000  450.000  0.171  2.000  0.000 0  1735631481.595 iRoC  6.230
ODOM  281.000  450.000  0.171  2.000  0.000 0  1735631481.605 iRoC  6.240
ODOM  282.000  450.000  0.171  2.000  0.000 0  1735631481.615 iRoC  6.250
ODOM  283.000  449.000  0.171  2.000  0.000 0  1735631481.625 iRoC  6.260
ODOM  284.000  449.000  0.171  2.000  0.000 0  1735631481.635 iRoC  6.270
ODOM  285.000  449.000  0.171  2.000  0.000 0  1735631481.645 iRoC  6.280
ODOM  286.000  449.000  0.171  2.000  0.000 0  1735631481.655 iRoC  6.290
ODOM  287.000  449.000  0.171  2.000  0.000 0  1735631481.665 iRoC  6.300
ODOM  288.000  449.000  0.171  2.000  0.000 0  1735631481.675 iRoC  6.310
ODOM  289.000  448.000  0.171  2.000  0.000 0  1735631481.685 iRoC  6.320
ODOM  290.000  448.000  0.171  2.000  0.000 0  1735631481.695 iRoC  6.330
ODOM  291.000  448.000  0.171  2.000  0.000 0  1735631481.705 iRoC  6.340
ODOM  292.000  448.000  0.151  2.000 -2.000 0  1735631481.715 iRoC  6.350
ODOM  293.000  448.000  0.131  2.000 -2.000 0  1735631481.725 iRoC  6.360
ODOM  294.000  448.000  0.111  2.000 -2.000 0  1735631481.735 iRoC  6.370
ODOM  295.000  448.000  0.091  2.000 -2.000 0  1735631481.745 iRoC  6.380
ODOM  296.000  447.000  0.071  2.000 -2.000 0  1735631481.755 iRoC  6.390
ODOM  297.000  447.000  0.051  2.000 -2.000 0  1735631481.765 iRoC  6.400
ODOM  298.000  447.000  0.031  2.000 -2.000 0  1735631481.775 iRoC  6.410
ODOM  299.000  447.000  0.011  2.000 -2.000 0  1735631481.785 iRoC  6.420
ODOM  300.000  447.000 -0.009  2.000 -2.000 0  1735631481.795 iRoC  6.430
ODOM  301.000  447.000 -0.029  2.000 -2.000 0  1735631481.805 iRoC  6.440
ODOM  302.000  447.000 -0.029  2.000  0.000 0  1735631481.815 iRoC  6.450
ODOM  303.000  447.000 -0.029  2.000  0.000 0  1735631481.825 iRoC  6.460
ODOM  304.000  447.000 -0.029  2.000  0.000 0  1735631481.835 iRoC  6.470
ODOM  305.000  447.000 -0.029  2.000  0.000 0  1735631481.845 iRoC  6.480
ODOM  306.000  447.000 -0.029  2.000  0.000 0  1735631481.855 iRoC  6.490
ODOM  307.000  448.000 -0.029  2.000  0.000 0  1735631481.865 iRoC  6.500
ODOM  308.000  448.000 -0.029  2.000  0.000 0  1735631481.875 iRoC  6.510
ODOM  309.000  448.000 -0.029  2.000  0.000 0  1735631481.885 iRoC  6.520
ODOM  310.000  448.000 -0.029  2.000  0.000 0  1735631481.895 iRoC  6.530
ODOM  311.000  448.000 -0.029  2.000  0.000 0  1735631481.905 iRoC  6.540
ODOM  312.000  448.000 -0.029  2.000  0.000 0  1735631481.915 iRoC  6.550
ODOM  313.000  448.000 -0.029  2.000  0.000 0  1735631481.925 iRoC  6.560
ODOM  314.000  448.000 -0.029  2.000  0.000 0  1735631481.935 iRoC  6.570
ODOM  315.000  448.000 -0.029  2.000  0.000 0  1735631481.945 iRoC  6.580
ODOM  316.000  448.000 -0.029  2.000  0.000 0  1735631481.955 iRoC  6.590
ODOM  317.000  448.000 -0.029  2.000  0.000 0  1735631481.965 iRoC  6.600
ODOM  318.000  448.000 -0.029  2.000  0.000 0  1735631481.975 iRoC  6.610
ODOM  319.000  448.000 -0.029  2.000  0.000 0  1735631481.985 iRoC  6.620
ODOM  320.000  448.000 -0.029  2.000  0.000 0  1735631481.995 iRoC  6.630
ODOM  321.000  448.000 -0.029  2.000  0.000 0  1735631482.005 iRoC  6.640
ODOM  322.000  448.000 -0.029  2.000  0.000 0  1735631482.015 iRoC  6.650
ODOM  323.000  448.000 -0.029  2.000  0.000 0  1735631482.025 iRoC  6.660
ODOM  324.000  448.000 -0.029  2.000  0.000 0  1735631482.035 iRoC  6.670
ODOM  325.000  448.000 -0.029  2.000  0.000 0  1735631482.045 iRoC  6.680
ODOM  326.000  448.000 -0.029  2.000  0.000 0  1735631482.055 iRoC  6.690
ODOM  327.000  448.000 -0.029  2.000  0.000 0  1735631482.065 iRoC  6.700
ODOM  328.000  448.000 -0.029  2.000  0.000 0  1735631482.075 iRoC  6.710
ODOM  329.000  448.000 -0.029  2.000  0.000 0  1735631482.085 iRoC  6.720
ODOM  330.000  448.000 -0.029  2.000  0.000 0  1735631482.095 iRoC  6.730
ODOM  331.000  448.000 -0.029  2.000  0.000 0  1735631482.105 iRoC  6.740
ODOM  332.000  448.000 -0.029  2.000  0.000 0  1735631482.115 iRoC  6.750
ODOM  333.000  448.000 -0.029  2.000  0.000 0  1735631482.125 iRoC  6.760
ODOM  334.000  448.000 -0.029  2.000  0.000 0  1735631482.135 iRoC  6.770
ODOM  335.000  448.000 -0.029  2.000  0.000 0  1735631482.145 iRoC  6.780
ODOM  336.000  448.000 -0.029  2.000  0.000 0  1735631482.155 iRoC  6.790
ODOM  337.000  448.000 -0.029  2.000  0.000 0  1735631482.165 iRoC  6.800
ODOM  338.000  448.000 -0.049  2.000 -2.000 0  1735631482.175 iRoC  6.810
ODOM  339.000  448.000 -0.069  2.000 -2.000 0  1735631482.185 iRoC  6.820
ODOM  340.000  449.000 -0.089  2.000 -2.000 0  1735631482.195 iRoC  6.830
ODOM  341.000  449.000 -0.109  2.000 -2.000 0  1735631482.205 iRoC  6.840
ODOM  342.000  449.000 -0.129  2.000 -2.000 0  1735631482.215 iRoC  6.850
ODOM  343.000  449.000 -0.149  2.000 -2.000 0  1735631482.225 iRoC  6.860
ODOM  344.000  449.000 -0.169  2.000 -2.000 0  1735631482.235 iRoC  6.870
ODOM  345.000  449.000 -0.189  2.000 -2.000 0  1735631482.245 iRoC  6.880
ODOM  346.000  449.000 -0.209  2.000 -2.000 0  1735631482.255 iRoC  6.890
ODOM  347.000  450.000 -0.229  2.000 -2.000 0  1735631482.265 iRoC  6.900
ODOM  348.000  450.000 -0.249  2.000 -2.000 0  1735631482.275 iRoC  6.910
ODOM  349.000  450.000 -0.249  2.000  0.000 0  1735631482.285 iRoC  6.920
ODOM  350.000  450.000 -0.249  2.000  0.000 0  1735631482.295 iRoC  6.930
ODOM  351.000  451.000 -0.249  2.000  0.000 0  1735631482.305 iRoC  6.940
ODOM  352.000  451.000 -0.249  2.000  0.000 0  1735631482.315 iRoC  6.950
ODOM  353.000  451.000 -0.249  2.000  0.000 0  1735631482.325 iRoC  6.960
ODOM  354.000  451.000 -0.249  2.000  0.000 0  1735631482.335 iRoC  6.970
ODOM  355.000  452.000 -0.249  2.000  0.000 0  1735631482.345 iRoC  6.980
ODOM  356.000  452.000 -0.249  2.000  0.000 0  1735631482.355 iRoC  6.990
ODOM  357.000  452.000 -0.249  2.000  0.000 0  1735631482.365 iRoC  7.000
ODOM  358.000  452.000 -0.249  2.000  0.000 0  1735631482.375 iRoC  7.010
ODOM  358.000  453.000 -0.249  2.000  0.000 0  1735631482.385 iRoC  7.020
ODOM  359.000  453.000 -0.249  2.000  0.000 0  1735631482.395 iRoC  7.030
ODOM  360.000  453.000 -0.249  2.000  0.000 0  1735631482.405 iRoC  7.040
ODOM  361.000  453.000 -0.249  2.000  0.000 0  1735631482.415 iRoC  7.050
ODOM  362.000  454.000 -0.249  2.000  0.000 0  1735631482.425 iRoC  7.060
ODOM  363.000  454.000 -0.249  2.000  0.000 0  1735631482.435 iRoC  7.070
ODOM  364.000  454.000 -0.249  2.000  0.000 0  1735631482.445 iRoC  7.080
ODOM  365.000  454.000 -0.249  2.000  0.000 0  1735631482.455 iRoC  7.090
ODOM  366.000  455.000 -0.249  2.000  0.000 0  1735631482.465 iRoC  7.100
ODOM  367.000  455.000 -0.249  2.000  0.000 0  1735631482.475 iRoC  7.110
ODOM  368.000  455.000 -0.249  2.000  0.000 0  1735631482.485 iRoC  7.120
ODOM  369.000  455.000 -0.249  2.000  0.000 0  1735631482.495 iRoC  7.130
ODOM  370.000  456.000 -0.249  2.000  0.000 0  1735631482.505 iRoC  7.140
ODOM  371.000  456.000 -0.229  2.000  2.000 0  1735631482.515 iRoC  7.150
ODOM  372.000  456.000 -0.209  2.000  2.000 0  1735631482.525 iRoC  7.160
ODOM  373.000  456.000 -0.189  2.000  2.000 0  1735631482.535 iRoC  7.170
ODOM  374.000  456.000 -0.169  2.000  2.000 0  1735631482.545 iRoC  7.180
ODOM  375.000  457.000 -0.149  2.000  2.000 0  1735631482.555 iRoC  7.190
ODOM  376.000  457.000 -0.129  2.000  2.000 0  1735631482.565 iRoC  7.200
ODOM  377.000  457.000 -0.129  2.000  0.000 0  1735631482.575 iRoC  7.210
ODOM  378.000  457.000 -0.129  2.000  0.000 0  1735631482.585 iRoC  7.220
ODOM  379.000  457.000 -0.129  2.000  0.000 0  1735631482.595 iRoC  7.230
ODOM  380.000  457.000 -0.129  2.000  0.000 0  1735631482.605 iRoC  7.240
ODOM  381.000  457.000 -0.129  2.000  0.000 0  1735631482.615 iRoC  7.250
ODOM  382.000  457.000 -0.129  2.000  0.000 0  1735631482.625 iRoC  7.260
ODOM  383.000  458.000 -0.129  2.000  0.000 0  1735631482.635 iRoC  7.270
ODOM  384.000  458.000 -0.129  2.000  0.000 0  1735631482.645 iRoC  7.280
ODOM  385.000  458.000 -0.129  2.000  0.000 0  1735631482.655 iRoC  7.290
ODOM  386.000  458.000 -0.129  2.000  0.000 0  1735631482.665 iRoC  7.300
ODOM  387.000  458.000 -0.129  2.000  0.000 0  1735631482.675 iRoC  7.310
ODOM  388.000  458.000 -0.129  2.000  0.000 0  1735631482.685 iRoC  7.320
ODOM  389.000  458.000 -0.129  2.000  0.000 0  1735631482.695 iRoC  7.330
ODOM  390.000  459.000 -0.129  2.000  0.000 0  1735631482.705 iRoC  7.340
ODOM  391.000  459.000 -0.129  2.000  0.000 0  1735631482.715 iRoC  7.350
ODOM  392.000  459.000 -0.129  2.000  0.000 0  1735631482.725 iRoC  7.360
ODOM  393.000  459.000 -0.129  2.000  0.000 0  1735631482.735 iRoC  7.370
ODOM  394.000  459.000 -0.129  2.000  0.000 0  1735631482.745 iRoC  7.380
ODOM  395.000  459.000 -0.129  2.000  0.000 0  1735631482.755 iRoC  7.390
ODOM  396.000  459.000 -0.129  2.000  0.000 0  1735631482.765 iRoC  7.400
ODOM  397.000  459.000 -0.109  2.000  2.000 0  1735631482.775 iRoC  7.410
ODOM  398.000  460.000 -0.089  2.000  2.000 0  1735631482.785 iRoC  7.420
ODOM  399.000  460.000 -0.069  2.000  2.000 0  1735631482.795 iRoC  7.430
ODOM  400.000  460.000 -0.049  2.000  2.000 0  1735631482.805 iRoC  7.440
ODOM  401.000  460.000 -0.029  2.000  2.000 0  1735631482.815 iRoC  7.450
ODOM  402.000  460.000 -0.009  2.000  2.000 0  1735631482.825 iRoC  7.460
ODOM  403.000  460.000  0.011  2.000  2.000 0  1735631482.835 iRoC  7.470
ODOM  404.000  460.000  0.011  2.000  0.000 0  1735631482.845 iRoC  7.480
ODOM  405.000  460.000  0.011  2.000  0.000 0  1735631482.855 iRoC  7.490
ODOM  406.000  460.000  0.011  2.000  0.000 0  1735631482.865 iRoC  7.500
ODOM  407.000  460.000  0.011  2.000  0.000 0  1735631482.875 iRoC  7.510
ODOM  408.000  460.000  0.011  2.000  0.000 0  1735631482.885 iRoC  7.520
ODOM  409.000  460.000  0.011  2.000  0.000 0  1735631482.895 iRoC  7.530
ODOM  410.000  460.000  0.011  2.000  0.000 0  1735631482.905 iRoC  7.540
ODOM  411.000  460.000  0.011  2.000  0.000 0  1735631482.915 iRoC  7.550
ODOM  412.000  460.000  0.011  2.000  0.000 0  1735631482.925 iRoC  7.560
ODOM  413.000  460.000  0.011  2.000  0.000 0  1735631482.935 iRoC  7.570
ODOM  414.000  460.000  0.011  2.000  0.000 0  1735631482.945 iRoC  7.580
ODOM  415.000  460.000  0.011  2.000  0.000 0  1735631482.955 iRoC  7.590
ODOM  416.000  460.000  0.011  2.000  0.000 0  1735631482.965 iRoC  7.600
ODOM  417.000  460.000  0.031  2.000  2.000 0  1735631482.975 iRoC  7.610
ODOM  418.000  460.000  0.051  2.000  2.000 0  1735631482.985 iRoC  7.620
ODOM  419.000  459.000  0.071  2.000  2.000 0  1735631482.995 iRoC  7.630
ODOM  420.000  459.000  0.091  2.000  2.000 0  1735631483.005 iRoC  7.640
ODOM  421.000  459.000  0.111  2.000  2.000 0  1735631483.015 iRoC  7.650
ODOM  422.000  459.000  0.131  2.000  2.000 0  1735631483.025 iRoC  7.660
ODOM  423.000  459.000  0.151  2.000  2.000 0  1735631483.035 iRoC  7.670
ODOM  424.000  459.000  0.171  2.000  2.000 0  1735631483.045 iRoC  7.680
ODOM  425.000  459.000  0.191  2.000  2.000 0  1735631483.055 iRoC  7.690
ODOM  426.000  458.000  0.211  2.000  2.000 0  1735631483.065 iRoC  7.700
ODOM  427.000  458.000  0.231  2.000  2.000 0  1735631483.075 iRoC  7.710
ODOM  428.000  458.000  0.251  2.000  2.000 0  1735631483.085 iRoC  7.720
ODOM  429.000  458.000  0.271  2.000  2.000 0  1735631483.095 iRoC  7.730
ODOM  430.000  457.000  0.271  2.000  0.000 0  1735631483.105 iRoC  7.740
ODOM  431.000  457.000  0.271  2.000  0.000 0  1735631483.115 iRoC  7.750
ODOM  432.000  457.000  0.271  2.000  0.000 0  1735631483.125 iRoC  7.760
ODOM  432.000  457.000  0.271  2.000  0.000 0  1735631483.135 iRoC  7.770
ODOM  433.000  456.000  0.271  2.000  0.000 0  1735631483.145 iRoC  7.780
ODOM  434.000  456.000  0.271  2.000  0.000 0  1735631483.155 iRoC  7.790
ODOM  435.000  456.000  0.271  2.000  0.000 0  1735631483.165 iRoC  7.800
ODOM  436.000  456.000  0.271  2.000  0.000 0  1735631483.175 iRoC  7.810
ODOM  437.000  455.000  0.271  2.000  0.000 0  1735631483.185 iRoC  7.820
ODOM  438.000  455.000  0.271  2.000  0.000 0  1735631483.195 iRoC  7.830
ODOM  439.000  455.000  0.271  2.000  0.000 0  1735631483.205 iRoC  7.840
ODOM  440.000  455.000  0.271  2.000  0.000 0  1735631483.215 iRoC  7.850
ODOM  441.000  454.000  0.271  2.000  0.000 0  1735631483.225 iRoC  7.860
ODOM  442.000  454.000  0.271  2.000  0.000 0  1735631483.235 iRoC  7.870
ODOM  443.000  454.000  0.271  2.000  0.000 0  1735631483.245 iRoC  7.880
ODOM  444.000  453.000  0.271  2.000  0.000 0  1735631483.255 iRoC  7.890
ODOM  445.000  453.000  0.271  2.000  0.000 0  1735631483.265 iRoC  7.900
ODOM  446.000  453.000  0.271  2.000  0.000 0  1735631483.275 iRoC  7.910
ODOM  447.000  453.000  0.271  2.000  0.000 0  1735631483.285 iRoC  7.920
ODOM  448.000  452.000  0.271  2.000  0.000 0  1735631483.295 iRoC  7.930
ODOM  449.000  452.000  0.271  2.000  0.000 0  1735631483.305 iRoC  7.940
ODOM  450.000  452.000  0.271  2.000  0.000 0  1735631483.315 iRoC  7.950
ODOM  451.000  452.000  0.271  2.000  0.000 0  1735631483.325 iRoC  7.960
ODOM  452.000  451.000  0.251  2.000 -2.000 0  1735631483.335 iRoC  7.970
ODOM  453.000  451.000  0.231  2.000 -2.000 0  1735631483.345 iRoC  7.980
ODOM  454.000  451.000  0.211  2.000 -2.000 0  1735631483.355 iRoC  7.990
ODOM  455.000  451.000  0.191  2.000 -2.000 0  1735631483.365 iRoC  8.000
ODOM  456.000  450.000  0.191  2.000  0.000 0  1735631483.375 iRoC  8.010
ODOM  457.000  450.000  0.191  2.000  0.000 0  1735631483.385 iRoC  8.020
ODOM  458.000  450.000  0.191  2.000  0.000 0  1735631483.395 iRoC  8.030
ODOM  459.000  450.000  0.191  2.000  0.000 0  1735631483.405 iRoC  8.040
ODOM  460.000  450.000  0.191  2.000  0.000 0  1735631483.415 iRoC  8.050
ODOM  461.000  450.000  0.191  2.000  0.000 0  1735631483.425 iRoC  8.060
ODOM  462.000  449.000  0.191  2.000  0.000 0  1735631483.435 iRoC  8.070
ODOM  463.000  449.000  0.191  2.000  0.000 0  1735631483.445 iRoC  8.080
ODOM  464.000  449.000  0.191  2.000  0.000 0  1735631483.455 iRoC  8.090
ODOM  465.000  449.000  0.191  2.000  0.000 0  1735631483.465 iRoC  8.100
ODOM  465.000  449.000  0.191  2.000  0.000 0  1735631483.475 iRoC  8.110
ODOM  466.000  448.000  0.191  2.000  0.000 0  1735631483.485 iRoC  8.120
ODOM  467.000  448.000  0.191  2.000  0.000 0  1735631483.495 iRoC  8.130
ODOM  468.000  448.000  0.191  2.000  0.000 0  1735631483.505 iRoC  8.140
