x_pixel, y_pixel, heading_rad,velocity_trans,velocity_rot, 0, start_timestamp, iRoc, end_timestamp
ODOM  50.0000,  614.0000,  1.5708,  0.0000,  0.0000, 0,  1735548430.083, iRoC,  161.001
ODOM  50.0000,  614.0000,  1.5708,  0.0000,  0.0000, 0,  1735548430.083, iRoC,  161.001
ODOM  50.0000,  614.0000,  1.5708,  0.0000,  0.0000, 0,  1735548430.083, iRoC,  161.001
ODOM  50.0000,  614.0000,  1.5708,  0.0000,  0.0000, 0,  1735548430.083, iRoC,  161.001
ODOM  50.0000,  614.0000,  1.5708,  0.0000,  0.0000, 0,  1735548430.083, iRoC,  161.001
ODOM  50.0000,  614.0000,  1.5708,  0.0000,  0.0000, 0,  1735548430.083, iRoC,  161.001
ODOM  50.0000,  614.0000,  1.5708,  0.0000,  0.0000, 0,  1735548430.083, iRoC,  161.001
ODOM  50.0000,  614.0000,  1.5708,  0.0000,  0.0000, 0,  1735548430.083, iRoC,  161.001
ODOM  50.0000,  614.0000,  1.5708,  0.0000,  0.0000, 0,  1735548430.083, iRoC,  161.001
ODOM  50.0000,  614.0000,  1.5708,  0.0000,  0.0000, 0,  1735548430.083, iRoC,  161.001
ODOM  50.0000,  614.0000,  1.5708,  0.0000,  0.0000, 0,  1735548430.083, iRoC,  161.001
ODOM  50.0000,  614.0000,  1.5708,  0.0000,  0.0000, 0,  1735548430.083, iRoC,  161.001
ODOM  50.0000,  614.0000,  1.5708,  0.0000,  0.0000, 0,  1735548430.083, iRoC,  161.001
ODOM  50.0000,  614.0000,  1.5708,  0.0000,  0.0000, 0,  1735548430.083, iRoC,  161.001
ODOM  50.0000,  614.0000,  1.5708,  0.0000,  0.0000, 0,  1735548430.083, iRoC,  161.001
ODOM  50.0000,  614.0000,  1.5708,  0.0000,  0.0000, 0,  1735548430.083, iRoC,  161.001
ODOM  50.0000,  614.0000,  1.5708,  0.0000,  0.0000, 0,  1735548430.083, iRoC,  161.001
ODOM  50.0000,  614.0000,  1.5708,  0.0000,  0.0000, 0,  1735548430.083, iRoC,  161.001
ODOM  50.0000,  614.0000,  1.5708,  0.0000,  0.0000, 0,  1735548430.083, iRoC,  161.001
ODOM  50.0000,  614.0000,  1.5708,  0.0000,  0.0000, 0,  1735548430.083, iRoC,  161.001
ODOM  50.0000,  614.0000,  1.5708,  0.0000,  0.0000, 0,  1735548430.083, iRoC,  161.001
ODOM  50.0000,  614.0000,  1.5708,  0.0000,  0.0000, 0,  1735548430.083, iRoC,  161.001
ODOM  50.0000,  614.0000,  1.5708,  0.0000,  0.0000, 0,  1735548430.083, iRoC,  161.001
ODOM  50.0000,  614.0000,  1.5708,  0.0000,  0.0000, 0,  1735548430.083, iRoC,  161.001
ODOM  50.0000,  614.0000,  1.5708,  0.0000,  0.0000, 0,  1735548430.083, iRoC,  161.001
ODOM  50.0000,  614.0000,  1.5708,  0.0000,  0.0000, 0,  1735548430.083, iRoC,  161.001
ODOM  50.0000,  614.0000,  1.5708,  0.0000,  0.0000, 0,  1735548430.083, iRoC,  161.001
ODOM  50.0000,  614.0000,  1.5708,  0.0000,  0.0000, 0,  1735548430.083, iRoC,  161.001
ODOM  50.0000,  614.0000,  1.5708,  0.0000,  0.0000, 0,  1735548430.083, iRoC,  161.001
ODOM  50.0000,  614.0000,  1.5708,  0.0000,  0.0000, 0,  1735548430.083, iRoC,  161.001
ODOM  50.0000,  614.0000,  1.5708,  0.0000,  0.0000, 0,  1735548430.083, iRoC,  161.001
ODOM  50.0000,  614.0000,  1.5708,  0.0000,  0.0000, 0,  1735548430.083, iRoC,  161.001
ODOM  50.0000,  614.0000,  1.5708,  0.0000,  0.0000, 0,  1735548430.083, iRoC,  161.001
ODOM  50.0000,  614.0000,  1.5708,  0.0000,  0.0000, 0,  1735548430.083, iRoC,  161.001
ODOM  50.0000,  614.0000,  1.5708,  0.0000,  0.0000, 0,  1735548430.083, iRoC,  161.001
ODOM  50.0000,  614.0000,  1.5708,  0.0000,  0.0000, 0,  1735548430.083, iRoC,  161.001
ODOM  50.0000,  614.0000,  1.5708,  0.0000,  0.0000, 0,  1735548430.083, iRoC,  161.001
ODOM  50.0000,  614.0000,  1.5708,  0.0000,  0.0000, 0,  1735548430.083, iRoC,  161.001
ODOM  50.0000,  614.0000,  1.5708,  0.0000,  0.0000, 0,  1735548430.083, iRoC,  161.001
ODOM  50.0000,  614.0000,  1.5708,  0.0000,  0.0000, 0,  1735548430.083, iRoC,  161.001
ODOM  50.0000,  614.0000,  1.5708,  0.0000,  0.0000, 0,  1735548430.083, iRoC,  161.001
ODOM  50.0000,  614.0000,  1.5708,  0.0000,  0.0000, 0,  1735548430.083, iRoC,  161.001
ODOM  50.0000,  614.0000,  1.5708,  0.0000,  0.0000, 0,  1735548430.083, iRoC,  161.001
ODOM  50.0000,  614.0000,  1.5708,  0.0000,  0.0000, 0,  1735548430.083, iRoC,  161.001
ODOM  50.0000,  614.0000,  1.5708,  0.0000,  0.0000, 0,  1735548430.083, iRoC,  161.001
ODOM  50.0000,  614.0000,  1.5708,  0.0000,  0.0000, 0,  1735548430.083, iRoC,  161.001
ODOM  50.0000,  614.0000,  1.5708,  0.0000,  0.0000, 0,  1735548430.083, iRoC,  161.001
ODOM  50.0000,  614.0000,  1.5708,  0.0000,  0.0000, 0,  1735548430.083, iRoC,  161.001
ODOM  50.0000,  614.0000,  1.5708,  0.0000,  0.0000, 0,  1735548430.083, iRoC,  161.001
ODOM  50.0000,  614.0000,  1.5708,  0.0000,  0.0000, 0,  1735548430.083, iRoC,  161.001
ODOM  50.0000,  614.0000,  1.5708,  0.0000,  0.0000, 0,  1735548430.083, iRoC,  161.001
ODOM  50.0000,  614.0000,  1.5708,  0.0000,  0.0000, 0,  1735548430.083, iRoC,  161.001
ODOM  50.0000,  614.0000,  1.5708,  0.0000,  0.0000, 0,  1735548430.083, iRoC,  161.001
ODOM  50.0000,  614.0000,  1.5708,  0.0000,  0.0000, 0,  1735548430.083, iRoC,  161.001
ODOM  50.0000,  614.0000,  1.5708,  0.0000,  0.0000, 0,  1735548430.083, iRoC,  161.001
ODOM  50.0000,  614.0000,  1.5708,  0.0000,  0.0000, 0,  1735548430.083, iRoC,  161.001
ODOM  50.0000,  614.0000,  1.5708,  0.0000,  0.0000, 0,  1735548430.083, iRoC,  161.001
ODOM  50.0000,  614.0000,  1.5708,  0.0000,  0.0000, 0,  1735548430.083, iRoC,  161.001
ODOM  50.0000,  614.0000,  1.5708,  0.0000,  0.0000, 0,  1735548430.083, iRoC,  161.001
ODOM  50.0000,  614.0000,  1.5708,  0.0000,  0.0000, 0,  1735548430.083, iRoC,  161.001
ODOM  50.0000,  614.0000,  1.5708,  0.0000,  0.0000, 0,  1735548430.083, iRoC,  161.001
ODOM  50.0000,  614.0000,  1.5708,  0.0000,  0.0000, 0,  1735548430.083, iRoC,  161.001
ODOM  50.0000,  614.0000,  1.5708,  0.0000,  0.0000, 0,  1735548430.083, iRoC,  161.001
ODOM  50.0000,  614.0000,  1.5708,  0.0000,  0.0000, 0,  1735548430.083, iRoC,  161.001
ODOM  50.0000,  614.0000,  1.5708,  0.0000,  0.0000, 0,  1735548430.083, iRoC,  161.001
ODOM  50.0000,  614.0000,  1.5708,  0.0000,  0.0000, 0,  1735548430.083, iRoC,  161.001
ODOM  50.0000,  614.0000,  1.5708,  0.0000,  0.0000, 0,  1735548430.083, iRoC,  161.001
ODOM  50.0000,  614.0000,  1.5708,  0.0000,  0.0000, 0,  1735548430.083, iRoC,  161.001
ODOM  50.0000,  614.0000,  1.5708,  0.0000,  0.0000, 0,  1735548430.083, iRoC,  161.001
ODOM  50.0000,  614.0000,  1.5708,  0.0000,  0.0000, 0,  1735548430.083, iRoC,  161.001
ODOM  50.0000,  614.0000,  1.5708,  0.0000,  0.0000, 0,  1735548430.083, iRoC,  161.001
ODOM  50.0000,  614.0000,  1.5708,  0.0000,  0.0000, 0,  1735548430.083, iRoC,  161.001
ODOM  50.0000,  614.0000,  1.5708,  0.0000,  0.0000, 0,  1735548430.083, iRoC,  161.001
ODOM  50.0000,  614.0000,  1.5708,  0.0000,  0.0000, 0,  1735548430.083, iRoC,  161.001
ODOM  50.0000,  614.0000,  1.5708,  0.0000,  0.0000, 0,  1735548430.083, iRoC,  161.001
ODOM  50.0000,  614.0000,  1.5708,  0.0000,  0.0000, 0,  1735548430.083, iRoC,  161.001
ODOM  50.0000,  614.0000,  1.5708,  0.0000,  0.0000, 0,  1735548430.083, iRoC,  161.001
ODOM  50.0000,  614.0000,  1.5708,  0.0000,  0.0000, 0,  1735548430.083, iRoC,  161.001
ODOM  50.0000,  614.0000,  1.5708,  0.0000,  0.0000, 0,  1735548430.083, iRoC,  161.001
ODOM  50.0000,  614.0000,  1.5708,  0.0000,  0.0000, 0,  1735548430.083, iRoC,  161.001
ODOM  50.0000,  614.0000,  1.5708,  0.0000,  0.0000, 0,  1735548430.083, iRoC,  161.001
ODOM  50.0000,  614.0000,  1.5708,  0.0000,  0.0000, 0,  1735548430.083, iRoC,  161.001
ODOM  50.0000,  614.0000,  1.5708,  0.0000,  0.0000, 0,  1735548430.083, iRoC,  161.001
ODOM  50.0000,  614.0000,  1.5708,  0.0000,  0.0000, 0,  1735548430.083, iRoC,  161.001
ODOM  50.0000,  614.0000,  1.5708,  0.0000,  0.0000, 0,  1735548430.083, iRoC,  161.001
ODOM  50.0000,  614.0000,  1.5708,  0.0000,  0.0000, 0,  1735548430.083, iRoC,  161.001
ODOM  50.0000,  614.0000,  1.5508,  0.0000, -2.0000, 0,  1735548430.083, iRoC,  161.001
ODOM  50.0000,  614.0000,  1.5308,  0.0000, -2.0000, 0,  1735548430.083, iRoC,  161.001
ODOM  50.0000,  614.0000,  1.5108,  0.0000, -2.0000, 0,  1735548430.083, iRoC,  161.001
ODOM  50.0000,  614.0000,  1.4908,  0.0000, -2.0000, 0,  1735548430.083, iRoC,  161.001
ODOM  50.0000,  614.0000,  1.4708,  0.0000, -2.0000, 0,  1735548430.083, iRoC,  161.001
ODOM  50.0000,  614.0000,  1.4508,  0.0000, -2.0000, 0,  1735548430.083, iRoC,  161.001
ODOM  50.0000,  614.0000,  1.4308,  0.0000, -2.0000, 0,  1735548430.083, iRoC,  161.001
ODOM  50.0000,  614.0000,  1.4108,  0.0000, -2.0000, 0,  1735548430.083, iRoC,  161.001
ODOM  50.0000,  614.0000,  1.3908,  0.0000, -2.0000, 0,  1735548430.083, iRoC,  161.001
ODOM  50.0000,  614.0000,  1.3708,  0.0000, -2.0000, 0,  1735548430.083, iRoC,  161.001
ODOM  50.0000,  614.0000,  1.3508,  0.0000, -2.0000, 0,  1735548430.083, iRoC,  161.001
ODOM  50.0000,  614.0000,  1.3508,  0.0000,  0.0000, 0,  1735548430.083, iRoC,  161.001
ODOM  50.0000,  614.0000,  1.3508,  0.0000,  0.0000, 0,  1735548430.083, iRoC,  161.001
ODOM  50.0000,  614.0000,  1.3508,  0.0000,  0.0000, 0,  1735548430.083, iRoC,  161.001
ODOM  50.0000,  614.0000,  1.3308,  0.0000, -2.0000, 0,  1735548430.083, iRoC,  161.001
ODOM  50.0000,  614.0000,  1.3108,  0.0000, -2.0000, 0,  1735548430.083, iRoC,  161.001
ODOM  50.0000,  614.0000,  1.2908,  0.0000, -2.0000, 0,  1735548430.083, iRoC,  161.001
ODOM  50.0000,  614.0000,  1.2708,  0.0000, -2.0000, 0,  1735548430.083, iRoC,  161.001
ODOM  50.0000,  614.0000,  1.2508,  0.0000, -2.0000, 0,  1735548430.083, iRoC,  161.001
ODOM  50.0000,  614.0000,  1.2308,  0.0000, -2.0000, 0,  1735548430.083, iRoC,  161.001
ODOM  50.0000,  614.0000,  1.2108,  0.0000, -2.0000, 0,  1735548430.083, iRoC,  161.001
ODOM  50.0000,  614.0000,  1.1908,  0.0000, -2.0000, 0,  1735548430.083, iRoC,  161.001
ODOM  50.0000,  614.0000,  1.1708,  0.0000, -2.0000, 0,  1735548430.083, iRoC,  161.001
ODOM  50.0000,  614.0000,  1.1508,  0.0000, -2.0000, 0,  1735548430.083, iRoC,  161.001
ODOM  50.0000,  614.0000,  1.1308,  0.0000, -2.0000, 0,  1735548430.083, iRoC,  161.001
ODOM  50.0000,  614.0000,  1.1108,  0.0000, -2.0000, 0,  1735548430.083, iRoC,  161.001
ODOM  50.0000,  614.0000,  1.0908,  0.0000, -2.0000, 0,  1735548430.083, iRoC,  161.001
ODOM  50.0000,  614.0000,  1.0708,  0.0000, -2.0000, 0,  1735548430.083, iRoC,  161.001
ODOM  50.0000,  614.0000,  1.0508,  0.0000, -2.0000, 0,  1735548430.083, iRoC,  161.001
ODOM  50.0000,  614.0000,  1.0308,  0.0000, -2.0000, 0,  1735548430.083, iRoC,  161.001
ODOM  50.0000,  614.0000,  1.0108,  0.0000, -2.0000, 0,  1735548430.083, iRoC,  161.001
ODOM  50.0000,  614.0000,  0.9908,  0.0000, -2.0000, 0,  1735548430.083, iRoC,  161.001
ODOM  50.0000,  614.0000,  0.9708,  0.0000, -2.0000, 0,  1735548430.083, iRoC,  161.001
ODOM  50.0000,  614.0000,  0.9508,  0.0000, -2.0000, 0,  1735548430.083, iRoC,  161.001
ODOM  50.0000,  614.0000,  0.9308,  0.0000, -2.0000, 0,  1735548430.083, iRoC,  161.001
ODOM  50.0000,  614.0000,  0.9108,  0.0000, -2.0000, 0,  1735548430.083, iRoC,  161.001
ODOM  50.0000,  614.0000,  0.8908,  0.0000, -2.0000, 0,  1735548430.083, iRoC,  161.001
ODOM  50.0000,  614.0000,  0.8708,  0.0000, -2.0000, 0,  1735548430.083, iRoC,  161.001
ODOM  50.0000,  614.0000,  0.8508,  0.0000, -2.0000, 0,  1735548430.083, iRoC,  161.001
ODOM  50.0000,  614.0000,  0.8308,  0.0000, -2.0000, 0,  1735548430.083, iRoC,  161.001
ODOM  50.0000,  614.0000,  0.8108,  0.0000, -2.0000, 0,  1735548430.083, iRoC,  161.001
ODOM  50.0000,  614.0000,  0.7908,  0.0000, -2.0000, 0,  1735548430.083, iRoC,  161.001
ODOM  50.0000,  614.0000,  0.7708,  0.0000, -2.0000, 0,  1735548430.083, iRoC,  161.001
ODOM  50.0000,  614.0000,  0.7508,  0.0000, -2.0000, 0,  1735548430.083, iRoC,  161.001
ODOM  50.0000,  614.0000,  0.7308,  0.0000, -2.0000, 0,  1735548430.083, iRoC,  161.001
ODOM  50.0000,  614.0000,  0.7108,  0.0000, -2.0000, 0,  1735548430.083, iRoC,  161.001
ODOM  50.0000,  614.0000,  0.6908,  0.0000, -2.0000, 0,  1735548430.083, iRoC,  161.001
ODOM  50.0000,  614.0000,  0.6708,  0.0000, -2.0000, 0,  1735548430.083, iRoC,  161.001
ODOM  50.0000,  614.0000,  0.6508,  0.0000, -2.0000, 0,  1735548430.083, iRoC,  161.001
ODOM  50.0000,  614.0000,  0.6308,  0.0000, -2.0000, 0,  1735548430.083, iRoC,  161.001
ODOM  50.0000,  614.0000,  0.6108,  0.0000, -2.0000, 0,  1735548430.083, iRoC,  161.001
ODOM  50.0000,  614.0000,  0.5908,  0.0000, -2.0000, 0,  1735548430.083, iRoC,  161.001
ODOM  50.0000,  614.0000,  0.5708,  0.0000, -2.0000, 0,  1735548430.083, iRoC,  161.001
ODOM  50.0000,  614.0000,  0.5508,  0.0000, -2.0000, 0,  1735548430.083, iRoC,  161.001
ODOM  50.0000,  614.0000,  0.5308,  0.0000, -2.0000, 0,  1735548430.083, iRoC,  161.001
ODOM  50.0000,  614.0000,  0.5108,  0.0000, -2.0000, 0,  1735548430.083, iRoC,  161.001
ODOM  50.0000,  614.0000,  0.4908,  0.0000, -2.0000, 0,  1735548430.083, iRoC,  161.001
ODOM  50.0000,  614.0000,  0.4908,  0.0000,  0.0000, 0,  1735548430.083, iRoC,  161.001
ODOM  50.0000,  614.0000,  0.4908,  0.0000,  0.0000, 0,  1735548430.083, iRoC,  161.001
ODOM  50.0000,  614.0000,  0.4908,  0.0000,  0.0000, 0,  1735548430.083, iRoC,  161.001
ODOM  50.0000,  614.0000,  0.4908,  0.0000,  0.0000, 0,  1735548430.083, iRoC,  161.001
ODOM  50.0000,  614.0000,  0.4908,  0.0000,  0.0000, 0,  1735548430.083, iRoC,  161.001
ODOM  50.0000,  614.0000,  0.4908,  0.0000,  0.0000, 0,  1735548430.083, iRoC,  161.001
ODOM  50.0000,  614.0000,  0.4708,  0.0000, -2.0000, 0,  1735548430.083, iRoC,  161.001
ODOM  50.0000,  614.0000,  0.4508,  0.0000, -2.0000, 0,  1735548430.083, iRoC,  161.001
ODOM  50.0000,  614.0000,  0.4308,  0.0000, -2.0000, 0,  1735548430.083, iRoC,  161.001
ODOM  50.0000,  614.0000,  0.4108,  0.0000, -2.0000, 0,  1735548430.083, iRoC,  161.001
ODOM  50.0000,  614.0000,  0.3908,  0.0000, -2.0000, 0,  1735548430.083, iRoC,  161.001
ODOM  50.0000,  614.0000,  0.3708,  0.0000, -2.0000, 0,  1735548430.083, iRoC,  161.001
ODOM  50.0000,  614.0000,  0.3508,  0.0000, -2.0000, 0,  1735548430.083, iRoC,  161.001
ODOM  50.0000,  614.0000,  0.3308,  0.0000, -2.0000, 0,  1735548430.083, iRoC,  161.001
ODOM  50.0000,  614.0000,  0.3108,  0.0000, -2.0000, 0,  1735548430.083, iRoC,  161.001
ODOM  50.0000,  614.0000,  0.3108,  0.0000,  0.0000, 0,  1735548430.083, iRoC,  161.001
ODOM  50.0000,  614.0000,  0.3108,  0.0000,  0.0000, 0,  1735548430.083, iRoC,  161.001
ODOM  50.0000,  614.0000,  0.2908,  0.0000, -2.0000, 0,  1735548430.083, iRoC,  161.001
ODOM  50.0000,  614.0000,  0.2708,  0.0000, -2.0000, 0,  1735548430.083, iRoC,  161.001
ODOM  50.0000,  614.0000,  0.2508,  0.0000, -2.0000, 0,  1735548430.083, iRoC,  161.001
ODOM  50.0000,  614.0000,  0.2308,  0.0000, -2.0000, 0,  1735548430.083, iRoC,  161.001
ODOM  50.0000,  614.0000,  0.2108,  0.0000, -2.0000, 0,  1735548430.083, iRoC,  161.001
ODOM  50.0000,  614.0000,  0.1908,  0.0000, -2.0000, 0,  1735548430.083, iRoC,  161.001
ODOM  50.0000,  614.0000,  0.1908,  0.0000,  0.0000, 0,  1735548430.083, iRoC,  161.001
ODOM  50.0000,  614.0000,  0.1908,  0.0000,  0.0000, 0,  1735548430.083, iRoC,  161.001
ODOM  50.0000,  614.0000,  0.1908,  0.0000,  0.0000, 0,  1735548430.083, iRoC,  161.001
ODOM  50.0000,  614.0000,  0.1908,  0.0000,  0.0000, 0,  1735548430.083, iRoC,  161.001
ODOM  50.0000,  614.0000,  0.1708,  0.0000, -2.0000, 0,  1735548430.083, iRoC,  161.001
ODOM  50.0000,  614.0000,  0.1508,  0.0000, -2.0000, 0,  1735548430.083, iRoC,  161.001
ODOM  50.0000,  614.0000,  0.1308,  0.0000, -2.0000, 0,  1735548430.083, iRoC,  161.001
ODOM  50.0000,  614.0000,  0.1108,  0.0000, -2.0000, 0,  1735548430.083, iRoC,  161.001
ODOM  50.0000,  614.0000,  0.0908,  0.0000, -2.0000, 0,  1735548430.083, iRoC,  161.001
ODOM  50.0000,  614.0000,  0.0708,  0.0000, -2.0000, 0,  1735548430.083, iRoC,  161.001
ODOM  50.0000,  614.0000,  0.0508,  0.0000, -2.0000, 0,  1735548430.083, iRoC,  161.001
ODOM  50.0000,  614.0000,  0.0308,  0.0000, -2.0000, 0,  1735548430.083, iRoC,  161.001
ODOM  50.0000,  614.0000,  0.0308,  0.0000,  0.0000, 0,  1735548430.083, iRoC,  161.001
ODOM  50.0000,  614.0000,  0.0308,  0.0000,  0.0000, 0,  1735548430.083, iRoC,  161.001
ODOM  50.0000,  614.0000,  0.0308,  0.0000,  0.0000, 0,  1735548430.083, iRoC,  161.001
ODOM  50.0000,  614.0000,  0.0308,  0.0000,  0.0000, 0,  1735548430.083, iRoC,  161.001
ODOM  50.0000,  614.0000,  0.0308,  0.0000,  0.0000, 0,  1735548430.083, iRoC,  161.001
ODOM  50.0000,  614.0000,  0.0308,  0.0000,  0.0000, 0,  1735548430.083, iRoC,  161.001
ODOM  50.0000,  614.0000,  0.0308,  0.0000,  0.0000, 0,  1735548430.083, iRoC,  161.001
ODOM  50.0000,  614.0000,  0.0308,  0.0000,  0.0000, 0,  1735548430.083, iRoC,  161.001
ODOM  50.0000,  614.0000,  0.0308,  0.0000,  0.0000, 0,  1735548430.083, iRoC,  161.001
ODOM  50.0000,  614.0000,  0.0308,  0.0000,  0.0000, 0,  1735548430.083, iRoC,  161.001
ODOM  50.0000,  614.0000,  0.0308,  0.0000,  0.0000, 0,  1735548430.083, iRoC,  161.001
ODOM  50.0000,  614.0000,  0.0308,  0.0000,  0.0000, 0,  1735548430.083, iRoC,  161.001
ODOM  50.0000,  614.0000,  0.0308,  0.0000,  0.0000, 0,  1735548430.083, iRoC,  161.001
ODOM  50.0000,  614.0000,  0.0308,  0.0000,  0.0000, 0,  1735548430.083, iRoC,  161.001
ODOM  50.0000,  614.0000,  0.0308,  0.0000,  0.0000, 0,  1735548430.083, iRoC,  161.001
ODOM  50.0000,  614.0000,  0.0308,  0.0000,  0.0000, 0,  1735548430.083, iRoC,  161.001
ODOM  50.0000,  614.0000,  0.0308,  0.0000,  0.0000, 0,  1735548430.083, iRoC,  161.001
ODOM  50.0000,  614.0000,  0.0308,  0.0000,  0.0000, 0,  1735548430.083, iRoC,  161.001
ODOM  50.0000,  614.0000,  0.0308,  0.0000,  0.0000, 0,  1735548430.083, iRoC,  161.001
ODOM  50.0000,  614.0000,  0.0308,  0.0000,  0.0000, 0,  1735548430.083, iRoC,  161.001
ODOM  50.0000,  614.0000,  0.0308,  0.0000,  0.0000, 0,  1735548430.083, iRoC,  161.001
ODOM  50.0000,  614.0000,  0.0308,  0.0000,  0.0000, 0,  1735548430.083, iRoC,  161.001
ODOM  50.0000,  614.0000,  0.0308,  0.0000,  0.0000, 0,  1735548430.083, iRoC,  161.001
ODOM  50.0000,  614.0000,  0.0308,  0.0000,  0.0000, 0,  1735548430.083, iRoC,  161.001
ODOM  50.0000,  614.0000,  0.0308,  0.0000,  0.0000, 0,  1735548430.083, iRoC,  161.001
ODOM  50.0000,  614.0000,  0.0308,  0.0000,  0.0000, 0,  1735548430.083, iRoC,  161.001
ODOM  50.0000,  614.0000,  0.0308,  0.0000,  0.0000, 0,  1735548430.083, iRoC,  161.001
ODOM  50.0000,  614.0000,  0.0308,  0.0000,  0.0000, 0,  1735548430.083, iRoC,  161.001
ODOM  50.0000,  614.0000,  0.0308,  0.0000,  0.0000, 0,  1735548430.083, iRoC,  161.001
ODOM  50.0000,  614.0000,  0.0308,  0.0000,  0.0000, 0,  1735548430.083, iRoC,  161.001
ODOM  50.0000,  614.0000,  0.0308,  0.0000,  0.0000, 0,  1735548430.083, iRoC,  161.001
ODOM  50.0000,  614.0000,  0.0308,  0.0000,  0.0000, 0,  1735548430.083, iRoC,  161.001
ODOM  50.0000,  614.0000,  0.0308,  0.0000,  0.0000, 0,  1735548430.083, iRoC,  161.001
ODOM  50.0000,  614.0000,  0.0308,  0.0000,  0.0000, 0,  1735548430.083, iRoC,  161.001
ODOM  50.0000,  614.0000,  0.0308,  0.0000,  0.0000, 0,  1735548430.083, iRoC,  161.001
ODOM  50.0000,  614.0000,  0.0308,  0.0000,  0.0000, 0,  1735548430.083, iRoC,  161.001
ODOM  50.0000,  614.0000,  0.0308,  0.0000,  0.0000, 0,  1735548430.083, iRoC,  161.001
ODOM  50.0000,  614.0000,  0.0308,  0.0000,  0.0000, 0,  1735548430.083, iRoC,  161.001
ODOM  50.0000,  614.0000,  0.0308,  0.0000,  0.0000, 0,  1735548430.083, iRoC,  161.001
ODOM  50.0000,  614.0000,  0.0308,  0.0000,  0.0000, 0,  1735548430.083, iRoC,  161.001
ODOM  50.0000,  614.0000,  0.0308,  0.0000,  0.0000, 0,  1735548430.083, iRoC,  161.001
ODOM  50.0000,  614.0000,  0.0308,  0.0000,  0.0000, 0,  1735548430.083, iRoC,  161.001
ODOM  50.0000,  614.0000,  0.0308,  0.0000,  0.0000, 0,  1735548430.083, iRoC,  161.001
ODOM  50.0000,  614.0000,  0.0308,  0.0000,  0.0000, 0,  1735548430.083, iRoC,  161.001
ODOM  50.0000,  614.0000,  0.0308,  0.0000,  0.0000, 0,  1735548430.083, iRoC,  161.001
ODOM  50.0000,  614.0000,  0.0308,  0.0000,  0.0000, 0,  1735548430.083, iRoC,  161.001
ODOM  50.0000,  613.0000,  0.0308,  2.0000,  0.0000, 0,  1735548430.083, iRoC,  161.001
ODOM  51.0000,  613.0000,  0.0308,  2.0000,  0.0000, 0,  1735548430.083, iRoC,  161.001
ODOM  52.0000,  613.0000,  0.0308,  2.0000,  0.0000, 0,  1735548430.083, iRoC,  161.001
ODOM  53.0000,  613.0000,  0.0308,  2.0000,  0.0000, 0,  1735548430.083, iRoC,  161.001
ODOM  54.0000,  613.0000,  0.0308,  2.0000,  0.0000, 0,  1735548430.083, iRoC,  161.001
ODOM  55.0000,  613.0000,  0.0308,  2.0000,  0.0000, 0,  1735548430.083, iRoC,  161.001
ODOM  56.0000,  613.0000,  0.0308,  2.0000,  0.0000, 0,  1735548430.083, iRoC,  161.001
ODOM  57.0000,  613.0000,  0.0308,  2.0000,  0.0000, 0,  1735548430.083, iRoC,  161.001
ODOM  58.0000,  613.0000,  0.0308,  2.0000,  0.0000, 0,  1735548430.083, iRoC,  161.001
ODOM  59.0000,  613.0000,  0.0308,  2.0000,  0.0000, 0,  1735548430.083, iRoC,  161.001
ODOM  60.0000,  613.0000,  0.0308,  2.0000,  0.0000, 0,  1735548430.083, iRoC,  161.001
ODOM  61.0000,  613.0000,  0.0308,  2.0000,  0.0000, 0,  1735548430.083, iRoC,  161.001
ODOM  62.0000,  613.0000,  0.0308,  2.0000,  0.0000, 0,  1735548430.083, iRoC,  161.001
ODOM  63.0000,  613.0000,  0.0308,  2.0000,  0.0000, 0,  1735548430.083, iRoC,  161.001
ODOM  64.0000,  613.0000,  0.0308,  2.0000,  0.0000, 0,  1735548430.083, iRoC,  161.001
ODOM  65.0000,  613.0000,  0.0308,  2.0000,  0.0000, 0,  1735548430.083, iRoC,  161.001
ODOM  66.0000,  613.0000,  0.0308,  2.0000,  0.0000, 0,  1735548430.083, iRoC,  161.001
ODOM  67.0000,  613.0000,  0.0308,  2.0000,  0.0000, 0,  1735548430.083, iRoC,  161.001
ODOM  68.0000,  613.0000,  0.0308,  2.0000,  0.0000, 0,  1735548430.083, iRoC,  161.001
ODOM  69.0000,  613.0000,  0.0308,  2.0000,  0.0000, 0,  1735548430.083, iRoC,  161.001
ODOM  70.0000,  613.0000,  0.0308,  2.0000,  0.0000, 0,  1735548430.083, iRoC,  161.001
ODOM  71.0000,  613.0000,  0.0308,  2.0000,  0.0000, 0,  1735548430.083, iRoC,  161.001
ODOM  72.0000,  613.0000,  0.0308,  2.0000,  0.0000, 0,  1735548430.083, iRoC,  161.001
ODOM  73.0000,  613.0000,  0.0308,  2.0000,  0.0000, 0,  1735548430.083, iRoC,  161.001
ODOM  74.0000,  613.0000,  0.0308,  2.0000,  0.0000, 0,  1735548430.083, iRoC,  161.001
ODOM  75.0000,  613.0000,  0.0308,  2.0000,  0.0000, 0,  1735548430.083, iRoC,  161.001
ODOM  76.0000,  613.0000,  0.0308,  2.0000,  0.0000, 0,  1735548430.083, iRoC,  161.001
ODOM  77.0000,  613.0000,  0.0308,  2.0000,  0.0000, 0,  1735548430.083, iRoC,  161.001
ODOM  78.0000,  613.0000,  0.0308,  2.0000,  0.0000, 0,  1735548430.083, iRoC,  161.001
ODOM  79.0000,  613.0000,  0.0308,  2.0000,  0.0000, 0,  1735548430.083, iRoC,  161.001
ODOM  80.0000,  613.0000,  0.0308,  2.0000,  0.0000, 0,  1735548430.083, iRoC,  161.001
ODOM  81.0000,  613.0000,  0.0308,  2.0000,  0.0000, 0,  1735548430.083, iRoC,  161.001
ODOM  82.0000,  612.0000,  0.0308,  2.0000,  0.0000, 0,  1735548430.083, iRoC,  161.001
ODOM  83.0000,  612.0000,  0.0308,  2.0000,  0.0000, 0,  1735548430.083, iRoC,  161.001
ODOM  84.0000,  612.0000,  0.0308,  2.0000,  0.0000, 0,  1735548430.083, iRoC,  161.001
ODOM  85.0000,  612.0000,  0.0108,  2.0000, -2.0000, 0,  1735548430.083, iRoC,  161.001
ODOM  86.0000,  612.0000, -0.0092,  2.0000, -2.0000, 0,  1735548430.083, iRoC,  161.001
ODOM  87.0000,  612.0000, -0.0292,  2.0000, -2.0000, 0,  1735548430.083, iRoC,  161.001
ODOM  88.0000,  612.0000, -0.0492,  2.0000, -2.0000, 0,  1735548430.083, iRoC,  161.001
ODOM  89.0000,  613.0000, -0.0692,  2.0000, -2.0000, 0,  1735548430.083, iRoC,  161.001
ODOM  90.0000,  613.0000, -0.0892,  2.0000, -2.0000, 0,  1735548430.083, iRoC,  161.001
ODOM  91.0000,  613.0000, -0.1092,  2.0000, -2.0000, 0,  1735548430.083, iRoC,  161.001
ODOM  92.0000,  613.0000, -0.1092,  2.0000,  0.0000, 0,  1735548430.083, iRoC,  161.001
ODOM  93.0000,  613.0000, -0.1092,  2.0000,  0.0000, 0,  1735548430.083, iRoC,  161.001
ODOM  94.0000,  613.0000, -0.1092,  2.0000,  0.0000, 0,  1735548430.083, iRoC,  161.001
ODOM  95.0000,  613.0000, -0.1092,  2.0000,  0.0000, 0,  1735548430.083, iRoC,  161.002
ODOM  96.0000,  613.0000, -0.1092,  2.0000,  0.0000, 0,  1735548430.083, iRoC,  161.002
ODOM  97.0000,  613.0000, -0.1092,  2.0000,  0.0000, 0,  1735548430.083, iRoC,  161.002
ODOM  98.0000,  613.0000, -0.1092,  2.0000,  0.0000, 0,  1735548430.083, iRoC,  161.002
ODOM  99.0000,  614.0000, -0.1092,  2.0000,  0.0000, 0,  1735548430.083, iRoC,  161.002
ODOM  100.0000,  614.0000, -0.1092,  2.0000,  0.0000, 0,  1735548430.083, iRoC,  161.002
ODOM  101.0000,  614.0000, -0.1092,  2.0000,  0.0000, 0,  1735548430.083, iRoC,  161.002
ODOM  102.0000,  614.0000, -0.1092,  2.0000,  0.0000, 0,  1735548430.083, iRoC,  161.002
ODOM  103.0000,  614.0000, -0.1092,  2.0000,  0.0000, 0,  1735548430.083, iRoC,  161.002
ODOM  104.0000,  614.0000, -0.1092,  2.0000,  0.0000, 0,  1735548430.083, iRoC,  161.002
ODOM  105.0000,  614.0000, -0.1092,  2.0000,  0.0000, 0,  1735548430.083, iRoC,  161.002
ODOM  106.0000,  614.0000, -0.1092,  2.0000,  0.0000, 0,  1735548430.083, iRoC,  161.002
ODOM  107.0000,  614.0000, -0.1092,  2.0000,  0.0000, 0,  1735548430.083, iRoC,  161.002
ODOM  108.0000,  615.0000, -0.1092,  2.0000,  0.0000, 0,  1735548430.083, iRoC,  161.002
ODOM  109.0000,  615.0000, -0.1092,  2.0000,  0.0000, 0,  1735548430.083, iRoC,  161.002
ODOM  110.0000,  615.0000, -0.1092,  2.0000,  0.0000, 0,  1735548430.083, iRoC,  161.002
ODOM  111.0000,  615.0000, -0.1092,  2.0000,  0.0000, 0,  1735548430.083, iRoC,  161.002
ODOM  112.0000,  615.0000, -0.1092,  2.0000,  0.0000, 0,  1735548430.083, iRoC,  161.002
ODOM  113.0000,  615.0000, -0.1092,  2.0000,  0.0000, 0,  1735548430.083, iRoC,  161.002
ODOM  114.0000,  615.0000, -0.1092,  2.0000,  0.0000, 0,  1735548430.083, iRoC,  161.002
ODOM  115.0000,  615.0000, -0.1092,  2.0000,  0.0000, 0,  1735548430.083, iRoC,  161.002
ODOM  116.0000,  615.0000, -0.1092,  2.0000,  0.0000, 0,  1735548430.083, iRoC,  161.002
ODOM  117.0000,  616.0000, -0.1092,  2.0000,  0.0000, 0,  1735548430.083, iRoC,  161.002
ODOM  118.0000,  616.0000, -0.1092,  2.0000,  0.0000, 0,  1735548430.083, iRoC,  161.002
ODOM  119.0000,  616.0000, -0.1092,  2.0000,  0.0000, 0,  1735548430.083, iRoC,  161.002
ODOM  120.0000,  616.0000, -0.1092,  2.0000,  0.0000, 0,  1735548430.083, iRoC,  161.002
ODOM  121.0000,  616.0000, -0.1092,  2.0000,  0.0000, 0,  1735548430.083, iRoC,  161.002
ODOM  122.0000,  616.0000, -0.1092,  2.0000,  0.0000, 0,  1735548430.083, iRoC,  161.002
ODOM  123.0000,  616.0000, -0.1092,  2.0000,  0.0000, 0,  1735548430.083, iRoC,  161.002
ODOM  124.0000,  616.0000, -0.1092,  2.0000,  0.0000, 0,  1735548430.083, iRoC,  161.002
ODOM  125.0000,  616.0000, -0.1092,  2.0000,  0.0000, 0,  1735548430.083, iRoC,  161.002
ODOM  126.0000,  617.0000, -0.1092,  2.0000,  0.0000, 0,  1735548430.083, iRoC,  161.002
ODOM  127.0000,  617.0000, -0.1092,  2.0000,  0.0000, 0,  1735548430.083, iRoC,  161.002
ODOM  128.0000,  617.0000, -0.1092,  2.0000,  0.0000, 0,  1735548430.083, iRoC,  161.002
ODOM  129.0000,  617.0000, -0.1092,  2.0000,  0.0000, 0,  1735548430.083, iRoC,  161.002
ODOM  130.0000,  617.0000, -0.1092,  2.0000,  0.0000, 0,  1735548430.083, iRoC,  161.002
ODOM  131.0000,  617.0000, -0.1092,  2.0000,  0.0000, 0,  1735548430.083, iRoC,  161.002
ODOM  132.0000,  617.0000, -0.1092,  2.0000,  0.0000, 0,  1735548430.083, iRoC,  161.002
ODOM  133.0000,  617.0000, -0.1092,  2.0000,  0.0000, 0,  1735548430.083, iRoC,  161.002
ODOM  134.0000,  617.0000, -0.1092,  2.0000,  0.0000, 0,  1735548430.083, iRoC,  161.002
ODOM  135.0000,  617.0000, -0.1092,  2.0000,  0.0000, 0,  1735548430.083, iRoC,  161.002
ODOM  136.0000,  618.0000, -0.1092,  2.0000,  0.0000, 0,  1735548430.083, iRoC,  161.002
ODOM  137.0000,  618.0000, -0.1092,  2.0000,  0.0000, 0,  1735548430.083, iRoC,  161.002
ODOM  138.0000,  618.0000, -0.1092,  2.0000,  0.0000, 0,  1735548430.083, iRoC,  161.002
ODOM  139.0000,  618.0000, -0.1092,  2.0000,  0.0000, 0,  1735548430.083, iRoC,  161.002
ODOM  140.0000,  618.0000, -0.1092,  2.0000,  0.0000, 0,  1735548430.083, iRoC,  161.002
ODOM  141.0000,  618.0000, -0.1092,  2.0000,  0.0000, 0,  1735548430.083, iRoC,  161.002
ODOM  142.0000,  618.0000, -0.1092,  2.0000,  0.0000, 0,  1735548430.083, iRoC,  161.002
ODOM  143.0000,  618.0000, -0.1092,  2.0000,  0.0000, 0,  1735548430.083, iRoC,  161.002
ODOM  144.0000,  618.0000, -0.1092,  2.0000,  0.0000, 0,  1735548430.083, iRoC,  161.002
ODOM  145.0000,  619.0000, -0.1092,  2.0000,  0.0000, 0,  1735548430.083, iRoC,  161.002
ODOM  146.0000,  619.0000, -0.1092,  2.0000,  0.0000, 0,  1735548430.083, iRoC,  161.002
ODOM  147.0000,  619.0000, -0.1092,  2.0000,  0.0000, 0,  1735548430.083, iRoC,  161.002
ODOM  148.0000,  619.0000, -0.1092,  2.0000,  0.0000, 0,  1735548430.083, iRoC,  161.002
ODOM  149.0000,  619.0000, -0.1092,  2.0000,  0.0000, 0,  1735548430.083, iRoC,  161.002
ODOM  150.0000,  619.0000, -0.1092,  2.0000,  0.0000, 0,  1735548430.083, iRoC,  161.002
ODOM  151.0000,  619.0000, -0.1092,  2.0000,  0.0000, 0,  1735548430.083, iRoC,  161.002
ODOM  152.0000,  619.0000, -0.1092,  2.0000,  0.0000, 0,  1735548430.083, iRoC,  161.002
ODOM  153.0000,  619.0000, -0.1092,  2.0000,  0.0000, 0,  1735548430.083, iRoC,  161.002
ODOM  154.0000,  620.0000, -0.1092,  2.0000,  0.0000, 0,  1735548430.083, iRoC,  161.002
ODOM  155.0000,  620.0000, -0.1092,  2.0000,  0.0000, 0,  1735548430.083, iRoC,  161.002
ODOM  156.0000,  620.0000, -0.1092,  2.0000,  0.0000, 0,  1735548430.083, iRoC,  161.002
ODOM  157.0000,  620.0000, -0.1092,  2.0000,  0.0000, 0,  1735548430.083, iRoC,  161.002
ODOM  158.0000,  620.0000, -0.1092,  2.0000,  0.0000, 0,  1735548430.083, iRoC,  161.002
ODOM  159.0000,  620.0000, -0.1092,  2.0000,  0.0000, 0,  1735548430.083, iRoC,  161.002
ODOM  160.0000,  620.0000, -0.1092,  2.0000,  0.0000, 0,  1735548430.083, iRoC,  161.002
ODOM  161.0000,  620.0000, -0.1092,  2.0000,  0.0000, 0,  1735548430.083, iRoC,  161.002
ODOM  162.0000,  620.0000, -0.1092,  2.0000,  0.0000, 0,  1735548430.083, iRoC,  161.002
ODOM  163.0000,  621.0000, -0.1092,  2.0000,  0.0000, 0,  1735548430.083, iRoC,  161.002
ODOM  164.0000,  621.0000, -0.1092,  2.0000,  0.0000, 0,  1735548430.083, iRoC,  161.002
ODOM  165.0000,  621.0000, -0.1092,  2.0000,  0.0000, 0,  1735548430.083, iRoC,  161.002
ODOM  166.0000,  621.0000, -0.1092,  2.0000,  0.0000, 0,  1735548430.083, iRoC,  161.002
ODOM  167.0000,  621.0000, -0.1092,  2.0000,  0.0000, 0,  1735548430.083, iRoC,  161.002
ODOM  168.0000,  621.0000, -0.1092,  2.0000,  0.0000, 0,  1735548430.083, iRoC,  161.002
ODOM  169.0000,  621.0000, -0.1092,  2.0000,  0.0000, 0,  1735548430.083, iRoC,  161.002
ODOM  170.0000,  621.0000, -0.1092,  2.0000,  0.0000, 0,  1735548430.083, iRoC,  161.002
ODOM  171.0000,  621.0000, -0.1092,  2.0000,  0.0000, 0,  1735548430.083, iRoC,  161.002
ODOM  172.0000,  622.0000, -0.1092,  2.0000,  0.0000, 0,  1735548430.083, iRoC,  161.002
ODOM  173.0000,  622.0000, -0.1092,  2.0000,  0.0000, 0,  1735548430.083, iRoC,  161.002
ODOM  174.0000,  622.0000, -0.1092,  2.0000,  0.0000, 0,  1735548430.083, iRoC,  161.002
ODOM  175.0000,  622.0000, -0.1092,  2.0000,  0.0000, 0,  1735548430.083, iRoC,  161.002
ODOM  176.0000,  622.0000, -0.1092,  2.0000,  0.0000, 0,  1735548430.083, iRoC,  161.002
ODOM  177.0000,  622.0000, -0.1092,  2.0000,  0.0000, 0,  1735548430.083, iRoC,  161.002
ODOM  178.0000,  622.0000, -0.1092,  2.0000,  0.0000, 0,  1735548430.083, iRoC,  161.002
ODOM  179.0000,  622.0000, -0.1092,  2.0000,  0.0000, 0,  1735548430.083, iRoC,  161.002
ODOM  180.0000,  622.0000, -0.1092,  2.0000,  0.0000, 0,  1735548430.083, iRoC,  161.002
ODOM  181.0000,  623.0000, -0.1092,  2.0000,  0.0000, 0,  1735548430.083, iRoC,  161.002
ODOM  182.0000,  623.0000, -0.1092,  2.0000,  0.0000, 0,  1735548430.083, iRoC,  161.002
ODOM  183.0000,  623.0000, -0.1092,  2.0000,  0.0000, 0,  1735548430.083, iRoC,  161.002
ODOM  184.0000,  623.0000, -0.1092,  2.0000,  0.0000, 0,  1735548430.083, iRoC,  161.002
ODOM  185.0000,  623.0000, -0.1092,  2.0000,  0.0000, 0,  1735548430.083, iRoC,  161.002
ODOM  186.0000,  623.0000, -0.1092,  2.0000,  0.0000, 0,  1735548430.083, iRoC,  161.002
ODOM  187.0000,  623.0000, -0.1092,  2.0000,  0.0000, 0,  1735548430.083, iRoC,  161.002
ODOM  188.0000,  623.0000, -0.1092,  2.0000,  0.0000, 0,  1735548430.083, iRoC,  161.002
ODOM  189.0000,  623.0000, -0.1092,  2.0000,  0.0000, 0,  1735548430.083, iRoC,  161.002
ODOM  190.0000,  623.0000, -0.1092,  2.0000,  0.0000, 0,  1735548430.083, iRoC,  161.002
ODOM  191.0000,  624.0000, -0.1092,  2.0000,  0.0000, 0,  1735548430.083, iRoC,  161.002
ODOM  192.0000,  624.0000, -0.1092,  2.0000,  0.0000, 0,  1735548430.083, iRoC,  161.002
ODOM  193.0000,  624.0000, -0.1092,  2.0000,  0.0000, 0,  1735548430.083, iRoC,  161.002
ODOM  194.0000,  624.0000, -0.1092,  2.0000,  0.0000, 0,  1735548430.083, iRoC,  161.002
ODOM  195.0000,  624.0000, -0.1092,  2.0000,  0.0000, 0,  1735548430.083, iRoC,  161.002
ODOM  196.0000,  624.0000, -0.0892,  2.0000,  2.0000, 0,  1735548430.083, iRoC,  161.002
ODOM  197.0000,  624.0000, -0.0692,  2.0000,  2.0000, 0,  1735548430.083, iRoC,  161.002
ODOM  198.0000,  624.0000, -0.0492,  2.0000,  2.0000, 0,  1735548430.083, iRoC,  161.002
ODOM  199.0000,  624.0000, -0.0292,  2.0000,  2.0000, 0,  1735548430.083, iRoC,  161.002
ODOM  200.0000,  624.0000, -0.0092,  2.0000,  2.0000, 0,  1735548430.083, iRoC,  161.002
ODOM  201.0000,  624.0000,  0.0108,  2.0000,  2.0000, 0,  1735548430.083, iRoC,  161.002
ODOM  202.0000,  624.0000,  0.0308,  2.0000,  2.0000, 0,  1735548430.083, iRoC,  161.002
ODOM  203.0000,  624.0000,  0.0508,  2.0000,  2.0000, 0,  1735548430.083, iRoC,  161.002
ODOM  204.0000,  624.0000,  0.0708,  2.0000,  2.0000, 0,  1735548430.083, iRoC,  161.002
ODOM  205.0000,  624.0000,  0.0908,  2.0000,  2.0000, 0,  1735548430.083, iRoC,  161.002
ODOM  206.0000,  624.0000,  0.0908,  2.0000,  0.0000, 0,  1735548430.083, iRoC,  161.002
ODOM  207.0000,  624.0000,  0.0908,  2.0000,  0.0000, 0,  1735548430.083, iRoC,  161.002
ODOM  208.0000,  624.0000,  0.0908,  2.0000,  0.0000, 0,  1735548430.083, iRoC,  161.002
ODOM  209.0000,  624.0000,  0.0908,  2.0000,  0.0000, 0,  1735548430.083, iRoC,  161.002
ODOM  210.0000,  624.0000,  0.0908,  2.0000,  0.0000, 0,  1735548430.083, iRoC,  161.002
ODOM  211.0000,  624.0000,  0.0908,  2.0000,  0.0000, 0,  1735548430.083, iRoC,  161.002
ODOM  212.0000,  623.0000,  0.0908,  2.0000,  0.0000, 0,  1735548430.083, iRoC,  161.002
ODOM  213.0000,  623.0000,  0.0908,  2.0000,  0.0000, 0,  1735548430.083, iRoC,  161.002
ODOM  214.0000,  623.0000,  0.0908,  2.0000,  0.0000, 0,  1735548430.083, iRoC,  161.002
ODOM  215.0000,  623.0000,  0.0908,  2.0000,  0.0000, 0,  1735548430.083, iRoC,  161.002
ODOM  216.0000,  623.0000,  0.0908,  2.0000,  0.0000, 0,  1735548430.083, iRoC,  161.002
ODOM  217.0000,  623.0000,  0.0908,  2.0000,  0.0000, 0,  1735548430.083, iRoC,  161.002
ODOM  218.0000,  623.0000,  0.0908,  2.0000,  0.0000, 0,  1735548430.083, iRoC,  161.002
ODOM  219.0000,  623.0000,  0.0908,  2.0000,  0.0000, 0,  1735548430.083, iRoC,  161.002
ODOM  220.0000,  623.0000,  0.0908,  2.0000,  0.0000, 0,  1735548430.083, iRoC,  161.002
ODOM  221.0000,  623.0000,  0.0908,  2.0000,  0.0000, 0,  1735548430.083, iRoC,  161.002
ODOM  222.0000,  623.0000,  0.0908,  2.0000,  0.0000, 0,  1735548430.083, iRoC,  161.002
ODOM  223.0000,  622.0000,  0.0908,  2.0000,  0.0000, 0,  1735548430.083, iRoC,  161.002
ODOM  224.0000,  622.0000,  0.0908,  2.0000,  0.0000, 0,  1735548430.083, iRoC,  161.002
ODOM  225.0000,  622.0000,  0.0908,  2.0000,  0.0000, 0,  1735548430.083, iRoC,  161.002
ODOM  226.0000,  622.0000,  0.0708,  2.0000, -2.0000, 0,  1735548430.083, iRoC,  161.002
ODOM  227.0000,  622.0000,  0.0508,  2.0000, -2.0000, 0,  1735548430.083, iRoC,  161.002
ODOM  228.0000,  622.0000,  0.0308,  2.0000, -2.0000, 0,  1735548430.083, iRoC,  161.002
ODOM  229.0000,  622.0000,  0.0108,  2.0000, -2.0000, 0,  1735548430.083, iRoC,  161.002
ODOM  230.0000,  622.0000, -0.0092,  2.0000, -2.0000, 0,  1735548430.083, iRoC,  161.002
ODOM  231.0000,  622.0000, -0.0292,  2.0000, -2.0000, 0,  1735548430.083, iRoC,  161.002
ODOM  232.0000,  622.0000, -0.0492,  2.0000, -2.0000, 0,  1735548430.083, iRoC,  161.002
ODOM  233.0000,  622.0000, -0.0492,  2.0000,  0.0000, 0,  1735548430.083, iRoC,  161.002
ODOM  234.0000,  622.0000, -0.0492,  2.0000,  0.0000, 0,  1735548430.083, iRoC,  161.002
ODOM  235.0000,  622.0000, -0.0492,  2.0000,  0.0000, 0,  1735548430.083, iRoC,  161.002
ODOM  236.0000,  622.0000, -0.0492,  2.0000,  0.0000, 0,  1735548430.083, iRoC,  161.002
ODOM  237.0000,  622.0000, -0.0492,  2.0000,  0.0000, 0,  1735548430.083, iRoC,  161.002
ODOM  238.0000,  622.0000, -0.0492,  2.0000,  0.0000, 0,  1735548430.083, iRoC,  161.002
ODOM  239.0000,  623.0000, -0.0492,  2.0000,  0.0000, 0,  1735548430.083, iRoC,  161.002
ODOM  240.0000,  623.0000, -0.0492,  2.0000,  0.0000, 0,  1735548430.083, iRoC,  161.002
ODOM  241.0000,  623.0000, -0.0492,  2.0000,  0.0000, 0,  1735548430.083, iRoC,  161.002
ODOM  242.0000,  623.0000, -0.0492,  2.0000,  0.0000, 0,  1735548430.083, iRoC,  161.002
ODOM  243.0000,  623.0000, -0.0492,  2.0000,  0.0000, 0,  1735548430.083, iRoC,  161.002
ODOM  244.0000,  623.0000, -0.0492,  2.0000,  0.0000, 0,  1735548430.083, iRoC,  161.002
ODOM  245.0000,  623.0000, -0.0492,  2.0000,  0.0000, 0,  1735548430.083, iRoC,  161.002
ODOM  246.0000,  623.0000, -0.0492,  2.0000,  0.0000, 0,  1735548430.083, iRoC,  161.002
ODOM  247.0000,  623.0000, -0.0492,  2.0000,  0.0000, 0,  1735548430.083, iRoC,  161.002
ODOM  248.0000,  623.0000, -0.0492,  2.0000,  0.0000, 0,  1735548430.083, iRoC,  161.002
ODOM  249.0000,  623.0000, -0.0492,  2.0000,  0.0000, 0,  1735548430.083, iRoC,  161.002
ODOM  250.0000,  623.0000, -0.0492,  2.0000,  0.0000, 0,  1735548430.083, iRoC,  161.002
ODOM  251.0000,  623.0000, -0.0492,  2.0000,  0.0000, 0,  1735548430.083, iRoC,  161.002
ODOM  252.0000,  623.0000, -0.0492,  2.0000,  0.0000, 0,  1735548430.083, iRoC,  161.002
ODOM  253.0000,  623.0000, -0.0492,  2.0000,  0.0000, 0,  1735548430.083, iRoC,  161.002
ODOM  254.0000,  623.0000, -0.0492,  2.0000,  0.0000, 0,  1735548430.083, iRoC,  161.002
ODOM  255.0000,  623.0000, -0.0492,  2.0000,  0.0000, 0,  1735548430.083, iRoC,  161.002
ODOM  256.0000,  623.0000, -0.0492,  2.0000,  0.0000, 0,  1735548430.083, iRoC,  161.002
ODOM  257.0000,  623.0000, -0.0492,  2.0000,  0.0000, 0,  1735548430.083, iRoC,  161.002
ODOM  258.0000,  623.0000, -0.0492,  2.0000,  0.0000, 0,  1735548430.083, iRoC,  161.002
ODOM  259.0000,  624.0000, -0.0692,  2.0000, -2.0000, 0,  1735548430.083, iRoC,  161.002
ODOM  260.0000,  624.0000, -0.0892,  2.0000, -2.0000, 0,  1735548430.083, iRoC,  161.002
ODOM  261.0000,  624.0000, -0.1092,  2.0000, -2.0000, 0,  1735548430.083, iRoC,  161.002
ODOM  262.0000,  624.0000, -0.1292,  2.0000, -2.0000, 0,  1735548430.083, iRoC,  161.002
ODOM  263.0000,  624.0000, -0.1492,  2.0000, -2.0000, 0,  1735548430.083, iRoC,  161.002
ODOM  264.0000,  624.0000, -0.1692,  2.0000, -2.0000, 0,  1735548430.083, iRoC,  161.002
ODOM  265.0000,  624.0000, -0.1892,  2.0000, -2.0000, 0,  1735548430.083, iRoC,  161.002
ODOM  266.0000,  624.0000, -0.1892,  2.0000,  0.0000, 0,  1735548430.083, iRoC,  161.002
ODOM  267.0000,  625.0000, -0.1892,  2.0000,  0.0000, 0,  1735548430.083, iRoC,  161.002
ODOM  268.0000,  625.0000, -0.1892,  2.0000,  0.0000, 0,  1735548430.083, iRoC,  161.002
ODOM  269.0000,  625.0000, -0.1892,  2.0000,  0.0000, 0,  1735548430.083, iRoC,  161.002
ODOM  270.0000,  625.0000, -0.1892,  2.0000,  0.0000, 0,  1735548430.083, iRoC,  161.002
ODOM  271.0000,  625.0000, -0.1892,  2.0000,  0.0000, 0,  1735548430.083, iRoC,  161.002
ODOM  272.0000,  626.0000, -0.1892,  2.0000,  0.0000, 0,  1735548430.083, iRoC,  161.002
ODOM  273.0000,  626.0000, -0.1892,  2.0000,  0.0000, 0,  1735548430.083, iRoC,  161.002
ODOM  273.0000,  626.0000, -0.1892,  2.0000,  0.0000, 0,  1735548430.083, iRoC,  161.002
ODOM  274.0000,  626.0000, -0.1892,  2.0000,  0.0000, 0,  1735548430.083, iRoC,  161.002
ODOM  275.0000,  626.0000, -0.1892,  2.0000,  0.0000, 0,  1735548430.083, iRoC,  161.002
ODOM  276.0000,  627.0000, -0.1892,  2.0000,  0.0000, 0,  1735548430.083, iRoC,  161.002
ODOM  277.0000,  627.0000, -0.1892,  2.0000,  0.0000, 0,  1735548430.083, iRoC,  161.002
ODOM  278.0000,  627.0000, -0.1892,  2.0000,  0.0000, 0,  1735548430.083, iRoC,  161.002
ODOM  279.0000,  627.0000, -0.1892,  2.0000,  0.0000, 0,  1735548430.083, iRoC,  161.002
ODOM  280.0000,  627.0000, -0.1892,  2.0000,  0.0000, 0,  1735548430.083, iRoC,  161.002
ODOM  281.0000,  627.0000, -0.1892,  2.0000,  0.0000, 0,  1735548430.083, iRoC,  161.002
ODOM  282.0000,  628.0000, -0.1892,  2.0000,  0.0000, 0,  1735548430.083, iRoC,  161.002
ODOM  283.0000,  628.0000, -0.1892,  2.0000,  0.0000, 0,  1735548430.083, iRoC,  161.002
ODOM  284.0000,  628.0000, -0.1892,  2.0000,  0.0000, 0,  1735548430.083, iRoC,  161.002
ODOM  285.0000,  628.0000, -0.1892,  2.0000,  0.0000, 0,  1735548430.083, iRoC,  161.002
ODOM  286.0000,  628.0000, -0.1892,  2.0000,  0.0000, 0,  1735548430.083, iRoC,  161.002
ODOM  287.0000,  629.0000, -0.1892,  2.0000,  0.0000, 0,  1735548430.083, iRoC,  161.002
ODOM  288.0000,  629.0000, -0.1892,  2.0000,  0.0000, 0,  1735548430.083, iRoC,  161.002
ODOM  289.0000,  629.0000, -0.1892,  2.0000,  0.0000, 0,  1735548430.083, iRoC,  161.002
ODOM  290.0000,  629.0000, -0.1892,  2.0000,  0.0000, 0,  1735548430.083, iRoC,  161.002
ODOM  291.0000,  629.0000, -0.1892,  2.0000,  0.0000, 0,  1735548430.083, iRoC,  161.002
ODOM  292.0000,  630.0000, -0.1892,  2.0000,  0.0000, 0,  1735548430.083, iRoC,  161.002
ODOM  293.0000,  630.0000, -0.1892,  2.0000,  0.0000, 0,  1735548430.083, iRoC,  161.002
ODOM  294.0000,  630.0000, -0.1892,  2.0000,  0.0000, 0,  1735548430.083, iRoC,  161.002
ODOM  295.0000,  630.0000, -0.1892,  2.0000,  0.0000, 0,  1735548430.083, iRoC,  161.002
ODOM  296.0000,  630.0000, -0.1892,  2.0000,  0.0000, 0,  1735548430.083, iRoC,  161.002
ODOM  297.0000,  630.0000, -0.1892,  2.0000,  0.0000, 0,  1735548430.083, iRoC,  161.002
ODOM  298.0000,  631.0000, -0.1892,  2.0000,  0.0000, 0,  1735548430.083, iRoC,  161.002
ODOM  299.0000,  631.0000, -0.1892,  2.0000,  0.0000, 0,  1735548430.083, iRoC,  161.002
ODOM  300.0000,  631.0000, -0.1892,  2.0000,  0.0000, 0,  1735548430.083, iRoC,  161.002
ODOM  301.0000,  631.0000, -0.1892,  2.0000,  0.0000, 0,  1735548430.083, iRoC,  161.002
ODOM  302.0000,  631.0000, -0.1892,  2.0000,  0.0000, 0,  1735548430.083, iRoC,  161.002
ODOM  303.0000,  632.0000, -0.1892,  2.0000,  0.0000, 0,  1735548430.083, iRoC,  161.002
ODOM  304.0000,  632.0000, -0.1692,  2.0000,  2.0000, 0,  1735548430.083, iRoC,  161.002
ODOM  305.0000,  632.0000, -0.1492,  2.0000,  2.0000, 0,  1735548430.083, iRoC,  161.002
ODOM  306.0000,  632.0000, -0.1292,  2.0000,  2.0000, 0,  1735548430.083, iRoC,  161.002
ODOM  307.0000,  632.0000, -0.1092,  2.0000,  2.0000, 0,  1735548430.083, iRoC,  161.002
ODOM  308.0000,  632.0000, -0.0892,  2.0000,  2.0000, 0,  1735548430.083, iRoC,  161.002
ODOM  309.0000,  632.0000, -0.0692,  2.0000,  2.0000, 0,  1735548430.083, iRoC,  161.002
ODOM  310.0000,  632.0000, -0.0492,  2.0000,  2.0000, 0,  1735548430.083, iRoC,  161.002
ODOM  311.0000,  632.0000, -0.0292,  2.0000,  2.0000, 0,  1735548430.083, iRoC,  161.002
ODOM  312.0000,  632.0000, -0.0092,  2.0000,  2.0000, 0,  1735548430.083, iRoC,  161.002
ODOM  313.0000,  633.0000, -0.0092,  2.0000,  0.0000, 0,  1735548430.083, iRoC,  161.002
ODOM  314.0000,  633.0000, -0.0092,  2.0000,  0.0000, 0,  1735548430.083, iRoC,  161.002
ODOM  315.0000,  633.0000, -0.0092,  2.0000,  0.0000, 0,  1735548430.083, iRoC,  161.002
ODOM  316.0000,  633.0000, -0.0092,  2.0000,  0.0000, 0,  1735548430.083, iRoC,  161.002
ODOM  317.0000,  633.0000, -0.0092,  2.0000,  0.0000, 0,  1735548430.083, iRoC,  161.002
ODOM  318.0000,  633.0000, -0.0092,  2.0000,  0.0000, 0,  1735548430.083, iRoC,  161.002
ODOM  319.0000,  633.0000, -0.0092,  2.0000,  0.0000, 0,  1735548430.083, iRoC,  161.002
ODOM  320.0000,  633.0000, -0.0092,  2.0000,  0.0000, 0,  1735548430.083, iRoC,  161.002
ODOM  321.0000,  633.0000, -0.0092,  2.0000,  0.0000, 0,  1735548430.083, iRoC,  161.002
ODOM  322.0000,  633.0000, -0.0092,  2.0000,  0.0000, 0,  1735548430.083, iRoC,  161.002
ODOM  323.0000,  633.0000, -0.0092,  2.0000,  0.0000, 0,  1735548430.083, iRoC,  161.002
ODOM  324.0000,  633.0000, -0.0092,  2.0000,  0.0000, 0,  1735548430.083, iRoC,  161.002
ODOM  325.0000,  633.0000, -0.0092,  2.0000,  0.0000, 0,  1735548430.083, iRoC,  161.002
ODOM  326.0000,  633.0000, -0.0092,  2.0000,  0.0000, 0,  1735548430.083, iRoC,  161.002
ODOM  327.0000,  633.0000, -0.0092,  2.0000,  0.0000, 0,  1735548430.083, iRoC,  161.002
ODOM  328.0000,  633.0000, -0.0092,  2.0000,  0.0000, 0,  1735548430.083, iRoC,  161.002
ODOM  329.0000,  633.0000, -0.0092,  2.0000,  0.0000, 0,  1735548430.083, iRoC,  161.002
ODOM  330.0000,  633.0000, -0.0092,  2.0000,  0.0000, 0,  1735548430.083, iRoC,  161.002
ODOM  331.0000,  633.0000, -0.0092,  2.0000,  0.0000, 0,  1735548430.083, iRoC,  161.002
ODOM  332.0000,  633.0000, -0.0092,  2.0000,  0.0000, 0,  1735548430.083, iRoC,  161.002
ODOM  333.0000,  633.0000, -0.0092,  2.0000,  0.0000, 0,  1735548430.083, iRoC,  161.002
ODOM  334.0000,  633.0000, -0.0092,  2.0000,  0.0000, 0,  1735548430.083, iRoC,  161.002
ODOM  335.0000,  633.0000, -0.0092,  2.0000,  0.0000, 0,  1735548430.083, iRoC,  161.002
ODOM  336.0000,  633.0000, -0.0092,  2.0000,  0.0000, 0,  1735548430.083, iRoC,  161.002
ODOM  337.0000,  633.0000, -0.0092,  2.0000,  0.0000, 0,  1735548430.083, iRoC,  161.002
ODOM  338.0000,  633.0000, -0.0092,  2.0000,  0.0000, 0,  1735548430.083, iRoC,  161.002
ODOM  339.0000,  633.0000, -0.0092,  2.0000,  0.0000, 0,  1735548430.083, iRoC,  161.002
ODOM  340.0000,  633.0000, -0.0092,  2.0000,  0.0000, 0,  1735548430.083, iRoC,  161.002
ODOM  341.0000,  633.0000, -0.0092,  2.0000,  0.0000, 0,  1735548430.083, iRoC,  161.002
ODOM  342.0000,  633.0000, -0.0092,  2.0000,  0.0000, 0,  1735548430.083, iRoC,  161.002
ODOM  343.0000,  633.0000, -0.0292,  2.0000, -2.0000, 0,  1735548430.083, iRoC,  161.002
ODOM  344.0000,  633.0000, -0.0492,  2.0000, -2.0000, 0,  1735548430.083, iRoC,  161.002
ODOM  345.0000,  633.0000, -0.0692,  2.0000, -2.0000, 0,  1735548430.083, iRoC,  161.002
ODOM  346.0000,  633.0000, -0.0892,  2.0000, -2.0000, 0,  1735548430.083, iRoC,  161.002
ODOM  347.0000,  633.0000, -0.1092,  2.0000, -2.0000, 0,  1735548430.083, iRoC,  161.002
ODOM  348.0000,  633.0000, -0.1292,  2.0000, -2.0000, 0,  1735548430.083, iRoC,  161.002
ODOM  349.0000,  633.0000, -0.1292,  2.0000,  0.0000, 0,  1735548430.083, iRoC,  161.002
ODOM  350.0000,  633.0000, -0.1292,  2.0000,  0.0000, 0,  1735548430.083, iRoC,  161.002
ODOM  351.0000,  634.0000, -0.1292,  2.0000,  0.0000, 0,  1735548430.083, iRoC,  161.002
ODOM  352.0000,  634.0000, -0.1292,  2.0000,  0.0000, 0,  1735548430.083, iRoC,  161.002
ODOM  353.0000,  634.0000, -0.1292,  2.0000,  0.0000, 0,  1735548430.083, iRoC,  161.002
ODOM  354.0000,  634.0000, -0.1292,  2.0000,  0.0000, 0,  1735548430.083, iRoC,  161.002
ODOM  355.0000,  634.0000, -0.1292,  2.0000,  0.0000, 0,  1735548430.083, iRoC,  161.002
ODOM  356.0000,  634.0000, -0.1292,  2.0000,  0.0000, 0,  1735548430.083, iRoC,  161.002
ODOM  357.0000,  634.0000, -0.1292,  2.0000,  0.0000, 0,  1735548430.083, iRoC,  161.002
ODOM  358.0000,  634.0000, -0.1292,  2.0000,  0.0000, 0,  1735548430.083, iRoC,  161.002
ODOM  359.0000,  635.0000, -0.1292,  2.0000,  0.0000, 0,  1735548430.083, iRoC,  161.002
ODOM  360.0000,  635.0000, -0.1292,  2.0000,  0.0000, 0,  1735548430.083, iRoC,  161.002
ODOM  361.0000,  635.0000, -0.1292,  2.0000,  0.0000, 0,  1735548430.083, iRoC,  161.002
ODOM  362.0000,  635.0000, -0.1292,  2.0000,  0.0000, 0,  1735548430.083, iRoC,  161.002
ODOM  363.0000,  635.0000, -0.1292,  2.0000,  0.0000, 0,  1735548430.083, iRoC,  161.002
ODOM  364.0000,  635.0000, -0.1292,  2.0000,  0.0000, 0,  1735548430.083, iRoC,  161.002
ODOM  365.0000,  635.0000, -0.1292,  2.0000,  0.0000, 0,  1735548430.083, iRoC,  161.002
ODOM  366.0000,  636.0000, -0.1292,  2.0000,  0.0000, 0,  1735548430.083, iRoC,  161.002
ODOM  367.0000,  636.0000, -0.1292,  2.0000,  0.0000, 0,  1735548430.083, iRoC,  161.002
ODOM  368.0000,  636.0000, -0.1292,  2.0000,  0.0000, 0,  1735548430.083, iRoC,  161.002
ODOM  369.0000,  636.0000, -0.1292,  2.0000,  0.0000, 0,  1735548430.083, iRoC,  161.002
ODOM  370.0000,  636.0000, -0.1292,  2.0000,  0.0000, 0,  1735548430.083, iRoC,  161.002
ODOM  371.0000,  636.0000, -0.1292,  2.0000,  0.0000, 0,  1735548430.083, iRoC,  161.002
ODOM  372.0000,  636.0000, -0.1292,  2.0000,  0.0000, 0,  1735548430.083, iRoC,  161.002
ODOM  373.0000,  636.0000, -0.1292,  2.0000,  0.0000, 0,  1735548430.083, iRoC,  161.002
ODOM  374.0000,  637.0000, -0.1292,  2.0000,  0.0000, 0,  1735548430.083, iRoC,  161.002
ODOM  375.0000,  637.0000, -0.1292,  2.0000,  0.0000, 0,  1735548430.083, iRoC,  161.002
ODOM  376.0000,  637.0000, -0.1292,  2.0000,  0.0000, 0,  1735548430.083, iRoC,  161.002
ODOM  377.0000,  637.0000, -0.1292,  2.0000,  0.0000, 0,  1735548430.083, iRoC,  161.002
ODOM  378.0000,  637.0000, -0.1292,  2.0000,  0.0000, 0,  1735548430.083, iRoC,  161.002
ODOM  379.0000,  637.0000, -0.1092,  2.0000,  2.0000, 0,  1735548430.083, iRoC,  161.002
ODOM  380.0000,  637.0000, -0.0892,  2.0000,  2.0000, 0,  1735548430.083, iRoC,  161.002
ODOM  381.0000,  637.0000, -0.0692,  2.0000,  2.0000, 0,  1735548430.083, iRoC,  161.002
ODOM  382.0000,  637.0000, -0.0492,  2.0000,  2.0000, 0,  1735548430.083, iRoC,  161.002
ODOM  383.0000,  637.0000, -0.0292,  2.0000,  2.0000, 0,  1735548430.083, iRoC,  161.002
ODOM  384.0000,  637.0000, -0.0092,  2.0000,  2.0000, 0,  1735548430.083, iRoC,  161.002
ODOM  385.0000,  637.0000, -0.0092,  2.0000,  0.0000, 0,  1735548430.083, iRoC,  161.002
ODOM  386.0000,  637.0000, -0.0092,  2.0000,  0.0000, 0,  1735548430.083, iRoC,  161.002
ODOM  387.0000,  637.0000, -0.0092,  2.0000,  0.0000, 0,  1735548430.083, iRoC,  161.002
ODOM  388.0000,  638.0000, -0.0092,  2.0000,  0.0000, 0,  1735548430.083, iRoC,  161.002
ODOM  389.0000,  638.0000, -0.0092,  2.0000,  0.0000, 0,  1735548430.083, iRoC,  161.002
ODOM  390.0000,  638.0000, -0.0092,  2.0000,  0.0000, 0,  1735548430.083, iRoC,  161.002
ODOM  391.0000,  638.0000, -0.0092,  2.0000,  0.0000, 0,  1735548430.083, iRoC,  161.002
ODOM  392.0000,  638.0000, -0.0092,  2.0000,  0.0000, 0,  1735548430.083, iRoC,  161.002
ODOM  393.0000,  638.0000, -0.0092,  2.0000,  0.0000, 0,  1735548430.083, iRoC,  161.002
ODOM  394.0000,  638.0000, -0.0092,  2.0000,  0.0000, 0,  1735548430.083, iRoC,  161.002
ODOM  395.0000,  638.0000, -0.0092,  2.0000,  0.0000, 0,  1735548430.083, iRoC,  161.002
ODOM  396.0000,  638.0000, -0.0092,  2.0000,  0.0000, 0,  1735548430.083, iRoC,  161.002
ODOM  397.0000,  638.0000, -0.0092,  2.0000,  0.0000, 0,  1735548430.083, iRoC,  161.002
ODOM  398.0000,  638.0000, -0.0092,  2.0000,  0.0000, 0,  1735548430.083, iRoC,  161.003
ODOM  399.0000,  638.0000, -0.0092,  2.0000,  0.0000, 0,  1735548430.083, iRoC,  161.003
ODOM  400.0000,  638.0000, -0.0092,  2.0000,  0.0000, 0,  1735548430.083, iRoC,  161.003
ODOM  401.0000,  638.0000, -0.0092,  2.0000,  0.0000, 0,  1735548430.083, iRoC,  161.003
ODOM  402.0000,  638.0000, -0.0092,  2.0000,  0.0000, 0,  1735548430.083, iRoC,  161.003
ODOM  403.0000,  638.0000, -0.0092,  2.0000,  0.0000, 0,  1735548430.083, iRoC,  161.003
ODOM  404.0000,  638.0000, -0.0092,  2.0000,  0.0000, 0,  1735548430.083, iRoC,  161.003
ODOM  405.0000,  638.0000, -0.0092,  2.0000,  0.0000, 0,  1735548430.083, iRoC,  161.003
ODOM  406.0000,  638.0000, -0.0092,  2.0000,  0.0000, 0,  1735548430.083, iRoC,  161.003
ODOM  407.0000,  638.0000, -0.0092,  2.0000,  0.0000, 0,  1735548430.083, iRoC,  161.003
ODOM  408.0000,  638.0000, -0.0092,  2.0000,  0.0000, 0,  1735548430.083, iRoC,  161.003
ODOM  409.0000,  638.0000, -0.0092,  2.0000,  0.0000, 0,  1735548430.083, iRoC,  161.003
ODOM  410.0000,  638.0000, -0.0092,  2.0000,  0.0000, 0,  1735548430.083, iRoC,  161.003
ODOM  411.0000,  638.0000, -0.0092,  2.0000,  0.0000, 0,  1735548430.083, iRoC,  161.003
ODOM  412.0000,  638.0000, -0.0092,  2.0000,  0.0000, 0,  1735548430.083, iRoC,  161.003
ODOM  413.0000,  638.0000, -0.0092,  2.0000,  0.0000, 0,  1735548430.083, iRoC,  161.003
ODOM  414.0000,  638.0000, -0.0092,  2.0000,  0.0000, 0,  1735548430.083, iRoC,  161.003
ODOM  415.0000,  638.0000, -0.0092,  2.0000,  0.0000, 0,  1735548430.083, iRoC,  161.003
ODOM  416.0000,  638.0000, -0.0092,  2.0000,  0.0000, 0,  1735548430.083, iRoC,  161.003
ODOM  417.0000,  638.0000, -0.0092,  2.0000,  0.0000, 0,  1735548430.083, iRoC,  161.003
ODOM  418.0000,  638.0000, -0.0292,  2.0000, -2.0000, 0,  1735548430.083, iRoC,  161.003
ODOM  419.0000,  638.0000, -0.0492,  2.0000, -2.0000, 0,  1735548430.083, iRoC,  161.003
ODOM  420.0000,  638.0000, -0.0692,  2.0000, -2.0000, 0,  1735548430.083, iRoC,  161.003
ODOM  421.0000,  638.0000, -0.0892,  2.0000, -2.0000, 0,  1735548430.083, iRoC,  161.003
ODOM  422.0000,  638.0000, -0.1092,  2.0000, -2.0000, 0,  1735548430.083, iRoC,  161.003
ODOM  423.0000,  638.0000, -0.1292,  2.0000, -2.0000, 0,  1735548430.083, iRoC,  161.003
ODOM  424.0000,  638.0000, -0.1492,  2.0000, -2.0000, 0,  1735548430.083, iRoC,  161.003
ODOM  425.0000,  638.0000, -0.1492,  2.0000,  0.0000, 0,  1735548430.083, iRoC,  161.003
ODOM  426.0000,  639.0000, -0.1492,  2.0000,  0.0000, 0,  1735548430.083, iRoC,  161.003
ODOM  427.0000,  639.0000, -0.1492,  2.0000,  0.0000, 0,  1735548430.083, iRoC,  161.003
ODOM  428.0000,  639.0000, -0.1492,  2.0000,  0.0000, 0,  1735548430.083, iRoC,  161.003
ODOM  429.0000,  639.0000, -0.1492,  2.0000,  0.0000, 0,  1735548430.083, iRoC,  161.003
ODOM  430.0000,  639.0000, -0.1492,  2.0000,  0.0000, 0,  1735548430.083, iRoC,  161.003
ODOM  431.0000,  639.0000, -0.1492,  2.0000,  0.0000, 0,  1735548430.083, iRoC,  161.003
ODOM  432.0000,  640.0000, -0.1492,  2.0000,  0.0000, 0,  1735548430.083, iRoC,  161.003
ODOM  432.0000,  640.0000, -0.1492,  2.0000,  0.0000, 0,  1735548430.083, iRoC,  161.003
ODOM  433.0000,  640.0000, -0.1292,  2.0000,  2.0000, 0,  1735548430.083, iRoC,  161.003
ODOM  434.0000,  640.0000, -0.1092,  2.0000,  2.0000, 0,  1735548430.083, iRoC,  161.003
ODOM  435.0000,  640.0000, -0.0892,  2.0000,  2.0000, 0,  1735548430.083, iRoC,  161.003
ODOM  436.0000,  640.0000, -0.0692,  2.0000,  2.0000, 0,  1735548430.083, iRoC,  161.003
ODOM  437.0000,  640.0000, -0.0492,  2.0000,  2.0000, 0,  1735548430.083, iRoC,  161.003
ODOM  438.0000,  640.0000, -0.0292,  2.0000,  2.0000, 0,  1735548430.083, iRoC,  161.003
ODOM  439.0000,  640.0000, -0.0092,  2.0000,  2.0000, 0,  1735548430.083, iRoC,  161.003
ODOM  440.0000,  640.0000,  0.0108,  2.0000,  2.0000, 0,  1735548430.083, iRoC,  161.003
ODOM  441.0000,  640.0000,  0.0308,  2.0000,  2.0000, 0,  1735548430.083, iRoC,  161.003
ODOM  442.0000,  640.0000,  0.0508,  2.0000,  2.0000, 0,  1735548430.083, iRoC,  161.003
ODOM  443.0000,  640.0000,  0.0508,  2.0000,  0.0000, 0,  1735548430.083, iRoC,  161.003
ODOM  444.0000,  640.0000,  0.0508,  2.0000,  0.0000, 0,  1735548430.083, iRoC,  161.003
ODOM  445.0000,  640.0000,  0.0508,  2.0000,  0.0000, 0,  1735548430.083, iRoC,  161.003
ODOM  446.0000,  640.0000,  0.0508,  2.0000,  0.0000, 0,  1735548430.083, iRoC,  161.003
ODOM  447.0000,  640.0000,  0.0508,  2.0000,  0.0000, 0,  1735548430.083, iRoC,  161.003
ODOM  448.0000,  640.0000,  0.0508,  2.0000,  0.0000, 0,  1735548430.083, iRoC,  161.003
ODOM  449.0000,  640.0000,  0.0508,  2.0000,  0.0000, 0,  1735548430.083, iRoC,  161.003
ODOM  450.0000,  640.0000,  0.0508,  2.0000,  0.0000, 0,  1735548430.083, iRoC,  161.003
ODOM  451.0000,  640.0000,  0.0508,  2.0000,  0.0000, 0,  1735548430.083, iRoC,  161.003
ODOM  452.0000,  640.0000,  0.0508,  2.0000,  0.0000, 0,  1735548430.083, iRoC,  161.003
ODOM  453.0000,  640.0000,  0.0508,  2.0000,  0.0000, 0,  1735548430.083, iRoC,  161.003
ODOM  454.0000,  640.0000,  0.0508,  2.0000,  0.0000, 0,  1735548430.083, iRoC,  161.003
ODOM  455.0000,  639.0000,  0.0508,  2.0000,  0.0000, 0,  1735548430.083, iRoC,  161.003
ODOM  456.0000,  639.0000,  0.0508,  2.0000,  0.0000, 0,  1735548430.083, iRoC,  161.003
ODOM  457.0000,  639.0000,  0.0508,  2.0000,  0.0000, 0,  1735548430.083, iRoC,  161.003
ODOM  458.0000,  639.0000,  0.0508,  2.0000,  0.0000, 0,  1735548430.083, iRoC,  161.003
ODOM  459.0000,  639.0000,  0.0508,  2.0000,  0.0000, 0,  1735548430.083, iRoC,  161.003
ODOM  460.0000,  639.0000,  0.0508,  2.0000,  0.0000, 0,  1735548430.083, iRoC,  161.003
ODOM  461.0000,  639.0000,  0.0508,  2.0000,  0.0000, 0,  1735548430.083, iRoC,  161.003
ODOM  462.0000,  639.0000,  0.0508,  2.0000,  0.0000, 0,  1735548430.083, iRoC,  161.003
ODOM  463.0000,  639.0000,  0.0508,  2.0000,  0.0000, 0,  1735548430.083, iRoC,  161.003
ODOM  464.0000,  639.0000,  0.0508,  2.0000,  0.0000, 0,  1735548430.083, iRoC,  161.003
ODOM  465.0000,  639.0000,  0.0508,  2.0000,  0.0000, 0,  1735548430.083, iRoC,  161.003
ODOM  466.0000,  639.0000,  0.0508,  2.0000,  0.0000, 0,  1735548430.083, iRoC,  161.003
ODOM  467.0000,  639.0000,  0.0508,  2.0000,  0.0000, 0,  1735548430.083, iRoC,  161.003
ODOM  468.0000,  639.0000,  0.0508,  2.0000,  0.0000, 0,  1735548430.083, iRoC,  161.003
ODOM  469.0000,  639.0000,  0.0508,  2.0000,  0.0000, 0,  1735548430.083, iRoC,  161.003
ODOM  470.0000,  639.0000,  0.0508,  2.0000,  0.0000, 0,  1735548430.083, iRoC,  161.003
ODOM  471.0000,  639.0000,  0.0508,  2.0000,  0.0000, 0,  1735548430.083, iRoC,  161.003
ODOM  472.0000,  639.0000,  0.0508,  2.0000,  0.0000, 0,  1735548430.083, iRoC,  161.003
ODOM  473.0000,  639.0000,  0.0508,  2.0000,  0.0000, 0,  1735548430.083, iRoC,  161.003
ODOM  474.0000,  639.0000,  0.0508,  2.0000,  0.0000, 0,  1735548430.083, iRoC,  161.003
ODOM  475.0000,  638.0000,  0.0508,  2.0000,  0.0000, 0,  1735548430.083, iRoC,  161.003
ODOM  476.0000,  638.0000,  0.0508,  2.0000,  0.0000, 0,  1735548430.083, iRoC,  161.003
ODOM  477.0000,  638.0000,  0.0508,  2.0000,  0.0000, 0,  1735548430.083, iRoC,  161.003
ODOM  478.0000,  638.0000,  0.0308,  2.0000, -2.0000, 0,  1735548430.083, iRoC,  161.003
ODOM  479.0000,  638.0000,  0.0108,  2.0000, -2.0000, 0,  1735548430.083, iRoC,  161.003
ODOM  480.0000,  638.0000, -0.0092,  2.0000, -2.0000, 0,  1735548430.083, iRoC,  161.003
ODOM  481.0000,  638.0000, -0.0292,  2.0000, -2.0000, 0,  1735548430.083, iRoC,  161.003
ODOM  482.0000,  638.0000, -0.0492,  2.0000, -2.0000, 0,  1735548430.083, iRoC,  161.003
ODOM  483.0000,  638.0000, -0.0692,  2.0000, -2.0000, 0,  1735548430.083, iRoC,  161.003
ODOM  484.0000,  639.0000, -0.0692,  2.0000,  0.0000, 0,  1735548430.083, iRoC,  161.003
ODOM  485.0000,  639.0000, -0.0692,  2.0000,  0.0000, 0,  1735548430.083, iRoC,  161.003
ODOM  486.0000,  639.0000, -0.0692,  2.0000,  0.0000, 0,  1735548430.083, iRoC,  161.003
ODOM  487.0000,  639.0000, -0.0692,  2.0000,  0.0000, 0,  1735548430.083, iRoC,  161.003
ODOM  488.0000,  639.0000, -0.0692,  2.0000,  0.0000, 0,  1735548430.083, iRoC,  161.003
ODOM  489.0000,  639.0000, -0.0692,  2.0000,  0.0000, 0,  1735548430.083, iRoC,  161.003
ODOM  490.0000,  639.0000, -0.0692,  2.0000,  0.0000, 0,  1735548430.083, iRoC,  161.003
ODOM  491.0000,  639.0000, -0.0692,  2.0000,  0.0000, 0,  1735548430.083, iRoC,  161.003
ODOM  492.0000,  639.0000, -0.0692,  2.0000,  0.0000, 0,  1735548430.083, iRoC,  161.003
ODOM  493.0000,  639.0000, -0.0692,  2.0000,  0.0000, 0,  1735548430.083, iRoC,  161.003
ODOM  494.0000,  639.0000, -0.0692,  2.0000,  0.0000, 0,  1735548430.083, iRoC,  161.003
ODOM  495.0000,  639.0000, -0.0692,  2.0000,  0.0000, 0,  1735548430.083, iRoC,  161.003
ODOM  496.0000,  639.0000, -0.0692,  2.0000,  0.0000, 0,  1735548430.083, iRoC,  161.003
ODOM  497.0000,  639.0000, -0.0692,  2.0000,  0.0000, 0,  1735548430.083, iRoC,  161.003
ODOM  498.0000,  639.0000, -0.0692,  2.0000,  0.0000, 0,  1735548430.083, iRoC,  161.003
ODOM  499.0000,  640.0000, -0.0692,  2.0000,  0.0000, 0,  1735548430.083, iRoC,  161.003
