x_pixel, y_pixel, heading_rad,velocity_trans,velocity_rot, 0, start_timestamp, iRoc, end_timestamp
ODOM  1.0000,  1.0000,  1.5708,  0.0000,  0.0000, 0,  1735548430.083, iRoC,  161.029
ODOM  1.0000,  1.0000,  1.5708,  0.0000,  0.0000, 0,  1735548430.083, iRoC,  161.029
ODOM  1.0000,  1.0000,  1.5708,  0.0000,  0.0000, 0,  1735548430.083, iRoC,  161.029
ODOM  1.0000,  1.0000,  1.5708,  0.0000,  0.0000, 0,  1735548430.083, iRoC,  161.029
ODOM  1.0000,  1.0000,  1.5708,  0.0000,  0.0000, 0,  1735548430.083, iRoC,  161.029
ODOM  1.0000,  1.0000,  1.5708,  0.0000,  0.0000, 0,  1735548430.083, iRoC,  161.029
ODOM  1.0000,  1.0000,  1.5708,  0.0000,  0.0000, 0,  1735548430.083, iRoC,  161.029
ODOM  1.0000,  1.0000,  1.5708,  0.0000,  0.0000, 0,  1735548430.083, iRoC,  161.029
ODOM  1.0000,  1.0000,  1.5708,  0.0000,  0.0000, 0,  1735548430.083, iRoC,  161.029
ODOM  1.0000,  1.0000,  1.5708,  0.0000,  0.0000, 0,  1735548430.083, iRoC,  161.029
ODOM  1.0000,  1.0000,  1.5708,  0.0000,  0.0000, 0,  1735548430.083, iRoC,  161.029
ODOM  1.0000,  1.0000,  1.5708,  0.0000,  0.0000, 0,  1735548430.083, iRoC,  161.029
ODOM  1.0000,  1.0000,  1.5708,  0.0000,  0.0000, 0,  1735548430.083, iRoC,  161.029
ODOM  1.0000,  1.0000,  1.5708,  0.0000,  0.0000, 0,  1735548430.083, iRoC,  161.029
ODOM  1.0000,  1.0000,  1.5708,  0.0000,  0.0000, 0,  1735548430.083, iRoC,  161.029
ODOM  1.0000,  1.0000,  1.5708,  0.0000,  0.0000, 0,  1735548430.083, iRoC,  161.029
ODOM  1.0000,  1.0000,  1.5708,  0.0000,  0.0000, 0,  1735548430.083, iRoC,  161.029
ODOM  1.0000,  1.0000,  1.5708,  0.0000,  0.0000, 0,  1735548430.083, iRoC,  161.029
ODOM  1.0000,  1.0000,  1.5708,  0.0000,  0.0000, 0,  1735548430.083, iRoC,  161.029
ODOM  1.0000,  1.0000,  1.5708,  0.0000,  0.0000, 0,  1735548430.083, iRoC,  161.029
ODOM  1.0000,  1.0000,  1.5708,  0.0000,  0.0000, 0,  1735548430.083, iRoC,  161.029
ODOM  1.0000,  1.0000,  1.5708,  0.0000,  0.0000, 0,  1735548430.083, iRoC,  161.029
ODOM  1.0000,  1.0000,  1.5708,  0.0000,  0.0000, 0,  1735548430.083, iRoC,  161.029
ODOM  1.0000,  1.0000,  1.5708,  0.0000,  0.0000, 0,  1735548430.083, iRoC,  161.029
ODOM  1.0000,  1.0000,  1.5708,  0.0000,  0.0000, 0,  1735548430.083, iRoC,  161.029
ODOM  1.0000,  1.0000,  1.5708,  0.0000,  0.0000, 0,  1735548430.083, iRoC,  161.029
ODOM  1.0000,  1.0000,  1.5708,  0.0000,  0.0000, 0,  1735548430.083, iRoC,  161.029
ODOM  1.0000,  1.0000,  1.5708,  0.0000,  0.0000, 0,  1735548430.083, iRoC,  161.029
ODOM  1.0000,  1.0000,  1.5708,  0.0000,  0.0000, 0,  1735548430.083, iRoC,  161.029
ODOM  1.0000,  1.0000,  1.5708,  0.0000,  0.0000, 0,  1735548430.083, iRoC,  161.029
ODOM  1.0000,  1.0000,  1.5708,  0.0000,  0.0000, 0,  1735548430.083, iRoC,  161.029
ODOM  1.0000,  1.0000,  1.5708,  0.0000,  0.0000, 0,  1735548430.083, iRoC,  161.029
ODOM  1.0000,  1.0000,  1.5708,  0.0000,  0.0000, 0,  1735548430.083, iRoC,  161.029
ODOM  1.0000,  1.0000,  1.5708,  0.0000,  0.0000, 0,  1735548430.083, iRoC,  161.029
ODOM  1.0000,  1.0000,  1.5708,  0.0000,  0.0000, 0,  1735548430.083, iRoC,  161.029
ODOM  1.0000,  1.0000,  1.5708,  0.0000,  0.0000, 0,  1735548430.083, iRoC,  161.029
ODOM  1.0000,  1.0000,  1.5708,  0.0000,  0.0000, 0,  1735548430.083, iRoC,  161.029
ODOM  1.0000,  1.0000,  1.5708,  0.0000,  0.0000, 0,  1735548430.083, iRoC,  161.029
ODOM  1.0000,  1.0000,  1.5708,  0.0000,  0.0000, 0,  1735548430.083, iRoC,  161.029
ODOM  1.0000,  1.0000,  1.5708,  0.0000,  0.0000, 0,  1735548430.083, iRoC,  161.029
ODOM  1.0000,  1.0000,  1.5708,  0.0000,  0.0000, 0,  1735548430.083, iRoC,  161.029
ODOM  1.0000,  1.0000,  1.5708,  0.0000,  0.0000, 0,  1735548430.083, iRoC,  161.029
ODOM  1.0000,  1.0000,  1.5708,  0.0000,  0.0000, 0,  1735548430.083, iRoC,  161.029
ODOM  1.0000,  1.0000,  1.5708,  0.0000,  0.0000, 0,  1735548430.083, iRoC,  161.029
ODOM  1.0000,  1.0000,  1.5708,  0.0000,  0.0000, 0,  1735548430.083, iRoC,  161.029
ODOM  1.0000,  1.0000,  1.5708,  0.0000,  0.0000, 0,  1735548430.083, iRoC,  161.029
ODOM  1.0000,  1.0000,  1.5708,  0.0000,  0.0000, 0,  1735548430.083, iRoC,  161.029
ODOM  1.0000,  1.0000,  1.5708,  0.0000,  0.0000, 0,  1735548430.083, iRoC,  161.029
ODOM  1.0000,  1.0000,  1.5708,  0.0000,  0.0000, 0,  1735548430.083, iRoC,  161.029
ODOM  1.0000,  1.0000,  1.5708,  0.0000,  0.0000, 0,  1735548430.083, iRoC,  161.029
ODOM  1.0000,  1.0000,  1.5708,  0.0000,  0.0000, 0,  1735548430.083, iRoC,  161.029
ODOM  1.0000,  1.0000,  1.5708,  0.0000,  0.0000, 0,  1735548430.083, iRoC,  161.029
ODOM  1.0000,  1.0000,  1.5708,  0.0000,  0.0000, 0,  1735548430.083, iRoC,  161.029
ODOM  1.0000,  1.0000,  1.5708,  0.0000,  0.0000, 0,  1735548430.083, iRoC,  161.029
ODOM  1.0000,  1.0000,  1.5708,  0.0000,  0.0000, 0,  1735548430.083, iRoC,  161.029
ODOM  1.0000,  1.0000,  1.5708,  0.0000,  0.0000, 0,  1735548430.083, iRoC,  161.029
ODOM  1.0000,  1.0000,  1.5708,  0.0000,  0.0000, 0,  1735548430.083, iRoC,  161.029
ODOM  1.0000,  1.0000,  1.5708,  0.0000,  0.0000, 0,  1735548430.083, iRoC,  161.029
ODOM  1.0000,  1.0000,  1.5708,  0.0000,  0.0000, 0,  1735548430.083, iRoC,  161.029
ODOM  1.0000,  1.0000,  1.5708,  0.0000,  0.0000, 0,  1735548430.083, iRoC,  161.029
ODOM  1.0000,  1.0000,  1.5708,  0.0000,  0.0000, 0,  1735548430.083, iRoC,  161.029
ODOM  1.0000,  1.0000,  1.5708,  0.0000,  0.0000, 0,  1735548430.083, iRoC,  161.029
ODOM  1.0000,  1.0000,  1.5708,  0.0000,  0.0000, 0,  1735548430.083, iRoC,  161.029
ODOM  1.0000,  1.0000,  1.5708,  0.0000,  0.0000, 0,  1735548430.083, iRoC,  161.029
ODOM  1.0000,  1.0000,  1.5708,  0.0000,  0.0000, 0,  1735548430.083, iRoC,  161.029
ODOM  1.0000,  1.0000,  1.5708,  0.0000,  0.0000, 0,  1735548430.083, iRoC,  161.029
ODOM  1.0000,  1.0000,  1.5708,  0.0000,  0.0000, 0,  1735548430.083, iRoC,  161.029
ODOM  1.0000,  1.0000,  1.5708,  0.0000,  0.0000, 0,  1735548430.083, iRoC,  161.029
ODOM  1.0000,  1.0000,  1.5708,  0.0000,  0.0000, 0,  1735548430.083, iRoC,  161.029
ODOM  1.0000,  1.0000,  1.5708,  0.0000,  0.0000, 0,  1735548430.083, iRoC,  161.029
ODOM  1.0000,  1.0000,  1.5708,  0.0000,  0.0000, 0,  1735548430.083, iRoC,  161.029
ODOM  1.0000,  1.0000,  1.5708,  0.0000,  0.0000, 0,  1735548430.083, iRoC,  161.029
ODOM  1.0000,  1.0000,  1.5708,  0.0000,  0.0000, 0,  1735548430.083, iRoC,  161.029
ODOM  1.0000,  1.0000,  1.5708,  0.0000,  0.0000, 0,  1735548430.083, iRoC,  161.029
ODOM  1.0000,  1.0000,  1.5708,  0.0000,  0.0000, 0,  1735548430.083, iRoC,  161.029
ODOM  1.0000,  1.0000,  1.5708,  0.0000,  0.0000, 0,  1735548430.083, iRoC,  161.029
ODOM  1.0000,  1.0000,  1.5708,  0.0000,  0.0000, 0,  1735548430.083, iRoC,  161.029
ODOM  1.0000,  1.0000,  1.5708,  0.0000,  0.0000, 0,  1735548430.083, iRoC,  161.029
ODOM  1.0000,  1.0000,  1.5708,  0.0000,  0.0000, 0,  1735548430.083, iRoC,  161.029
ODOM  1.0000,  1.0000,  1.5708,  0.0000,  0.0000, 0,  1735548430.083, iRoC,  161.029
ODOM  1.0000,  1.0000,  1.5708,  0.0000,  0.0000, 0,  1735548430.083, iRoC,  161.029
ODOM  1.0000,  1.0000,  1.5708,  0.0000,  0.0000, 0,  1735548430.083, iRoC,  161.029
ODOM  1.0000,  1.0000,  1.5708,  0.0000,  0.0000, 0,  1735548430.083, iRoC,  161.029
ODOM  1.0000,  1.0000,  1.5708,  0.0000,  0.0000, 0,  1735548430.083, iRoC,  161.029
ODOM  1.0000,  1.0000,  1.5708,  0.0000,  0.0000, 0,  1735548430.083, iRoC,  161.029
ODOM  1.0000,  1.0000,  1.5708,  0.0000,  0.0000, 0,  1735548430.083, iRoC,  161.029
ODOM  1.0000,  1.0000,  1.5508,  0.0000, -2.0000, 0,  1735548430.083, iRoC,  161.029
ODOM  1.0000,  1.0000,  1.5308,  0.0000, -2.0000, 0,  1735548430.083, iRoC,  161.029
ODOM  1.0000,  1.0000,  1.5108,  0.0000, -2.0000, 0,  1735548430.083, iRoC,  161.029
ODOM  1.0000,  1.0000,  1.4908,  0.0000, -2.0000, 0,  1735548430.083, iRoC,  161.029
ODOM  1.0000,  1.0000,  1.4708,  0.0000, -2.0000, 0,  1735548430.083, iRoC,  161.029
ODOM  1.0000,  1.0000,  1.4508,  0.0000, -2.0000, 0,  1735548430.083, iRoC,  161.029
ODOM  1.0000,  1.0000,  1.4308,  0.0000, -2.0000, 0,  1735548430.083, iRoC,  161.029
ODOM  1.0000,  1.0000,  1.4108,  0.0000, -2.0000, 0,  1735548430.083, iRoC,  161.029
ODOM  1.0000,  1.0000,  1.3908,  0.0000, -2.0000, 0,  1735548430.083, iRoC,  161.029
ODOM  1.0000,  1.0000,  1.3708,  0.0000, -2.0000, 0,  1735548430.083, iRoC,  161.029
ODOM  1.0000,  1.0000,  1.3508,  0.0000, -2.0000, 0,  1735548430.083, iRoC,  161.029
ODOM  1.0000,  1.0000,  1.3508,  0.0000,  0.0000, 0,  1735548430.083, iRoC,  161.029
ODOM  1.0000,  1.0000,  1.3508,  0.0000,  0.0000, 0,  1735548430.083, iRoC,  161.029
ODOM  1.0000,  1.0000,  1.3508,  0.0000,  0.0000, 0,  1735548430.083, iRoC,  161.029
ODOM  1.0000,  1.0000,  1.3308,  0.0000, -2.0000, 0,  1735548430.083, iRoC,  161.029
ODOM  1.0000,  1.0000,  1.3108,  0.0000, -2.0000, 0,  1735548430.083, iRoC,  161.029
ODOM  1.0000,  1.0000,  1.2908,  0.0000, -2.0000, 0,  1735548430.083, iRoC,  161.029
ODOM  1.0000,  1.0000,  1.2708,  0.0000, -2.0000, 0,  1735548430.083, iRoC,  161.029
ODOM  1.0000,  1.0000,  1.2508,  0.0000, -2.0000, 0,  1735548430.083, iRoC,  161.029
ODOM  1.0000,  1.0000,  1.2308,  0.0000, -2.0000, 0,  1735548430.083, iRoC,  161.029
ODOM  1.0000,  1.0000,  1.2108,  0.0000, -2.0000, 0,  1735548430.083, iRoC,  161.029
ODOM  1.0000,  1.0000,  1.1908,  0.0000, -2.0000, 0,  1735548430.083, iRoC,  161.029
ODOM  1.0000,  1.0000,  1.1708,  0.0000, -2.0000, 0,  1735548430.083, iRoC,  161.029
ODOM  1.0000,  1.0000,  1.1508,  0.0000, -2.0000, 0,  1735548430.083, iRoC,  161.029
ODOM  1.0000,  1.0000,  1.1308,  0.0000, -2.0000, 0,  1735548430.083, iRoC,  161.029
ODOM  1.0000,  1.0000,  1.1108,  0.0000, -2.0000, 0,  1735548430.083, iRoC,  161.029
ODOM  1.0000,  1.0000,  1.0908,  0.0000, -2.0000, 0,  1735548430.083, iRoC,  161.029
ODOM  1.0000,  1.0000,  1.0708,  0.0000, -2.0000, 0,  1735548430.083, iRoC,  161.029
ODOM  1.0000,  1.0000,  1.0508,  0.0000, -2.0000, 0,  1735548430.083, iRoC,  161.029
ODOM  1.0000,  1.0000,  1.0308,  0.0000, -2.0000, 0,  1735548430.083, iRoC,  161.029
ODOM  1.0000,  1.0000,  1.0108,  0.0000, -2.0000, 0,  1735548430.083, iRoC,  161.029
ODOM  1.0000,  1.0000,  0.9908,  0.0000, -2.0000, 0,  1735548430.083, iRoC,  161.029
ODOM  1.0000,  1.0000,  0.9708,  0.0000, -2.0000, 0,  1735548430.083, iRoC,  161.029
ODOM  1.0000,  1.0000,  0.9508,  0.0000, -2.0000, 0,  1735548430.083, iRoC,  161.029
ODOM  1.0000,  1.0000,  0.9308,  0.0000, -2.0000, 0,  1735548430.083, iRoC,  161.029
ODOM  1.0000,  1.0000,  0.9108,  0.0000, -2.0000, 0,  1735548430.083, iRoC,  161.029
ODOM  1.0000,  1.0000,  0.8908,  0.0000, -2.0000, 0,  1735548430.083, iRoC,  161.029
ODOM  1.0000,  1.0000,  0.8708,  0.0000, -2.0000, 0,  1735548430.083, iRoC,  161.029
ODOM  1.0000,  1.0000,  0.8508,  0.0000, -2.0000, 0,  1735548430.083, iRoC,  161.029
ODOM  1.0000,  1.0000,  0.8308,  0.0000, -2.0000, 0,  1735548430.083, iRoC,  161.029
ODOM  1.0000,  1.0000,  0.8108,  0.0000, -2.0000, 0,  1735548430.083, iRoC,  161.029
ODOM  1.0000,  1.0000,  0.7908,  0.0000, -2.0000, 0,  1735548430.083, iRoC,  161.029
ODOM  1.0000,  1.0000,  0.7708,  0.0000, -2.0000, 0,  1735548430.083, iRoC,  161.029
ODOM  1.0000,  1.0000,  0.7508,  0.0000, -2.0000, 0,  1735548430.083, iRoC,  161.029
ODOM  1.0000,  1.0000,  0.7308,  0.0000, -2.0000, 0,  1735548430.083, iRoC,  161.029
ODOM  1.0000,  1.0000,  0.7108,  0.0000, -2.0000, 0,  1735548430.083, iRoC,  161.029
ODOM  1.0000,  1.0000,  0.6908,  0.0000, -2.0000, 0,  1735548430.083, iRoC,  161.029
ODOM  1.0000,  1.0000,  0.6708,  0.0000, -2.0000, 0,  1735548430.083, iRoC,  161.029
ODOM  1.0000,  1.0000,  0.6508,  0.0000, -2.0000, 0,  1735548430.083, iRoC,  161.029
ODOM  1.0000,  1.0000,  0.6308,  0.0000, -2.0000, 0,  1735548430.083, iRoC,  161.029
ODOM  1.0000,  1.0000,  0.6108,  0.0000, -2.0000, 0,  1735548430.083, iRoC,  161.029
ODOM  1.0000,  1.0000,  0.5908,  0.0000, -2.0000, 0,  1735548430.083, iRoC,  161.029
ODOM  1.0000,  1.0000,  0.5708,  0.0000, -2.0000, 0,  1735548430.083, iRoC,  161.029
ODOM  1.0000,  1.0000,  0.5508,  0.0000, -2.0000, 0,  1735548430.083, iRoC,  161.029
ODOM  1.0000,  1.0000,  0.5308,  0.0000, -2.0000, 0,  1735548430.083, iRoC,  161.029
ODOM  1.0000,  1.0000,  0.5108,  0.0000, -2.0000, 0,  1735548430.083, iRoC,  161.029
ODOM  1.0000,  1.0000,  0.4908,  0.0000, -2.0000, 0,  1735548430.083, iRoC,  161.029
ODOM  1.0000,  1.0000,  0.4908,  0.0000,  0.0000, 0,  1735548430.083, iRoC,  161.029
ODOM  1.0000,  1.0000,  0.4908,  0.0000,  0.0000, 0,  1735548430.083, iRoC,  161.029
ODOM  1.0000,  1.0000,  0.4908,  0.0000,  0.0000, 0,  1735548430.083, iRoC,  161.029
ODOM  1.0000,  1.0000,  0.4908,  0.0000,  0.0000, 0,  1735548430.083, iRoC,  161.029
ODOM  1.0000,  1.0000,  0.4908,  0.0000,  0.0000, 0,  1735548430.083, iRoC,  161.029
ODOM  1.0000,  1.0000,  0.4908,  0.0000,  0.0000, 0,  1735548430.083, iRoC,  161.029
ODOM  1.0000,  1.0000,  0.4708,  0.0000, -2.0000, 0,  1735548430.083, iRoC,  161.029
ODOM  1.0000,  1.0000,  0.4508,  0.0000, -2.0000, 0,  1735548430.083, iRoC,  161.029
ODOM  1.0000,  1.0000,  0.4308,  0.0000, -2.0000, 0,  1735548430.083, iRoC,  161.029
ODOM  1.0000,  1.0000,  0.4108,  0.0000, -2.0000, 0,  1735548430.083, iRoC,  161.029
ODOM  1.0000,  1.0000,  0.3908,  0.0000, -2.0000, 0,  1735548430.083, iRoC,  161.029
ODOM  1.0000,  1.0000,  0.3708,  0.0000, -2.0000, 0,  1735548430.083, iRoC,  161.029
ODOM  1.0000,  1.0000,  0.3508,  0.0000, -2.0000, 0,  1735548430.083, iRoC,  161.029
ODOM  1.0000,  1.0000,  0.3308,  0.0000, -2.0000, 0,  1735548430.083, iRoC,  161.029
ODOM  1.0000,  1.0000,  0.3108,  0.0000, -2.0000, 0,  1735548430.083, iRoC,  161.029
ODOM  1.0000,  1.0000,  0.3108,  0.0000,  0.0000, 0,  1735548430.083, iRoC,  161.029
ODOM  1.0000,  1.0000,  0.3108,  0.0000,  0.0000, 0,  1735548430.083, iRoC,  161.029
ODOM  1.0000,  1.0000,  0.2908,  0.0000, -2.0000, 0,  1735548430.083, iRoC,  161.029
ODOM  1.0000,  1.0000,  0.2708,  0.0000, -2.0000, 0,  1735548430.083, iRoC,  161.029
ODOM  1.0000,  1.0000,  0.2508,  0.0000, -2.0000, 0,  1735548430.083, iRoC,  161.029
ODOM  1.0000,  1.0000,  0.2308,  0.0000, -2.0000, 0,  1735548430.083, iRoC,  161.029
ODOM  1.0000,  1.0000,  0.2108,  0.0000, -2.0000, 0,  1735548430.083, iRoC,  161.029
ODOM  1.0000,  1.0000,  0.1908,  0.0000, -2.0000, 0,  1735548430.083, iRoC,  161.029
ODOM  1.0000,  1.0000,  0.1908,  0.0000,  0.0000, 0,  1735548430.083, iRoC,  161.029
ODOM  1.0000,  1.0000,  0.1908,  0.0000,  0.0000, 0,  1735548430.083, iRoC,  161.029
ODOM  1.0000,  1.0000,  0.1908,  0.0000,  0.0000, 0,  1735548430.083, iRoC,  161.029
ODOM  1.0000,  1.0000,  0.1908,  0.0000,  0.0000, 0,  1735548430.083, iRoC,  161.029
ODOM  1.0000,  1.0000,  0.1708,  0.0000, -2.0000, 0,  1735548430.083, iRoC,  161.029
ODOM  1.0000,  1.0000,  0.1508,  0.0000, -2.0000, 0,  1735548430.083, iRoC,  161.029
ODOM  1.0000,  1.0000,  0.1308,  0.0000, -2.0000, 0,  1735548430.083, iRoC,  161.029
ODOM  1.0000,  1.0000,  0.1108,  0.0000, -2.0000, 0,  1735548430.083, iRoC,  161.029
ODOM  1.0000,  1.0000,  0.0908,  0.0000, -2.0000, 0,  1735548430.083, iRoC,  161.029
ODOM  1.0000,  1.0000,  0.0708,  0.0000, -2.0000, 0,  1735548430.083, iRoC,  161.029
ODOM  1.0000,  1.0000,  0.0508,  0.0000, -2.0000, 0,  1735548430.083, iRoC,  161.029
ODOM  1.0000,  1.0000,  0.0308,  0.0000, -2.0000, 0,  1735548430.083, iRoC,  161.029
ODOM  1.0000,  1.0000,  0.0308,  0.0000,  0.0000, 0,  1735548430.083, iRoC,  161.029
ODOM  1.0000,  1.0000,  0.0308,  0.0000,  0.0000, 0,  1735548430.083, iRoC,  161.029
ODOM  1.0000,  1.0000,  0.0308,  0.0000,  0.0000, 0,  1735548430.083, iRoC,  161.029
ODOM  1.0000,  1.0000,  0.0308,  0.0000,  0.0000, 0,  1735548430.083, iRoC,  161.029
ODOM  1.0000,  1.0000,  0.0308,  0.0000,  0.0000, 0,  1735548430.083, iRoC,  161.029
ODOM  1.0000,  1.0000,  0.0308,  0.0000,  0.0000, 0,  1735548430.083, iRoC,  161.029
ODOM  1.0000,  1.0000,  0.0308,  0.0000,  0.0000, 0,  1735548430.083, iRoC,  161.029
ODOM  1.0000,  1.0000,  0.0308,  0.0000,  0.0000, 0,  1735548430.083, iRoC,  161.029
ODOM  1.0000,  1.0000,  0.0308,  0.0000,  0.0000, 0,  1735548430.083, iRoC,  161.029
ODOM  1.0000,  1.0000,  0.0308,  0.0000,  0.0000, 0,  1735548430.083, iRoC,  161.029
ODOM  1.0000,  1.0000,  0.0308,  0.0000,  0.0000, 0,  1735548430.083, iRoC,  161.029
ODOM  1.0000,  1.0000,  0.0308,  0.0000,  0.0000, 0,  1735548430.083, iRoC,  161.029
ODOM  1.0000,  1.0000,  0.0308,  0.0000,  0.0000, 0,  1735548430.083, iRoC,  161.029
ODOM  1.0000,  1.0000,  0.0308,  0.0000,  0.0000, 0,  1735548430.083, iRoC,  161.029
ODOM  1.0000,  1.0000,  0.0308,  0.0000,  0.0000, 0,  1735548430.083, iRoC,  161.029
ODOM  1.0000,  1.0000,  0.0308,  0.0000,  0.0000, 0,  1735548430.083, iRoC,  161.029
ODOM  1.0000,  1.0000,  0.0308,  0.0000,  0.0000, 0,  1735548430.083, iRoC,  161.029
ODOM  1.0000,  1.0000,  0.0308,  0.0000,  0.0000, 0,  1735548430.083, iRoC,  161.029
ODOM  1.0000,  1.0000,  0.0308,  0.0000,  0.0000, 0,  1735548430.083, iRoC,  161.029
ODOM  1.0000,  1.0000,  0.0308,  0.0000,  0.0000, 0,  1735548430.083, iRoC,  161.029
ODOM  1.0000,  1.0000,  0.0308,  0.0000,  0.0000, 0,  1735548430.083, iRoC,  161.029
ODOM  1.0000,  1.0000,  0.0308,  0.0000,  0.0000, 0,  1735548430.083, iRoC,  161.029
ODOM  1.0000,  1.0000,  0.0308,  0.0000,  0.0000, 0,  1735548430.083, iRoC,  161.029
ODOM  1.0000,  1.0000,  0.0308,  0.0000,  0.0000, 0,  1735548430.083, iRoC,  161.029
ODOM  1.0000,  1.0000,  0.0308,  0.0000,  0.0000, 0,  1735548430.083, iRoC,  161.029
ODOM  1.0000,  1.0000,  0.0308,  0.0000,  0.0000, 0,  1735548430.083, iRoC,  161.029
ODOM  1.0000,  1.0000,  0.0308,  0.0000,  0.0000, 0,  1735548430.083, iRoC,  161.029
ODOM  1.0000,  1.0000,  0.0308,  0.0000,  0.0000, 0,  1735548430.083, iRoC,  161.029
ODOM  1.0000,  1.0000,  0.0308,  0.0000,  0.0000, 0,  1735548430.083, iRoC,  161.029
ODOM  1.0000,  1.0000,  0.0308,  0.0000,  0.0000, 0,  1735548430.083, iRoC,  161.029
ODOM  1.0000,  1.0000,  0.0308,  0.0000,  0.0000, 0,  1735548430.083, iRoC,  161.029
ODOM  1.0000,  1.0000,  0.0308,  0.0000,  0.0000, 0,  1735548430.083, iRoC,  161.029
ODOM  1.0000,  1.0000,  0.0308,  0.0000,  0.0000, 0,  1735548430.083, iRoC,  161.029
ODOM  1.0000,  1.0000,  0.0308,  0.0000,  0.0000, 0,  1735548430.083, iRoC,  161.029
ODOM  1.0000,  1.0000,  0.0308,  0.0000,  0.0000, 0,  1735548430.083, iRoC,  161.029
ODOM  1.0000,  1.0000,  0.0308,  0.0000,  0.0000, 0,  1735548430.083, iRoC,  161.029
ODOM  1.0000,  1.0000,  0.0308,  0.0000,  0.0000, 0,  1735548430.083, iRoC,  161.029
ODOM  1.0000,  1.0000,  0.0308,  0.0000,  0.0000, 0,  1735548430.083, iRoC,  161.029
ODOM  1.0000,  1.0000,  0.0308,  0.0000,  0.0000, 0,  1735548430.083, iRoC,  161.030
ODOM  1.0000,  1.0000,  0.0308,  0.0000,  0.0000, 0,  1735548430.083, iRoC,  161.030
ODOM  1.0000,  1.0000,  0.0308,  0.0000,  0.0000, 0,  1735548430.083, iRoC,  161.030
ODOM  1.0000,  1.0000,  0.0308,  0.0000,  0.0000, 0,  1735548430.083, iRoC,  161.030
ODOM  1.0000,  1.0000,  0.0308,  0.0000,  0.0000, 0,  1735548430.083, iRoC,  161.030
ODOM  1.0000,  1.0000,  0.0308,  0.0000,  0.0000, 0,  1735548430.083, iRoC,  161.030
ODOM  1.0000,  1.0000,  0.0308,  0.0000,  0.0000, 0,  1735548430.083, iRoC,  161.030
ODOM  1.0000,  1.0000,  0.0308,  0.0000,  0.0000, 0,  1735548430.083, iRoC,  161.030
ODOM  1.0000,  1.0200,  0.0308,  2.0000,  0.0000, 0,  1735548430.083, iRoC,  161.030
ODOM  1.0200,  1.0200,  0.0308,  2.0000,  0.0000, 0,  1735548430.083, iRoC,  161.030
ODOM  1.0400,  1.0200,  0.0308,  2.0000,  0.0000, 0,  1735548430.083, iRoC,  161.030
ODOM  1.0600,  1.0200,  0.0308,  2.0000,  0.0000, 0,  1735548430.083, iRoC,  161.030
ODOM  1.0800,  1.0200,  0.0308,  2.0000,  0.0000, 0,  1735548430.083, iRoC,  161.030
ODOM  1.1000,  1.0200,  0.0308,  2.0000,  0.0000, 0,  1735548430.083, iRoC,  161.030
ODOM  1.1200,  1.0200,  0.0308,  2.0000,  0.0000, 0,  1735548430.083, iRoC,  161.030
ODOM  1.1400,  1.0200,  0.0308,  2.0000,  0.0000, 0,  1735548430.083, iRoC,  161.030
ODOM  1.1600,  1.0200,  0.0308,  2.0000,  0.0000, 0,  1735548430.083, iRoC,  161.030
ODOM  1.1800,  1.0200,  0.0308,  2.0000,  0.0000, 0,  1735548430.083, iRoC,  161.030
ODOM  1.2000,  1.0200,  0.0308,  2.0000,  0.0000, 0,  1735548430.083, iRoC,  161.030
ODOM  1.2200,  1.0200,  0.0308,  2.0000,  0.0000, 0,  1735548430.083, iRoC,  161.030
ODOM  1.2400,  1.0200,  0.0308,  2.0000,  0.0000, 0,  1735548430.083, iRoC,  161.030
ODOM  1.2600,  1.0200,  0.0308,  2.0000,  0.0000, 0,  1735548430.083, iRoC,  161.030
ODOM  1.2800,  1.0200,  0.0308,  2.0000,  0.0000, 0,  1735548430.083, iRoC,  161.030
ODOM  1.3000,  1.0200,  0.0308,  2.0000,  0.0000, 0,  1735548430.083, iRoC,  161.030
ODOM  1.3200,  1.0200,  0.0308,  2.0000,  0.0000, 0,  1735548430.083, iRoC,  161.030
ODOM  1.3400,  1.0200,  0.0308,  2.0000,  0.0000, 0,  1735548430.083, iRoC,  161.030
ODOM  1.3600,  1.0200,  0.0308,  2.0000,  0.0000, 0,  1735548430.083, iRoC,  161.030
ODOM  1.3800,  1.0200,  0.0308,  2.0000,  0.0000, 0,  1735548430.083, iRoC,  161.030
ODOM  1.4000,  1.0200,  0.0308,  2.0000,  0.0000, 0,  1735548430.083, iRoC,  161.030
ODOM  1.4200,  1.0200,  0.0308,  2.0000,  0.0000, 0,  1735548430.083, iRoC,  161.030
ODOM  1.4400,  1.0200,  0.0308,  2.0000,  0.0000, 0,  1735548430.083, iRoC,  161.030
ODOM  1.4600,  1.0200,  0.0308,  2.0000,  0.0000, 0,  1735548430.083, iRoC,  161.030
ODOM  1.4800,  1.0200,  0.0308,  2.0000,  0.0000, 0,  1735548430.083, iRoC,  161.030
ODOM  1.5000,  1.0200,  0.0308,  2.0000,  0.0000, 0,  1735548430.083, iRoC,  161.030
ODOM  1.5200,  1.0200,  0.0308,  2.0000,  0.0000, 0,  1735548430.083, iRoC,  161.030
ODOM  1.5400,  1.0200,  0.0308,  2.0000,  0.0000, 0,  1735548430.083, iRoC,  161.030
ODOM  1.5600,  1.0200,  0.0308,  2.0000,  0.0000, 0,  1735548430.083, iRoC,  161.030
ODOM  1.5800,  1.0200,  0.0308,  2.0000,  0.0000, 0,  1735548430.083, iRoC,  161.030
ODOM  1.6000,  1.0200,  0.0308,  2.0000,  0.0000, 0,  1735548430.083, iRoC,  161.030
ODOM  1.6200,  1.0200,  0.0308,  2.0000,  0.0000, 0,  1735548430.083, iRoC,  161.030
ODOM  1.6400,  1.0400,  0.0308,  2.0000,  0.0000, 0,  1735548430.083, iRoC,  161.030
ODOM  1.6600,  1.0400,  0.0308,  2.0000,  0.0000, 0,  1735548430.083, iRoC,  161.030
ODOM  1.6800,  1.0400,  0.0308,  2.0000,  0.0000, 0,  1735548430.083, iRoC,  161.030
ODOM  1.7000,  1.0400,  0.0108,  2.0000, -2.0000, 0,  1735548430.083, iRoC,  161.030
ODOM  1.7200,  1.0400, -0.0092,  2.0000, -2.0000, 0,  1735548430.083, iRoC,  161.030
ODOM  1.7400,  1.0400, -0.0292,  2.0000, -2.0000, 0,  1735548430.083, iRoC,  161.030
ODOM  1.7600,  1.0400, -0.0492,  2.0000, -2.0000, 0,  1735548430.083, iRoC,  161.030
ODOM  1.7800,  1.0200, -0.0692,  2.0000, -2.0000, 0,  1735548430.083, iRoC,  161.030
ODOM  1.8000,  1.0200, -0.0892,  2.0000, -2.0000, 0,  1735548430.083, iRoC,  161.030
ODOM  1.8200,  1.0200, -0.1092,  2.0000, -2.0000, 0,  1735548430.083, iRoC,  161.030
ODOM  1.8400,  1.0200, -0.1092,  2.0000,  0.0000, 0,  1735548430.083, iRoC,  161.030
ODOM  1.8600,  1.0200, -0.1092,  2.0000,  0.0000, 0,  1735548430.083, iRoC,  161.030
ODOM  1.8800,  1.0200, -0.1092,  2.0000,  0.0000, 0,  1735548430.083, iRoC,  161.030
ODOM  1.9000,  1.0200, -0.1092,  2.0000,  0.0000, 0,  1735548430.083, iRoC,  161.030
ODOM  1.9200,  1.0200, -0.1092,  2.0000,  0.0000, 0,  1735548430.083, iRoC,  161.030
ODOM  1.9400,  1.0200, -0.1092,  2.0000,  0.0000, 0,  1735548430.083, iRoC,  161.030
ODOM  1.9600,  1.0200, -0.1092,  2.0000,  0.0000, 0,  1735548430.083, iRoC,  161.030
ODOM  1.9800,  1.0000, -0.1092,  2.0000,  0.0000, 0,  1735548430.083, iRoC,  161.030
ODOM  2.0000,  1.0000, -0.1092,  2.0000,  0.0000, 0,  1735548430.083, iRoC,  161.030
ODOM  2.0200,  1.0000, -0.1092,  2.0000,  0.0000, 0,  1735548430.083, iRoC,  161.030
ODOM  2.0400,  1.0000, -0.1092,  2.0000,  0.0000, 0,  1735548430.083, iRoC,  161.030
ODOM  2.0600,  1.0000, -0.1092,  2.0000,  0.0000, 0,  1735548430.083, iRoC,  161.030
ODOM  2.0800,  1.0000, -0.1092,  2.0000,  0.0000, 0,  1735548430.083, iRoC,  161.030
ODOM  2.1000,  1.0000, -0.1092,  2.0000,  0.0000, 0,  1735548430.083, iRoC,  161.030
ODOM  2.1200,  1.0000, -0.1092,  2.0000,  0.0000, 0,  1735548430.083, iRoC,  161.030
ODOM  2.1400,  1.0000, -0.1092,  2.0000,  0.0000, 0,  1735548430.083, iRoC,  161.030
ODOM  2.1600,  0.9800, -0.1092,  2.0000,  0.0000, 0,  1735548430.083, iRoC,  161.030
ODOM  2.1800,  0.9800, -0.1092,  2.0000,  0.0000, 0,  1735548430.083, iRoC,  161.030
ODOM  2.2000,  0.9800, -0.1092,  2.0000,  0.0000, 0,  1735548430.083, iRoC,  161.030
ODOM  2.2200,  0.9800, -0.1092,  2.0000,  0.0000, 0,  1735548430.083, iRoC,  161.030
ODOM  2.2400,  0.9800, -0.1092,  2.0000,  0.0000, 0,  1735548430.083, iRoC,  161.030
ODOM  2.2600,  0.9800, -0.1092,  2.0000,  0.0000, 0,  1735548430.083, iRoC,  161.030
ODOM  2.2800,  0.9800, -0.1092,  2.0000,  0.0000, 0,  1735548430.083, iRoC,  161.030
ODOM  2.3000,  0.9800, -0.1092,  2.0000,  0.0000, 0,  1735548430.083, iRoC,  161.030
ODOM  2.3200,  0.9800, -0.1092,  2.0000,  0.0000, 0,  1735548430.083, iRoC,  161.030
ODOM  2.3400,  0.9600, -0.1092,  2.0000,  0.0000, 0,  1735548430.083, iRoC,  161.030
ODOM  2.3600,  0.9600, -0.1092,  2.0000,  0.0000, 0,  1735548430.083, iRoC,  161.030
ODOM  2.3800,  0.9600, -0.1092,  2.0000,  0.0000, 0,  1735548430.083, iRoC,  161.030
ODOM  2.4000,  0.9600, -0.1092,  2.0000,  0.0000, 0,  1735548430.083, iRoC,  161.030
ODOM  2.4200,  0.9600, -0.1092,  2.0000,  0.0000, 0,  1735548430.083, iRoC,  161.030
ODOM  2.4400,  0.9600, -0.1092,  2.0000,  0.0000, 0,  1735548430.083, iRoC,  161.030
ODOM  2.4600,  0.9600, -0.1092,  2.0000,  0.0000, 0,  1735548430.083, iRoC,  161.030
ODOM  2.4800,  0.9600, -0.1092,  2.0000,  0.0000, 0,  1735548430.083, iRoC,  161.030
ODOM  2.5000,  0.9600, -0.1092,  2.0000,  0.0000, 0,  1735548430.083, iRoC,  161.030
ODOM  2.5200,  0.9400, -0.1092,  2.0000,  0.0000, 0,  1735548430.083, iRoC,  161.030
ODOM  2.5400,  0.9400, -0.1092,  2.0000,  0.0000, 0,  1735548430.083, iRoC,  161.030
ODOM  2.5600,  0.9400, -0.1092,  2.0000,  0.0000, 0,  1735548430.083, iRoC,  161.030
ODOM  2.5800,  0.9400, -0.1092,  2.0000,  0.0000, 0,  1735548430.083, iRoC,  161.030
ODOM  2.6000,  0.9400, -0.1092,  2.0000,  0.0000, 0,  1735548430.083, iRoC,  161.030
ODOM  2.6200,  0.9400, -0.1092,  2.0000,  0.0000, 0,  1735548430.083, iRoC,  161.030
ODOM  2.6400,  0.9400, -0.1092,  2.0000,  0.0000, 0,  1735548430.083, iRoC,  161.030
ODOM  2.6600,  0.9400, -0.1092,  2.0000,  0.0000, 0,  1735548430.083, iRoC,  161.030
ODOM  2.6800,  0.9400, -0.1092,  2.0000,  0.0000, 0,  1735548430.083, iRoC,  161.030
ODOM  2.7000,  0.9400, -0.1092,  2.0000,  0.0000, 0,  1735548430.083, iRoC,  161.030
ODOM  2.7200,  0.9200, -0.1092,  2.0000,  0.0000, 0,  1735548430.083, iRoC,  161.030
ODOM  2.7400,  0.9200, -0.1092,  2.0000,  0.0000, 0,  1735548430.083, iRoC,  161.030
ODOM  2.7600,  0.9200, -0.1092,  2.0000,  0.0000, 0,  1735548430.083, iRoC,  161.030
ODOM  2.7800,  0.9200, -0.1092,  2.0000,  0.0000, 0,  1735548430.083, iRoC,  161.030
ODOM  2.8000,  0.9200, -0.1092,  2.0000,  0.0000, 0,  1735548430.083, iRoC,  161.030
ODOM  2.8200,  0.9200, -0.1092,  2.0000,  0.0000, 0,  1735548430.083, iRoC,  161.030
ODOM  2.8400,  0.9200, -0.1092,  2.0000,  0.0000, 0,  1735548430.083, iRoC,  161.030
ODOM  2.8600,  0.9200, -0.1092,  2.0000,  0.0000, 0,  1735548430.083, iRoC,  161.030
ODOM  2.8800,  0.9200, -0.1092,  2.0000,  0.0000, 0,  1735548430.083, iRoC,  161.030
ODOM  2.9000,  0.9000, -0.1092,  2.0000,  0.0000, 0,  1735548430.083, iRoC,  161.030
ODOM  2.9200,  0.9000, -0.1092,  2.0000,  0.0000, 0,  1735548430.083, iRoC,  161.030
ODOM  2.9400,  0.9000, -0.1092,  2.0000,  0.0000, 0,  1735548430.083, iRoC,  161.030
ODOM  2.9600,  0.9000, -0.1092,  2.0000,  0.0000, 0,  1735548430.083, iRoC,  161.030
ODOM  2.9800,  0.9000, -0.1092,  2.0000,  0.0000, 0,  1735548430.083, iRoC,  161.030
ODOM  3.0000,  0.9000, -0.1092,  2.0000,  0.0000, 0,  1735548430.083, iRoC,  161.030
ODOM  3.0200,  0.9000, -0.1092,  2.0000,  0.0000, 0,  1735548430.083, iRoC,  161.030
ODOM  3.0400,  0.9000, -0.1092,  2.0000,  0.0000, 0,  1735548430.083, iRoC,  161.030
ODOM  3.0600,  0.9000, -0.1092,  2.0000,  0.0000, 0,  1735548430.083, iRoC,  161.030
ODOM  3.0800,  0.8800, -0.1092,  2.0000,  0.0000, 0,  1735548430.083, iRoC,  161.030
ODOM  3.1000,  0.8800, -0.1092,  2.0000,  0.0000, 0,  1735548430.083, iRoC,  161.030
ODOM  3.1200,  0.8800, -0.1092,  2.0000,  0.0000, 0,  1735548430.083, iRoC,  161.030
ODOM  3.1400,  0.8800, -0.1092,  2.0000,  0.0000, 0,  1735548430.083, iRoC,  161.030
ODOM  3.1600,  0.8800, -0.1092,  2.0000,  0.0000, 0,  1735548430.083, iRoC,  161.030
ODOM  3.1800,  0.8800, -0.1092,  2.0000,  0.0000, 0,  1735548430.083, iRoC,  161.030
ODOM  3.2000,  0.8800, -0.1092,  2.0000,  0.0000, 0,  1735548430.083, iRoC,  161.030
ODOM  3.2200,  0.8800, -0.1092,  2.0000,  0.0000, 0,  1735548430.083, iRoC,  161.030
ODOM  3.2400,  0.8800, -0.1092,  2.0000,  0.0000, 0,  1735548430.083, iRoC,  161.030
ODOM  3.2600,  0.8600, -0.1092,  2.0000,  0.0000, 0,  1735548430.083, iRoC,  161.030
ODOM  3.2800,  0.8600, -0.1092,  2.0000,  0.0000, 0,  1735548430.083, iRoC,  161.030
ODOM  3.3000,  0.8600, -0.1092,  2.0000,  0.0000, 0,  1735548430.083, iRoC,  161.030
ODOM  3.3200,  0.8600, -0.1092,  2.0000,  0.0000, 0,  1735548430.083, iRoC,  161.030
ODOM  3.3400,  0.8600, -0.1092,  2.0000,  0.0000, 0,  1735548430.083, iRoC,  161.030
ODOM  3.3600,  0.8600, -0.1092,  2.0000,  0.0000, 0,  1735548430.083, iRoC,  161.030
ODOM  3.3800,  0.8600, -0.1092,  2.0000,  0.0000, 0,  1735548430.083, iRoC,  161.030
ODOM  3.4000,  0.8600, -0.1092,  2.0000,  0.0000, 0,  1735548430.083, iRoC,  161.030
ODOM  3.4200,  0.8600, -0.1092,  2.0000,  0.0000, 0,  1735548430.083, iRoC,  161.030
ODOM  3.4400,  0.8400, -0.1092,  2.0000,  0.0000, 0,  1735548430.083, iRoC,  161.030
ODOM  3.4600,  0.8400, -0.1092,  2.0000,  0.0000, 0,  1735548430.083, iRoC,  161.030
ODOM  3.4800,  0.8400, -0.1092,  2.0000,  0.0000, 0,  1735548430.083, iRoC,  161.030
ODOM  3.5000,  0.8400, -0.1092,  2.0000,  0.0000, 0,  1735548430.083, iRoC,  161.030
ODOM  3.5200,  0.8400, -0.1092,  2.0000,  0.0000, 0,  1735548430.083, iRoC,  161.030
ODOM  3.5400,  0.8400, -0.1092,  2.0000,  0.0000, 0,  1735548430.083, iRoC,  161.030
ODOM  3.5600,  0.8400, -0.1092,  2.0000,  0.0000, 0,  1735548430.083, iRoC,  161.030
ODOM  3.5800,  0.8400, -0.1092,  2.0000,  0.0000, 0,  1735548430.083, iRoC,  161.030
ODOM  3.6000,  0.8400, -0.1092,  2.0000,  0.0000, 0,  1735548430.083, iRoC,  161.030
ODOM  3.6200,  0.8200, -0.1092,  2.0000,  0.0000, 0,  1735548430.083, iRoC,  161.030
ODOM  3.6400,  0.8200, -0.1092,  2.0000,  0.0000, 0,  1735548430.083, iRoC,  161.030
ODOM  3.6600,  0.8200, -0.1092,  2.0000,  0.0000, 0,  1735548430.083, iRoC,  161.030
ODOM  3.6800,  0.8200, -0.1092,  2.0000,  0.0000, 0,  1735548430.083, iRoC,  161.030
ODOM  3.7000,  0.8200, -0.1092,  2.0000,  0.0000, 0,  1735548430.083, iRoC,  161.030
ODOM  3.7200,  0.8200, -0.1092,  2.0000,  0.0000, 0,  1735548430.083, iRoC,  161.030
ODOM  3.7400,  0.8200, -0.1092,  2.0000,  0.0000, 0,  1735548430.083, iRoC,  161.030
ODOM  3.7600,  0.8200, -0.1092,  2.0000,  0.0000, 0,  1735548430.083, iRoC,  161.030
ODOM  3.7800,  0.8200, -0.1092,  2.0000,  0.0000, 0,  1735548430.083, iRoC,  161.030
ODOM  3.8000,  0.8200, -0.1092,  2.0000,  0.0000, 0,  1735548430.083, iRoC,  161.030
ODOM  3.8200,  0.8000, -0.1092,  2.0000,  0.0000, 0,  1735548430.083, iRoC,  161.030
ODOM  3.8400,  0.8000, -0.1092,  2.0000,  0.0000, 0,  1735548430.083, iRoC,  161.030
ODOM  3.8600,  0.8000, -0.1092,  2.0000,  0.0000, 0,  1735548430.083, iRoC,  161.030
ODOM  3.8800,  0.8000, -0.1092,  2.0000,  0.0000, 0,  1735548430.083, iRoC,  161.030
ODOM  3.9000,  0.8000, -0.1092,  2.0000,  0.0000, 0,  1735548430.083, iRoC,  161.030
ODOM  3.9200,  0.8000, -0.0892,  2.0000,  2.0000, 0,  1735548430.083, iRoC,  161.030
ODOM  3.9400,  0.8000, -0.0692,  2.0000,  2.0000, 0,  1735548430.083, iRoC,  161.030
ODOM  3.9600,  0.8000, -0.0492,  2.0000,  2.0000, 0,  1735548430.083, iRoC,  161.030
ODOM  3.9800,  0.8000, -0.0292,  2.0000,  2.0000, 0,  1735548430.083, iRoC,  161.030
ODOM  4.0000,  0.8000, -0.0092,  2.0000,  2.0000, 0,  1735548430.083, iRoC,  161.030
ODOM  4.0200,  0.8000,  0.0108,  2.0000,  2.0000, 0,  1735548430.083, iRoC,  161.030
ODOM  4.0400,  0.8000,  0.0308,  2.0000,  2.0000, 0,  1735548430.083, iRoC,  161.030
ODOM  4.0600,  0.8000,  0.0508,  2.0000,  2.0000, 0,  1735548430.083, iRoC,  161.030
ODOM  4.0800,  0.8000,  0.0708,  2.0000,  2.0000, 0,  1735548430.083, iRoC,  161.030
ODOM  4.1000,  0.8000,  0.0908,  2.0000,  2.0000, 0,  1735548430.083, iRoC,  161.030
ODOM  4.1200,  0.8000,  0.0908,  2.0000,  0.0000, 0,  1735548430.083, iRoC,  161.030
ODOM  4.1400,  0.8000,  0.0908,  2.0000,  0.0000, 0,  1735548430.083, iRoC,  161.030
ODOM  4.1600,  0.8000,  0.0908,  2.0000,  0.0000, 0,  1735548430.083, iRoC,  161.030
ODOM  4.1800,  0.8000,  0.0908,  2.0000,  0.0000, 0,  1735548430.083, iRoC,  161.030
ODOM  4.2000,  0.8000,  0.0908,  2.0000,  0.0000, 0,  1735548430.083, iRoC,  161.030
ODOM  4.2200,  0.8000,  0.0908,  2.0000,  0.0000, 0,  1735548430.083, iRoC,  161.030
ODOM  4.2400,  0.8200,  0.0908,  2.0000,  0.0000, 0,  1735548430.083, iRoC,  161.030
ODOM  4.2600,  0.8200,  0.0908,  2.0000,  0.0000, 0,  1735548430.083, iRoC,  161.030
ODOM  4.2800,  0.8200,  0.0908,  2.0000,  0.0000, 0,  1735548430.083, iRoC,  161.030
ODOM  4.3000,  0.8200,  0.0908,  2.0000,  0.0000, 0,  1735548430.083, iRoC,  161.030
ODOM  4.3200,  0.8200,  0.0908,  2.0000,  0.0000, 0,  1735548430.083, iRoC,  161.030
ODOM  4.3400,  0.8200,  0.0908,  2.0000,  0.0000, 0,  1735548430.083, iRoC,  161.030
ODOM  4.3600,  0.8200,  0.0908,  2.0000,  0.0000, 0,  1735548430.083, iRoC,  161.030
ODOM  4.3800,  0.8200,  0.0908,  2.0000,  0.0000, 0,  1735548430.083, iRoC,  161.030
ODOM  4.4000,  0.8200,  0.0908,  2.0000,  0.0000, 0,  1735548430.083, iRoC,  161.030
ODOM  4.4200,  0.8200,  0.0908,  2.0000,  0.0000, 0,  1735548430.083, iRoC,  161.030
ODOM  4.4400,  0.8200,  0.0908,  2.0000,  0.0000, 0,  1735548430.083, iRoC,  161.030
ODOM  4.4600,  0.8400,  0.0908,  2.0000,  0.0000, 0,  1735548430.083, iRoC,  161.030
ODOM  4.4800,  0.8400,  0.0908,  2.0000,  0.0000, 0,  1735548430.083, iRoC,  161.030
ODOM  4.5000,  0.8400,  0.0908,  2.0000,  0.0000, 0,  1735548430.083, iRoC,  161.030
ODOM  4.5200,  0.8400,  0.0708,  2.0000, -2.0000, 0,  1735548430.083, iRoC,  161.030
ODOM  4.5400,  0.8400,  0.0508,  2.0000, -2.0000, 0,  1735548430.083, iRoC,  161.030
ODOM  4.5600,  0.8400,  0.0308,  2.0000, -2.0000, 0,  1735548430.083, iRoC,  161.030
ODOM  4.5800,  0.8400,  0.0108,  2.0000, -2.0000, 0,  1735548430.083, iRoC,  161.030
ODOM  4.6000,  0.8400, -0.0092,  2.0000, -2.0000, 0,  1735548430.083, iRoC,  161.030
ODOM  4.6200,  0.8400, -0.0292,  2.0000, -2.0000, 0,  1735548430.083, iRoC,  161.030
ODOM  4.6400,  0.8400, -0.0492,  2.0000, -2.0000, 0,  1735548430.083, iRoC,  161.030
ODOM  4.6600,  0.8400, -0.0492,  2.0000,  0.0000, 0,  1735548430.083, iRoC,  161.030
ODOM  4.6800,  0.8400, -0.0492,  2.0000,  0.0000, 0,  1735548430.083, iRoC,  161.030
ODOM  4.7000,  0.8400, -0.0492,  2.0000,  0.0000, 0,  1735548430.083, iRoC,  161.030
ODOM  4.7200,  0.8400, -0.0492,  2.0000,  0.0000, 0,  1735548430.083, iRoC,  161.030
ODOM  4.7400,  0.8400, -0.0492,  2.0000,  0.0000, 0,  1735548430.083, iRoC,  161.030
ODOM  4.7600,  0.8400, -0.0492,  2.0000,  0.0000, 0,  1735548430.083, iRoC,  161.030
ODOM  4.7800,  0.8200, -0.0492,  2.0000,  0.0000, 0,  1735548430.083, iRoC,  161.030
ODOM  4.8000,  0.8200, -0.0492,  2.0000,  0.0000, 0,  1735548430.083, iRoC,  161.030
ODOM  4.8200,  0.8200, -0.0492,  2.0000,  0.0000, 0,  1735548430.083, iRoC,  161.030
ODOM  4.8400,  0.8200, -0.0492,  2.0000,  0.0000, 0,  1735548430.083, iRoC,  161.030
ODOM  4.8600,  0.8200, -0.0492,  2.0000,  0.0000, 0,  1735548430.083, iRoC,  161.030
ODOM  4.8800,  0.8200, -0.0492,  2.0000,  0.0000, 0,  1735548430.083, iRoC,  161.030
ODOM  4.9000,  0.8200, -0.0492,  2.0000,  0.0000, 0,  1735548430.083, iRoC,  161.030
ODOM  4.9200,  0.8200, -0.0492,  2.0000,  0.0000, 0,  1735548430.083, iRoC,  161.030
ODOM  4.9400,  0.8200, -0.0492,  2.0000,  0.0000, 0,  1735548430.083, iRoC,  161.030
ODOM  4.9600,  0.8200, -0.0492,  2.0000,  0.0000, 0,  1735548430.083, iRoC,  161.030
ODOM  4.9800,  0.8200, -0.0492,  2.0000,  0.0000, 0,  1735548430.083, iRoC,  161.030
ODOM  5.0000,  0.8200, -0.0492,  2.0000,  0.0000, 0,  1735548430.083, iRoC,  161.030
ODOM  5.0200,  0.8200, -0.0492,  2.0000,  0.0000, 0,  1735548430.083, iRoC,  161.030
ODOM  5.0400,  0.8200, -0.0492,  2.0000,  0.0000, 0,  1735548430.083, iRoC,  161.030
ODOM  5.0600,  0.8200, -0.0492,  2.0000,  0.0000, 0,  1735548430.083, iRoC,  161.030
ODOM  5.0800,  0.8200, -0.0492,  2.0000,  0.0000, 0,  1735548430.083, iRoC,  161.030
ODOM  5.1000,  0.8200, -0.0492,  2.0000,  0.0000, 0,  1735548430.083, iRoC,  161.030
ODOM  5.1200,  0.8200, -0.0492,  2.0000,  0.0000, 0,  1735548430.083, iRoC,  161.030
ODOM  5.1400,  0.8200, -0.0492,  2.0000,  0.0000, 0,  1735548430.083, iRoC,  161.030
ODOM  5.1600,  0.8200, -0.0492,  2.0000,  0.0000, 0,  1735548430.083, iRoC,  161.030
ODOM  5.1800,  0.8000, -0.0692,  2.0000, -2.0000, 0,  1735548430.083, iRoC,  161.030
ODOM  5.2000,  0.8000, -0.0892,  2.0000, -2.0000, 0,  1735548430.083, iRoC,  161.030
ODOM  5.2200,  0.8000, -0.1092,  2.0000, -2.0000, 0,  1735548430.083, iRoC,  161.030
ODOM  5.2400,  0.8000, -0.1292,  2.0000, -2.0000, 0,  1735548430.083, iRoC,  161.030
ODOM  5.2600,  0.8000, -0.1492,  2.0000, -2.0000, 0,  1735548430.083, iRoC,  161.030
ODOM  5.2800,  0.8000, -0.1692,  2.0000, -2.0000, 0,  1735548430.083, iRoC,  161.030
ODOM  5.3000,  0.8000, -0.1892,  2.0000, -2.0000, 0,  1735548430.083, iRoC,  161.030
ODOM  5.3200,  0.8000, -0.1892,  2.0000,  0.0000, 0,  1735548430.083, iRoC,  161.030
ODOM  5.3400,  0.7800, -0.1892,  2.0000,  0.0000, 0,  1735548430.083, iRoC,  161.030
ODOM  5.3600,  0.7800, -0.1892,  2.0000,  0.0000, 0,  1735548430.083, iRoC,  161.030
ODOM  5.3800,  0.7800, -0.1892,  2.0000,  0.0000, 0,  1735548430.083, iRoC,  161.030
ODOM  5.4000,  0.7800, -0.1892,  2.0000,  0.0000, 0,  1735548430.083, iRoC,  161.030
ODOM  5.4200,  0.7800, -0.1892,  2.0000,  0.0000, 0,  1735548430.083, iRoC,  161.030
ODOM  5.4400,  0.7600, -0.1892,  2.0000,  0.0000, 0,  1735548430.083, iRoC,  161.030
ODOM  5.4600,  0.7600, -0.1892,  2.0000,  0.0000, 0,  1735548430.083, iRoC,  161.030
ODOM  5.4600,  0.7600, -0.1892,  2.0000,  0.0000, 0,  1735548430.083, iRoC,  161.030
ODOM  5.4800,  0.7600, -0.1892,  2.0000,  0.0000, 0,  1735548430.083, iRoC,  161.030
ODOM  5.5000,  0.7600, -0.1892,  2.0000,  0.0000, 0,  1735548430.083, iRoC,  161.030
ODOM  5.5200,  0.7400, -0.1892,  2.0000,  0.0000, 0,  1735548430.083, iRoC,  161.030
ODOM  5.5400,  0.7400, -0.1892,  2.0000,  0.0000, 0,  1735548430.083, iRoC,  161.030
ODOM  5.5600,  0.7400, -0.1892,  2.0000,  0.0000, 0,  1735548430.083, iRoC,  161.030
ODOM  5.5800,  0.7400, -0.1892,  2.0000,  0.0000, 0,  1735548430.083, iRoC,  161.030
ODOM  5.6000,  0.7400, -0.1892,  2.0000,  0.0000, 0,  1735548430.083, iRoC,  161.030
ODOM  5.6200,  0.7400, -0.1892,  2.0000,  0.0000, 0,  1735548430.083, iRoC,  161.030
ODOM  5.6400,  0.7200, -0.1892,  2.0000,  0.0000, 0,  1735548430.083, iRoC,  161.030
ODOM  5.6600,  0.7200, -0.1892,  2.0000,  0.0000, 0,  1735548430.083, iRoC,  161.030
ODOM  5.6800,  0.7200, -0.1892,  2.0000,  0.0000, 0,  1735548430.083, iRoC,  161.030
ODOM  5.7000,  0.7200, -0.1892,  2.0000,  0.0000, 0,  1735548430.083, iRoC,  161.030
ODOM  5.7200,  0.7200, -0.1892,  2.0000,  0.0000, 0,  1735548430.083, iRoC,  161.030
ODOM  5.7400,  0.7000, -0.1892,  2.0000,  0.0000, 0,  1735548430.083, iRoC,  161.030
ODOM  5.7600,  0.7000, -0.1892,  2.0000,  0.0000, 0,  1735548430.083, iRoC,  161.030
ODOM  5.7800,  0.7000, -0.1892,  2.0000,  0.0000, 0,  1735548430.083, iRoC,  161.030
ODOM  5.8000,  0.7000, -0.1892,  2.0000,  0.0000, 0,  1735548430.083, iRoC,  161.030
ODOM  5.8200,  0.7000, -0.1892,  2.0000,  0.0000, 0,  1735548430.083, iRoC,  161.030
ODOM  5.8400,  0.6800, -0.1892,  2.0000,  0.0000, 0,  1735548430.083, iRoC,  161.030
ODOM  5.8600,  0.6800, -0.1892,  2.0000,  0.0000, 0,  1735548430.083, iRoC,  161.030
ODOM  5.8800,  0.6800, -0.1892,  2.0000,  0.0000, 0,  1735548430.083, iRoC,  161.030
ODOM  5.9000,  0.6800, -0.1892,  2.0000,  0.0000, 0,  1735548430.083, iRoC,  161.030
ODOM  5.9200,  0.6800, -0.1892,  2.0000,  0.0000, 0,  1735548430.083, iRoC,  161.030
ODOM  5.9400,  0.6800, -0.1892,  2.0000,  0.0000, 0,  1735548430.083, iRoC,  161.030
ODOM  5.9600,  0.6600, -0.1892,  2.0000,  0.0000, 0,  1735548430.083, iRoC,  161.030
ODOM  5.9800,  0.6600, -0.1892,  2.0000,  0.0000, 0,  1735548430.083, iRoC,  161.030
ODOM  6.0000,  0.6600, -0.1892,  2.0000,  0.0000, 0,  1735548430.083, iRoC,  161.030
ODOM  6.0200,  0.6600, -0.1892,  2.0000,  0.0000, 0,  1735548430.083, iRoC,  161.030
ODOM  6.0400,  0.6600, -0.1892,  2.0000,  0.0000, 0,  1735548430.083, iRoC,  161.030
ODOM  6.0600,  0.6400, -0.1892,  2.0000,  0.0000, 0,  1735548430.083, iRoC,  161.030
ODOM  6.0800,  0.6400, -0.1692,  2.0000,  2.0000, 0,  1735548430.083, iRoC,  161.030
ODOM  6.1000,  0.6400, -0.1492,  2.0000,  2.0000, 0,  1735548430.083, iRoC,  161.030
ODOM  6.1200,  0.6400, -0.1292,  2.0000,  2.0000, 0,  1735548430.083, iRoC,  161.030
ODOM  6.1400,  0.6400, -0.1092,  2.0000,  2.0000, 0,  1735548430.083, iRoC,  161.030
ODOM  6.1600,  0.6400, -0.0892,  2.0000,  2.0000, 0,  1735548430.083, iRoC,  161.030
ODOM  6.1800,  0.6400, -0.0692,  2.0000,  2.0000, 0,  1735548430.083, iRoC,  161.030
ODOM  6.2000,  0.6400, -0.0492,  2.0000,  2.0000, 0,  1735548430.083, iRoC,  161.030
ODOM  6.2200,  0.6400, -0.0292,  2.0000,  2.0000, 0,  1735548430.083, iRoC,  161.030
ODOM  6.2400,  0.6400, -0.0092,  2.0000,  2.0000, 0,  1735548430.083, iRoC,  161.030
ODOM  6.2600,  0.6200, -0.0092,  2.0000,  0.0000, 0,  1735548430.083, iRoC,  161.030
ODOM  6.2800,  0.6200, -0.0092,  2.0000,  0.0000, 0,  1735548430.083, iRoC,  161.030
ODOM  6.3000,  0.6200, -0.0092,  2.0000,  0.0000, 0,  1735548430.083, iRoC,  161.030
ODOM  6.3200,  0.6200, -0.0092,  2.0000,  0.0000, 0,  1735548430.083, iRoC,  161.030
ODOM  6.3400,  0.6200, -0.0092,  2.0000,  0.0000, 0,  1735548430.083, iRoC,  161.030
ODOM  6.3600,  0.6200, -0.0092,  2.0000,  0.0000, 0,  1735548430.083, iRoC,  161.030
ODOM  6.3800,  0.6200, -0.0092,  2.0000,  0.0000, 0,  1735548430.083, iRoC,  161.030
ODOM  6.4000,  0.6200, -0.0092,  2.0000,  0.0000, 0,  1735548430.083, iRoC,  161.030
ODOM  6.4200,  0.6200, -0.0092,  2.0000,  0.0000, 0,  1735548430.083, iRoC,  161.030
ODOM  6.4400,  0.6200, -0.0092,  2.0000,  0.0000, 0,  1735548430.083, iRoC,  161.030
ODOM  6.4600,  0.6200, -0.0092,  2.0000,  0.0000, 0,  1735548430.083, iRoC,  161.030
ODOM  6.4800,  0.6200, -0.0092,  2.0000,  0.0000, 0,  1735548430.083, iRoC,  161.030
ODOM  6.5000,  0.6200, -0.0092,  2.0000,  0.0000, 0,  1735548430.083, iRoC,  161.030
ODOM  6.5200,  0.6200, -0.0092,  2.0000,  0.0000, 0,  1735548430.083, iRoC,  161.030
ODOM  6.5400,  0.6200, -0.0092,  2.0000,  0.0000, 0,  1735548430.083, iRoC,  161.030
ODOM  6.5600,  0.6200, -0.0092,  2.0000,  0.0000, 0,  1735548430.083, iRoC,  161.030
ODOM  6.5800,  0.6200, -0.0092,  2.0000,  0.0000, 0,  1735548430.083, iRoC,  161.030
ODOM  6.6000,  0.6200, -0.0092,  2.0000,  0.0000, 0,  1735548430.083, iRoC,  161.030
ODOM  6.6200,  0.6200, -0.0092,  2.0000,  0.0000, 0,  1735548430.083, iRoC,  161.030
ODOM  6.6400,  0.6200, -0.0092,  2.0000,  0.0000, 0,  1735548430.083, iRoC,  161.030
ODOM  6.6600,  0.6200, -0.0092,  2.0000,  0.0000, 0,  1735548430.083, iRoC,  161.030
ODOM  6.6800,  0.6200, -0.0092,  2.0000,  0.0000, 0,  1735548430.083, iRoC,  161.030
ODOM  6.7000,  0.6200, -0.0092,  2.0000,  0.0000, 0,  1735548430.083, iRoC,  161.030
ODOM  6.7200,  0.6200, -0.0092,  2.0000,  0.0000, 0,  1735548430.083, iRoC,  161.030
ODOM  6.7400,  0.6200, -0.0092,  2.0000,  0.0000, 0,  1735548430.083, iRoC,  161.030
ODOM  6.7600,  0.6200, -0.0092,  2.0000,  0.0000, 0,  1735548430.083, iRoC,  161.030
ODOM  6.7800,  0.6200, -0.0092,  2.0000,  0.0000, 0,  1735548430.083, iRoC,  161.030
ODOM  6.8000,  0.6200, -0.0092,  2.0000,  0.0000, 0,  1735548430.083, iRoC,  161.030
ODOM  6.8200,  0.6200, -0.0092,  2.0000,  0.0000, 0,  1735548430.083, iRoC,  161.030
ODOM  6.8400,  0.6200, -0.0092,  2.0000,  0.0000, 0,  1735548430.083, iRoC,  161.030
ODOM  6.8600,  0.6200, -0.0292,  2.0000, -2.0000, 0,  1735548430.083, iRoC,  161.030
ODOM  6.8800,  0.6200, -0.0492,  2.0000, -2.0000, 0,  1735548430.083, iRoC,  161.030
ODOM  6.9000,  0.6200, -0.0692,  2.0000, -2.0000, 0,  1735548430.083, iRoC,  161.030
ODOM  6.9200,  0.6200, -0.0892,  2.0000, -2.0000, 0,  1735548430.083, iRoC,  161.030
ODOM  6.9400,  0.6200, -0.1092,  2.0000, -2.0000, 0,  1735548430.083, iRoC,  161.030
ODOM  6.9600,  0.6200, -0.1292,  2.0000, -2.0000, 0,  1735548430.083, iRoC,  161.030
ODOM  6.9800,  0.6200, -0.1292,  2.0000,  0.0000, 0,  1735548430.083, iRoC,  161.030
ODOM  7.0000,  0.6200, -0.1292,  2.0000,  0.0000, 0,  1735548430.083, iRoC,  161.030
ODOM  7.0200,  0.6000, -0.1292,  2.0000,  0.0000, 0,  1735548430.083, iRoC,  161.030
ODOM  7.0400,  0.6000, -0.1292,  2.0000,  0.0000, 0,  1735548430.083, iRoC,  161.030
ODOM  7.0600,  0.6000, -0.1292,  2.0000,  0.0000, 0,  1735548430.083, iRoC,  161.030
ODOM  7.0800,  0.6000, -0.1292,  2.0000,  0.0000, 0,  1735548430.083, iRoC,  161.030
ODOM  7.1000,  0.6000, -0.1292,  2.0000,  0.0000, 0,  1735548430.083, iRoC,  161.030
ODOM  7.1200,  0.6000, -0.1292,  2.0000,  0.0000, 0,  1735548430.083, iRoC,  161.030
ODOM  7.1400,  0.6000, -0.1292,  2.0000,  0.0000, 0,  1735548430.083, iRoC,  161.030
ODOM  7.1600,  0.6000, -0.1292,  2.0000,  0.0000, 0,  1735548430.083, iRoC,  161.030
ODOM  7.1800,  0.5800, -0.1292,  2.0000,  0.0000, 0,  1735548430.083, iRoC,  161.030
ODOM  7.2000,  0.5800, -0.1292,  2.0000,  0.0000, 0,  1735548430.083, iRoC,  161.031
ODOM  7.2200,  0.5800, -0.1292,  2.0000,  0.0000, 0,  1735548430.083, iRoC,  161.031
ODOM  7.2400,  0.5800, -0.1292,  2.0000,  0.0000, 0,  1735548430.083, iRoC,  161.031
ODOM  7.2600,  0.5800, -0.1292,  2.0000,  0.0000, 0,  1735548430.083, iRoC,  161.031
ODOM  7.2800,  0.5800, -0.1292,  2.0000,  0.0000, 0,  1735548430.083, iRoC,  161.031
ODOM  7.3000,  0.5800, -0.1292,  2.0000,  0.0000, 0,  1735548430.083, iRoC,  161.031
ODOM  7.3200,  0.5600, -0.1292,  2.0000,  0.0000, 0,  1735548430.083, iRoC,  161.031
ODOM  7.3400,  0.5600, -0.1292,  2.0000,  0.0000, 0,  1735548430.083, iRoC,  161.031
ODOM  7.3600,  0.5600, -0.1292,  2.0000,  0.0000, 0,  1735548430.083, iRoC,  161.031
ODOM  7.3800,  0.5600, -0.1292,  2.0000,  0.0000, 0,  1735548430.083, iRoC,  161.031
ODOM  7.4000,  0.5600, -0.1292,  2.0000,  0.0000, 0,  1735548430.083, iRoC,  161.031
ODOM  7.4200,  0.5600, -0.1292,  2.0000,  0.0000, 0,  1735548430.083, iRoC,  161.031
ODOM  7.4400,  0.5600, -0.1292,  2.0000,  0.0000, 0,  1735548430.083, iRoC,  161.031
ODOM  7.4600,  0.5600, -0.1292,  2.0000,  0.0000, 0,  1735548430.083, iRoC,  161.031
ODOM  7.4800,  0.5400, -0.1292,  2.0000,  0.0000, 0,  1735548430.083, iRoC,  161.031
ODOM  7.5000,  0.5400, -0.1292,  2.0000,  0.0000, 0,  1735548430.083, iRoC,  161.031
ODOM  7.5200,  0.5400, -0.1292,  2.0000,  0.0000, 0,  1735548430.083, iRoC,  161.031
ODOM  7.5400,  0.5400, -0.1292,  2.0000,  0.0000, 0,  1735548430.083, iRoC,  161.031
ODOM  7.5600,  0.5400, -0.1292,  2.0000,  0.0000, 0,  1735548430.083, iRoC,  161.031
ODOM  7.5800,  0.5400, -0.1092,  2.0000,  2.0000, 0,  1735548430.083, iRoC,  161.031
ODOM  7.6000,  0.5400, -0.0892,  2.0000,  2.0000, 0,  1735548430.083, iRoC,  161.031
ODOM  7.6200,  0.5400, -0.0692,  2.0000,  2.0000, 0,  1735548430.083, iRoC,  161.031
ODOM  7.6400,  0.5400, -0.0492,  2.0000,  2.0000, 0,  1735548430.083, iRoC,  161.031
ODOM  7.6600,  0.5400, -0.0292,  2.0000,  2.0000, 0,  1735548430.083, iRoC,  161.031
ODOM  7.6800,  0.5400, -0.0092,  2.0000,  2.0000, 0,  1735548430.083, iRoC,  161.031
ODOM  7.7000,  0.5400, -0.0092,  2.0000,  0.0000, 0,  1735548430.083, iRoC,  161.031
ODOM  7.7200,  0.5400, -0.0092,  2.0000,  0.0000, 0,  1735548430.083, iRoC,  161.031
ODOM  7.7400,  0.5400, -0.0092,  2.0000,  0.0000, 0,  1735548430.083, iRoC,  161.031
ODOM  7.7600,  0.5200, -0.0092,  2.0000,  0.0000, 0,  1735548430.083, iRoC,  161.031
ODOM  7.7800,  0.5200, -0.0092,  2.0000,  0.0000, 0,  1735548430.083, iRoC,  161.031
ODOM  7.8000,  0.5200, -0.0092,  2.0000,  0.0000, 0,  1735548430.083, iRoC,  161.031
ODOM  7.8200,  0.5200, -0.0092,  2.0000,  0.0000, 0,  1735548430.083, iRoC,  161.031
ODOM  7.8400,  0.5200, -0.0092,  2.0000,  0.0000, 0,  1735548430.083, iRoC,  161.031
ODOM  7.8600,  0.5200, -0.0092,  2.0000,  0.0000, 0,  1735548430.083, iRoC,  161.031
ODOM  7.8800,  0.5200, -0.0092,  2.0000,  0.0000, 0,  1735548430.083, iRoC,  161.031
ODOM  7.9000,  0.5200, -0.0092,  2.0000,  0.0000, 0,  1735548430.083, iRoC,  161.031
ODOM  7.9200,  0.5200, -0.0092,  2.0000,  0.0000, 0,  1735548430.083, iRoC,  161.031
ODOM  7.9400,  0.5200, -0.0092,  2.0000,  0.0000, 0,  1735548430.083, iRoC,  161.031
ODOM  7.9600,  0.5200, -0.0092,  2.0000,  0.0000, 0,  1735548430.083, iRoC,  161.031
ODOM  7.9800,  0.5200, -0.0092,  2.0000,  0.0000, 0,  1735548430.083, iRoC,  161.031
ODOM  8.0000,  0.5200, -0.0092,  2.0000,  0.0000, 0,  1735548430.083, iRoC,  161.031
ODOM  8.0200,  0.5200, -0.0092,  2.0000,  0.0000, 0,  1735548430.083, iRoC,  161.031
ODOM  8.0400,  0.5200, -0.0092,  2.0000,  0.0000, 0,  1735548430.083, iRoC,  161.031
ODOM  8.0600,  0.5200, -0.0092,  2.0000,  0.0000, 0,  1735548430.083, iRoC,  161.031
ODOM  8.0800,  0.5200, -0.0092,  2.0000,  0.0000, 0,  1735548430.083, iRoC,  161.031
ODOM  8.1000,  0.5200, -0.0092,  2.0000,  0.0000, 0,  1735548430.083, iRoC,  161.031
ODOM  8.1200,  0.5200, -0.0092,  2.0000,  0.0000, 0,  1735548430.083, iRoC,  161.031
ODOM  8.1400,  0.5200, -0.0092,  2.0000,  0.0000, 0,  1735548430.083, iRoC,  161.031
ODOM  8.1600,  0.5200, -0.0092,  2.0000,  0.0000, 0,  1735548430.083, iRoC,  161.031
ODOM  8.1800,  0.5200, -0.0092,  2.0000,  0.0000, 0,  1735548430.083, iRoC,  161.031
ODOM  8.2000,  0.5200, -0.0092,  2.0000,  0.0000, 0,  1735548430.083, iRoC,  161.031
ODOM  8.2200,  0.5200, -0.0092,  2.0000,  0.0000, 0,  1735548430.083, iRoC,  161.031
ODOM  8.2400,  0.5200, -0.0092,  2.0000,  0.0000, 0,  1735548430.083, iRoC,  161.031
ODOM  8.2600,  0.5200, -0.0092,  2.0000,  0.0000, 0,  1735548430.083, iRoC,  161.031
ODOM  8.2800,  0.5200, -0.0092,  2.0000,  0.0000, 0,  1735548430.083, iRoC,  161.031
ODOM  8.3000,  0.5200, -0.0092,  2.0000,  0.0000, 0,  1735548430.083, iRoC,  161.031
ODOM  8.3200,  0.5200, -0.0092,  2.0000,  0.0000, 0,  1735548430.083, iRoC,  161.031
ODOM  8.3400,  0.5200, -0.0092,  2.0000,  0.0000, 0,  1735548430.083, iRoC,  161.031
ODOM  8.3600,  0.5200, -0.0292,  2.0000, -2.0000, 0,  1735548430.083, iRoC,  161.031
ODOM  8.3800,  0.5200, -0.0492,  2.0000, -2.0000, 0,  1735548430.083, iRoC,  161.031
ODOM  8.4000,  0.5200, -0.0692,  2.0000, -2.0000, 0,  1735548430.083, iRoC,  161.031
ODOM  8.4200,  0.5200, -0.0892,  2.0000, -2.0000, 0,  1735548430.083, iRoC,  161.031
ODOM  8.4400,  0.5200, -0.1092,  2.0000, -2.0000, 0,  1735548430.083, iRoC,  161.031
ODOM  8.4600,  0.5200, -0.1292,  2.0000, -2.0000, 0,  1735548430.083, iRoC,  161.031
ODOM  8.4800,  0.5200, -0.1492,  2.0000, -2.0000, 0,  1735548430.083, iRoC,  161.031
ODOM  8.5000,  0.5200, -0.1492,  2.0000,  0.0000, 0,  1735548430.083, iRoC,  161.031
ODOM  8.5200,  0.5000, -0.1492,  2.0000,  0.0000, 0,  1735548430.083, iRoC,  161.031
ODOM  8.5400,  0.5000, -0.1492,  2.0000,  0.0000, 0,  1735548430.083, iRoC,  161.031
ODOM  8.5600,  0.5000, -0.1492,  2.0000,  0.0000, 0,  1735548430.083, iRoC,  161.031
ODOM  8.5800,  0.5000, -0.1492,  2.0000,  0.0000, 0,  1735548430.083, iRoC,  161.031
ODOM  8.6000,  0.5000, -0.1492,  2.0000,  0.0000, 0,  1735548430.083, iRoC,  161.031
ODOM  8.6200,  0.5000, -0.1492,  2.0000,  0.0000, 0,  1735548430.083, iRoC,  161.031
ODOM  8.6400,  0.4800, -0.1492,  2.0000,  0.0000, 0,  1735548430.083, iRoC,  161.031
ODOM  8.6400,  0.4800, -0.1492,  2.0000,  0.0000, 0,  1735548430.083, iRoC,  161.031
ODOM  8.6600,  0.4800, -0.1292,  2.0000,  2.0000, 0,  1735548430.083, iRoC,  161.031
ODOM  8.6800,  0.4800, -0.1092,  2.0000,  2.0000, 0,  1735548430.083, iRoC,  161.031
ODOM  8.7000,  0.4800, -0.0892,  2.0000,  2.0000, 0,  1735548430.083, iRoC,  161.031
ODOM  8.7200,  0.4800, -0.0692,  2.0000,  2.0000, 0,  1735548430.083, iRoC,  161.031
ODOM  8.7400,  0.4800, -0.0492,  2.0000,  2.0000, 0,  1735548430.083, iRoC,  161.031
ODOM  8.7600,  0.4800, -0.0292,  2.0000,  2.0000, 0,  1735548430.083, iRoC,  161.031
ODOM  8.7800,  0.4800, -0.0092,  2.0000,  2.0000, 0,  1735548430.083, iRoC,  161.031
ODOM  8.8000,  0.4800,  0.0108,  2.0000,  2.0000, 0,  1735548430.083, iRoC,  161.031
ODOM  8.8200,  0.4800,  0.0308,  2.0000,  2.0000, 0,  1735548430.083, iRoC,  161.031
ODOM  8.8400,  0.4800,  0.0508,  2.0000,  2.0000, 0,  1735548430.083, iRoC,  161.031
ODOM  8.8600,  0.4800,  0.0508,  2.0000,  0.0000, 0,  1735548430.083, iRoC,  161.031
ODOM  8.8800,  0.4800,  0.0508,  2.0000,  0.0000, 0,  1735548430.083, iRoC,  161.031
ODOM  8.9000,  0.4800,  0.0508,  2.0000,  0.0000, 0,  1735548430.083, iRoC,  161.031
ODOM  8.9200,  0.4800,  0.0508,  2.0000,  0.0000, 0,  1735548430.083, iRoC,  161.031
ODOM  8.9400,  0.4800,  0.0508,  2.0000,  0.0000, 0,  1735548430.083, iRoC,  161.031
ODOM  8.9600,  0.4800,  0.0508,  2.0000,  0.0000, 0,  1735548430.083, iRoC,  161.031
ODOM  8.9800,  0.4800,  0.0508,  2.0000,  0.0000, 0,  1735548430.083, iRoC,  161.031
ODOM  9.0000,  0.4800,  0.0508,  2.0000,  0.0000, 0,  1735548430.083, iRoC,  161.031
ODOM  9.0200,  0.4800,  0.0508,  2.0000,  0.0000, 0,  1735548430.083, iRoC,  161.031
ODOM  9.0400,  0.4800,  0.0508,  2.0000,  0.0000, 0,  1735548430.083, iRoC,  161.031
ODOM  9.0600,  0.4800,  0.0508,  2.0000,  0.0000, 0,  1735548430.083, iRoC,  161.031
ODOM  9.0800,  0.4800,  0.0508,  2.0000,  0.0000, 0,  1735548430.083, iRoC,  161.031
ODOM  9.1000,  0.5000,  0.0508,  2.0000,  0.0000, 0,  1735548430.083, iRoC,  161.031
ODOM  9.1200,  0.5000,  0.0508,  2.0000,  0.0000, 0,  1735548430.083, iRoC,  161.031
ODOM  9.1400,  0.5000,  0.0508,  2.0000,  0.0000, 0,  1735548430.083, iRoC,  161.031
ODOM  9.1600,  0.5000,  0.0508,  2.0000,  0.0000, 0,  1735548430.083, iRoC,  161.031
ODOM  9.1800,  0.5000,  0.0508,  2.0000,  0.0000, 0,  1735548430.083, iRoC,  161.031
ODOM  9.2000,  0.5000,  0.0508,  2.0000,  0.0000, 0,  1735548430.083, iRoC,  161.031
ODOM  9.2200,  0.5000,  0.0508,  2.0000,  0.0000, 0,  1735548430.083, iRoC,  161.031
ODOM  9.2400,  0.5000,  0.0508,  2.0000,  0.0000, 0,  1735548430.083, iRoC,  161.031
ODOM  9.2600,  0.5000,  0.0508,  2.0000,  0.0000, 0,  1735548430.083, iRoC,  161.031
ODOM  9.2800,  0.5000,  0.0508,  2.0000,  0.0000, 0,  1735548430.083, iRoC,  161.031
ODOM  9.3000,  0.5000,  0.0508,  2.0000,  0.0000, 0,  1735548430.083, iRoC,  161.031
ODOM  9.3200,  0.5000,  0.0508,  2.0000,  0.0000, 0,  1735548430.083, iRoC,  161.031
ODOM  9.3400,  0.5000,  0.0508,  2.0000,  0.0000, 0,  1735548430.083, iRoC,  161.031
ODOM  9.3600,  0.5000,  0.0508,  2.0000,  0.0000, 0,  1735548430.083, iRoC,  161.031
ODOM  9.3800,  0.5000,  0.0508,  2.0000,  0.0000, 0,  1735548430.083, iRoC,  161.031
ODOM  9.4000,  0.5000,  0.0508,  2.0000,  0.0000, 0,  1735548430.083, iRoC,  161.031
ODOM  9.4200,  0.5000,  0.0508,  2.0000,  0.0000, 0,  1735548430.083, iRoC,  161.031
ODOM  9.4400,  0.5000,  0.0508,  2.0000,  0.0000, 0,  1735548430.083, iRoC,  161.031
ODOM  9.4600,  0.5000,  0.0508,  2.0000,  0.0000, 0,  1735548430.083, iRoC,  161.031
ODOM  9.4800,  0.5000,  0.0508,  2.0000,  0.0000, 0,  1735548430.083, iRoC,  161.031
ODOM  9.5000,  0.5200,  0.0508,  2.0000,  0.0000, 0,  1735548430.083, iRoC,  161.031
ODOM  9.5200,  0.5200,  0.0508,  2.0000,  0.0000, 0,  1735548430.083, iRoC,  161.031
ODOM  9.5400,  0.5200,  0.0508,  2.0000,  0.0000, 0,  1735548430.083, iRoC,  161.031
ODOM  9.5600,  0.5200,  0.0308,  2.0000, -2.0000, 0,  1735548430.083, iRoC,  161.031
ODOM  9.5800,  0.5200,  0.0108,  2.0000, -2.0000, 0,  1735548430.083, iRoC,  161.031
ODOM  9.6000,  0.5200, -0.0092,  2.0000, -2.0000, 0,  1735548430.083, iRoC,  161.031
ODOM  9.6200,  0.5200, -0.0292,  2.0000, -2.0000, 0,  1735548430.083, iRoC,  161.031
ODOM  9.6400,  0.5200, -0.0492,  2.0000, -2.0000, 0,  1735548430.083, iRoC,  161.031
ODOM  9.6600,  0.5200, -0.0692,  2.0000, -2.0000, 0,  1735548430.083, iRoC,  161.031
ODOM  9.6800,  0.5000, -0.0692,  2.0000,  0.0000, 0,  1735548430.083, iRoC,  161.031
ODOM  9.7000,  0.5000, -0.0692,  2.0000,  0.0000, 0,  1735548430.083, iRoC,  161.031
ODOM  9.7200,  0.5000, -0.0692,  2.0000,  0.0000, 0,  1735548430.083, iRoC,  161.031
ODOM  9.7400,  0.5000, -0.0692,  2.0000,  0.0000, 0,  1735548430.083, iRoC,  161.031
ODOM  9.7600,  0.5000, -0.0692,  2.0000,  0.0000, 0,  1735548430.083, iRoC,  161.031
ODOM  9.7800,  0.5000, -0.0692,  2.0000,  0.0000, 0,  1735548430.083, iRoC,  161.031
ODOM  9.8000,  0.5000, -0.0692,  2.0000,  0.0000, 0,  1735548430.083, iRoC,  161.031
ODOM  9.8200,  0.5000, -0.0692,  2.0000,  0.0000, 0,  1735548430.083, iRoC,  161.031
ODOM  9.8400,  0.5000, -0.0692,  2.0000,  0.0000, 0,  1735548430.083, iRoC,  161.031
ODOM  9.8600,  0.5000, -0.0692,  2.0000,  0.0000, 0,  1735548430.083, iRoC,  161.031
ODOM  9.8800,  0.5000, -0.0692,  2.0000,  0.0000, 0,  1735548430.083, iRoC,  161.031
ODOM  9.9000,  0.5000, -0.0692,  2.0000,  0.0000, 0,  1735548430.083, iRoC,  161.031
ODOM  9.9200,  0.5000, -0.0692,  2.0000,  0.0000, 0,  1735548430.083, iRoC,  161.031
ODOM  9.9400,  0.5000, -0.0692,  2.0000,  0.0000, 0,  1735548430.083, iRoC,  161.031
ODOM  9.9600,  0.5000, -0.0692,  2.0000,  0.0000, 0,  1735548430.083, iRoC,  161.031
ODOM  9.9800,  0.4800, -0.0692,  2.0000,  0.0000, 0,  1735548430.083, iRoC,  161.031
ODOM  10.0000,  0.4800, -0.0692,  2.0000,  0.0000, 0,  1735548430.083, iRoC,  161.031
ODOM  10.0200,  0.4800, -0.0692,  2.0000,  0.0000, 0,  1735548430.083, iRoC,  161.031
ODOM  10.0400,  0.4800, -0.0692,  2.0000,  0.0000, 0,  1735548430.083, iRoC,  161.031
ODOM  10.0600,  0.4800, -0.0692,  2.0000,  0.0000, 0,  1735548430.083, iRoC,  161.031
ODOM  10.0800,  0.4800, -0.0692,  2.0000,  0.0000, 0,  1735548430.083, iRoC,  161.031
ODOM  10.1000,  0.4800, -0.0692,  2.0000,  0.0000, 0,  1735548430.083, iRoC,  161.031
ODOM  10.1200,  0.4800, -0.0692,  2.0000,  0.0000, 0,  1735548430.083, iRoC,  161.031
ODOM  10.1400,  0.4800, -0.0692,  2.0000,  0.0000, 0,  1735548430.083, iRoC,  161.031
ODOM  10.1600,  0.4800, -0.0692,  2.0000,  0.0000, 0,  1735548430.083, iRoC,  161.031
ODOM  10.1800,  0.4800, -0.0692,  2.0000,  0.0000, 0,  1735548430.083, iRoC,  161.031
ODOM  10.2000,  0.4800, -0.0692,  2.0000,  0.0000, 0,  1735548430.083, iRoC,  161.031
ODOM  10.2200,  0.4800, -0.0692,  2.0000,  0.0000, 0,  1735548430.083, iRoC,  161.031
ODOM  10.2400,  0.4800, -0.0692,  2.0000,  0.0000, 0,  1735548430.083, iRoC,  161.031
ODOM  10.2600,  0.4600, -0.0692,  2.0000,  0.0000, 0,  1735548430.083, iRoC,  161.031
ODOM  10.2800,  0.4600, -0.0692,  2.0000,  0.0000, 0,  1735548430.083, iRoC,  161.031
ODOM  10.3000,  0.4600, -0.0692,  2.0000,  0.0000, 0,  1735548430.083, iRoC,  161.031
ODOM  10.3200,  0.4600, -0.0692,  2.0000,  0.0000, 0,  1735548430.083, iRoC,  161.031
ODOM  10.3400,  0.4600, -0.0692,  2.0000,  0.0000, 0,  1735548430.083, iRoC,  161.031
ODOM  10.3600,  0.4600, -0.0692,  2.0000,  0.0000, 0,  1735548430.083, iRoC,  161.031
ODOM  10.3800,  0.4600, -0.0692,  2.0000,  0.0000, 0,  1735548430.083, iRoC,  161.031
ODOM  10.4000,  0.4600, -0.0692,  2.0000,  0.0000, 0,  1735548430.083, iRoC,  161.031
ODOM  10.4200,  0.4600, -0.0692,  2.0000,  0.0000, 0,  1735548430.083, iRoC,  161.031
ODOM  10.4400,  0.4600, -0.0692,  2.0000,  0.0000, 0,  1735548430.083, iRoC,  161.031
ODOM  10.4600,  0.4600, -0.0692,  2.0000,  0.0000, 0,  1735548430.083, iRoC,  161.031
ODOM  10.4800,  0.4600, -0.0692,  2.0000,  0.0000, 0,  1735548430.083, iRoC,  161.031
ODOM  10.5000,  0.4600, -0.0692,  2.0000,  0.0000, 0,  1735548430.083, iRoC,  161.031
ODOM  10.5200,  0.4600, -0.0692,  2.0000,  0.0000, 0,  1735548430.083, iRoC,  161.031
ODOM  10.5400,  0.4600, -0.0492,  2.0000,  2.0000, 0,  1735548430.083, iRoC,  161.031
