x_meters, y_meters, heading_rad
ODOM 1.0, 1.0, 1.5707963267948966
ODOM 1.0, 1.0, 1.5707963267948966
ODOM 1.0, 1.0, 1.5707963267948966
ODOM 1.0, 1.0, 1.5707963267948966
ODOM 1.0, 1.0, 1.5707963267948966
ODOM 1.0, 1.0, 1.5707963267948966
ODOM 1.0, 1.0, 1.5707963267948966
ODOM 1.0, 1.0, 1.5707963267948966
ODOM 1.0, 1.0, 1.5707963267948966
ODOM 1.0, 1.0, 1.5707963267948966
ODOM 1.0, 1.0, 1.5707963267948966
ODOM 1.0, 1.0, 1.5707963267948966
ODOM 1.0, 1.0, 1.5707963267948966
ODOM 1.0, 1.0, 1.5707963267948966
ODOM 1.0, 1.0, 1.5707963267948966
ODOM 1.0, 1.0, 1.5707963267948966
ODOM 1.0, 1.0, 1.5707963267948966
ODOM 1.0, 1.0, 1.5707963267948966
ODOM 1.0, 1.0, 1.5707963267948966
ODOM 1.0, 1.0, 1.5707963267948966
ODOM 1.0, 1.0, 1.5707963267948966
ODOM 1.0, 1.0, 1.5707963267948966
ODOM 1.0, 1.0, 1.5707963267948966
ODOM 1.0, 1.0, 1.5707963267948966
ODOM 1.0, 1.0, 1.5707963267948966
ODOM 1.0, 1.0, 1.5707963267948966
ODOM 1.0, 1.0, 1.5707963267948966
ODOM 1.0, 1.0, 1.5707963267948966
ODOM 1.0, 1.0, 1.5707963267948966
ODOM 1.0, 1.0, 1.5707963267948966
ODOM 1.0, 1.0, 1.5707963267948966
ODOM 1.0, 1.0, 1.5707963267948966
ODOM 1.0, 1.0, 1.5707963267948966
ODOM 1.0, 1.0, 1.5707963267948966
ODOM 1.0, 1.0, 1.5707963267948966
ODOM 1.0, 1.0, 1.5707963267948966
ODOM 1.0, 1.0, 1.5707963267948966
ODOM 1.0, 1.0, 1.5707963267948966
ODOM 1.0, 1.0, 1.5707963267948966
ODOM 1.0, 1.0, 1.5707963267948966
ODOM 1.0, 1.0, 1.5707963267948966
ODOM 1.0, 1.0, 1.5707963267948966
ODOM 1.0, 1.0, 1.5707963267948966
ODOM 1.0, 1.0, 1.5707963267948966
ODOM 1.0, 1.0, 1.5707963267948966
ODOM 1.0, 1.0, 1.5707963267948966
ODOM 1.0, 1.0, 1.5707963267948966
ODOM 1.0, 1.0, 1.5707963267948966
ODOM 1.0, 1.0, 1.5707963267948966
ODOM 1.0, 1.0, 1.5707963267948966
ODOM 1.0, 1.0, 1.5707963267948966
ODOM 1.0, 1.02, 1.5707963267948966
ODOM 1.0, 1.04, 1.5707963267948966
ODOM 1.0, 1.06, 1.5707963267948966
ODOM 1.0, 1.08, 1.5707963267948966
ODOM 1.0, 1.1, 1.5707963267948966
ODOM 1.0, 1.12, 1.5707963267948966
ODOM 1.0, 1.1400000000000001, 1.5707963267948966
ODOM 1.0, 1.16, 1.5707963267948966
ODOM 1.0, 1.18, 1.5707963267948966
ODOM 1.0, 1.2, 1.5707963267948966
ODOM 1.0, 1.22, 1.5707963267948966
ODOM 1.0, 1.24, 1.5707963267948966
ODOM 1.0, 1.26, 1.5707963267948966
ODOM 1.0, 1.28, 1.5707963267948966
ODOM 1.0, 1.3, 1.5507963267948965
ODOM 1.0, 1.32, 1.5307963267948965
ODOM 1.0, 1.34, 1.5107963267948965
ODOM 1.0, 1.36, 1.4907963267948965
ODOM 1.0, 1.3800000000000001, 1.4707963267948965
ODOM 1.0, 1.4000000000000001, 1.4507963267948965
ODOM 1.0, 1.42, 1.4307963267948964
ODOM 1.0, 1.44, 1.4107963267948964
ODOM 1.0, 1.46, 1.3907963267948964
ODOM 1.0, 1.48, 1.3707963267948964
ODOM 1.02, 1.5, 1.3507963267948964
ODOM 1.02, 1.52, 1.3307963267948963
ODOM 1.02, 1.54, 1.3107963267948963
ODOM 1.02, 1.56, 1.2907963267948963
ODOM 1.04, 1.58, 1.2707963267948963
ODOM 1.04, 1.6, 1.2507963267948963
ODOM 1.04, 1.62, 1.2307963267948963
ODOM 1.06, 1.6400000000000001, 1.2107963267948962
ODOM 1.06, 1.6600000000000001, 1.1907963267948962
ODOM 1.06, 1.68, 1.1707963267948962
ODOM 1.08, 1.7, 1.1507963267948962
ODOM 1.08, 1.72, 1.1307963267948962
ODOM 1.1, 1.74, 1.1107963267948961
ODOM 1.1, 1.76, 1.0907963267948961
ODOM 1.12, 1.76, 1.0707963267948961
ODOM 1.12, 1.78, 1.050796326794896
ODOM 1.1400000000000001, 1.8, 1.030796326794896
ODOM 1.1400000000000001, 1.82, 1.010796326794896
ODOM 1.16, 1.84, 0.990796326794896
ODOM 1.16, 1.86, 0.970796326794896
ODOM 1.18, 1.8800000000000001, 0.950796326794896
ODOM 1.18, 1.8800000000000001, 0.930796326794896
ODOM 1.2, 1.9000000000000001, 0.910796326794896
ODOM 1.22, 1.92, 0.890796326794896
ODOM 1.22, 1.94, 0.8707963267948959
ODOM 1.24, 1.94, 0.8507963267948959
ODOM 1.26, 1.96, 0.8307963267948959
ODOM 1.26, 1.98, 0.8107963267948959
ODOM 1.28, 2.0, 0.7907963267948959
ODOM 1.3, 2.0, 0.7707963267948957
ODOM 1.3, 2.02, 0.7507963267948957
ODOM 1.32, 2.04, 0.7307963267948957
ODOM 1.34, 2.04, 0.7107963267948957
ODOM 1.36, 2.06, 0.6907963267948957
ODOM 1.36, 2.08, 0.6707963267948956
ODOM 1.3800000000000001, 2.08, 0.6507963267948956
ODOM 1.4000000000000001, 2.1, 0.6307963267948956
ODOM 1.42, 2.1, 0.6107963267948956
ODOM 1.44, 2.12, 0.5907963267948956
ODOM 1.44, 2.14, 0.5707963267948956
ODOM 1.46, 2.14, 0.5507963267948955
ODOM 1.48, 2.16, 0.5307963267948955
ODOM 1.5, 2.16, 0.5107963267948955
ODOM 1.52, 2.18, 0.4907963267948955
ODOM 1.54, 2.18, 0.47079632679489547
ODOM 1.56, 2.2, 0.4507963267948954
ODOM 1.58, 2.2, 0.4307963267948954
ODOM 1.6, 2.2, 0.41079632679489536
ODOM 1.6, 2.22, 0.3907963267948953
ODOM 1.62, 2.22, 0.37079632679489527
ODOM 1.6400000000000001, 2.22, 0.35079632679489525
ODOM 1.6600000000000001, 2.24, 0.3307963267948953
ODOM 1.68, 2.24, 0.3107963267948953
ODOM 1.7, 2.24, 0.29079632679489525
ODOM 1.72, 2.2600000000000002, 0.27079632679489524
ODOM 1.74, 2.2600000000000002, 0.2507963267948952
ODOM 1.76, 2.2600000000000002, 0.23079632679489523
ODOM 1.78, 2.2600000000000002, 0.21079632679489524
ODOM 1.8, 2.2800000000000002, 0.19079632679489525
ODOM 1.82, 2.2800000000000002, 0.17079632679489526
ODOM 1.84, 2.2800000000000002, 0.1507963267948953
ODOM 1.86, 2.2800000000000002, 0.1307963267948953
ODOM 1.8800000000000001, 2.2800000000000002, 0.11079632679489532
ODOM 1.9000000000000001, 2.2800000000000002, 0.09079632679489533
ODOM 1.92, 2.2800000000000002, 0.07079632679489534
ODOM 1.94, 2.2800000000000002, 0.07079632679489534
ODOM 1.96, 2.3000000000000003, 0.07079632679489534
ODOM 1.98, 2.3000000000000003, 0.07079632679489534
ODOM 2.0, 2.3000000000000003, 0.07079632679489534
ODOM 2.02, 2.3000000000000003, 0.07079632679489534
ODOM 2.04, 2.3000000000000003, 0.07079632679489534
ODOM 2.06, 2.3000000000000003, 0.07079632679489534
ODOM 2.08, 2.3000000000000003, 0.07079632679489534
ODOM 2.1, 2.3000000000000003, 0.07079632679489534
ODOM 2.12, 2.3000000000000003, 0.07079632679489534
ODOM 2.14, 2.3000000000000003, 0.07079632679489534
ODOM 2.16, 2.3000000000000003, 0.07079632679489534
ODOM 2.18, 2.3000000000000003, 0.07079632679489534
ODOM 2.2, 2.3000000000000003, 0.07079632679489534
ODOM 2.22, 2.3000000000000003, 0.07079632679489534
ODOM 2.24, 2.32, 0.07079632679489534
ODOM 2.2600000000000002, 2.32, 0.07079632679489534
ODOM 2.2800000000000002, 2.32, 0.07079632679489534
ODOM 2.3000000000000003, 2.32, 0.07079632679489534
ODOM 2.32, 2.32, 0.07079632679489534
ODOM 2.34, 2.32, 0.07079632679489534
ODOM 2.36, 2.32, 0.07079632679489534
ODOM 2.38, 2.32, 0.07079632679489534
ODOM 2.4, 2.32, 0.07079632679489534
ODOM 2.42, 2.32, 0.07079632679489534
ODOM 2.44, 2.32, 0.07079632679489534
ODOM 2.46, 2.32, 0.07079632679489534
ODOM 2.48, 2.32, 0.07079632679489534
ODOM 2.5, 2.32, 0.07079632679489534
ODOM 2.52, 2.32, 0.07079632679489534
ODOM 2.54, 2.34, 0.07079632679489534
ODOM 2.56, 2.34, 0.07079632679489534
ODOM 2.58, 2.34, 0.07079632679489534
ODOM 2.6, 2.34, 0.07079632679489534
ODOM 2.62, 2.34, 0.07079632679489534
ODOM 2.64, 2.34, 0.07079632679489534
ODOM 2.66, 2.34, 0.07079632679489534
ODOM 2.68, 2.34, 0.07079632679489534
ODOM 2.7, 2.34, 0.07079632679489534
ODOM 2.72, 2.34, 0.07079632679489534
ODOM 2.74, 2.34, 0.07079632679489534
ODOM 2.7600000000000002, 2.34, 0.07079632679489534
ODOM 2.7800000000000002, 2.34, 0.07079632679489534
ODOM 2.8000000000000003, 2.34, 0.07079632679489534
ODOM 2.82, 2.36, 0.05079632679489534
ODOM 2.84, 2.36, 0.030796326794895343
ODOM 2.86, 2.36, 0.010796326794895346
ODOM 2.88, 2.36, -0.009203673205104651
ODOM 2.9, 2.36, -0.029203673205104648
ODOM 2.92, 2.36, -0.049203673205104645
ODOM 2.94, 2.34, -0.06920367320510465
ODOM 2.96, 2.34, -0.08920367320510464
ODOM 2.98, 2.34, -0.10920367320510463
ODOM 3.0, 2.34, -0.12920367320510462
ODOM 3.02, 2.34, -0.1492036732051046
ODOM 3.04, 2.34, -0.1692036732051046
ODOM 3.06, 2.34, -0.1892036732051046
ODOM 3.08, 2.34, -0.20920367320510455
ODOM 3.1, 2.32, -0.22920367320510454
ODOM 3.12, 2.32, -0.24920367320510453
ODOM 3.14, 2.32, -0.24920367320510453
ODOM 3.16, 2.32, -0.24920367320510453
ODOM 3.18, 2.3000000000000003, -0.24920367320510453
ODOM 3.2, 2.3000000000000003, -0.24920367320510453
ODOM 3.22, 2.3000000000000003, -0.24920367320510453
ODOM 3.24, 2.3000000000000003, -0.24920367320510453
ODOM 3.2600000000000002, 2.2800000000000002, -0.24920367320510453
ODOM 3.2600000000000002, 2.2800000000000002, -0.24920367320510453
ODOM 3.2800000000000002, 2.2800000000000002, -0.24920367320510453
ODOM 3.3000000000000003, 2.2800000000000002, -0.24920367320510453
ODOM 3.3200000000000003, 2.2600000000000002, -0.24920367320510453
ODOM 3.34, 2.2600000000000002, -0.24920367320510453
ODOM 3.36, 2.2600000000000002, -0.24920367320510453
ODOM 3.38, 2.2600000000000002, -0.24920367320510453
ODOM 3.4, 2.24, -0.24920367320510453
ODOM 3.42, 2.24, -0.24920367320510453
ODOM 3.44, 2.24, -0.24920367320510453
ODOM 3.46, 2.24, -0.24920367320510453
ODOM 3.48, 2.22, -0.24920367320510453
ODOM 3.5, 2.22, -0.24920367320510453
ODOM 3.52, 2.22, -0.24920367320510453
ODOM 3.54, 2.22, -0.24920367320510453
ODOM 3.56, 2.2, -0.24920367320510453
ODOM 3.58, 2.2, -0.24920367320510453
ODOM 3.6, 2.2, -0.24920367320510453
ODOM 3.62, 2.2, -0.24920367320510453
ODOM 3.64, 2.18, -0.2692036732051045
ODOM 3.66, 2.18, -0.28920367320510454
ODOM 3.68, 2.18, -0.30920367320510456
ODOM 3.7, 2.18, -0.3292036732051046
ODOM 3.72, 2.16, -0.3492036732051046
ODOM 3.74, 2.16, -0.3692036732051046
ODOM 3.7600000000000002, 2.14, -0.3892036732051046
ODOM 3.7600000000000002, 2.14, -0.40920367320510465
ODOM 3.7800000000000002, 2.14, -0.42920367320510466
ODOM 3.8000000000000003, 2.12, -0.4492036732051047
ODOM 3.8200000000000003, 2.12, -0.4692036732051047
ODOM 3.84, 2.1, -0.4892036732051047
ODOM 3.86, 2.1, -0.5092036732051047
ODOM 3.88, 2.08, -0.5292036732051049
ODOM 3.9, 2.08, -0.5492036732051049
ODOM 3.92, 2.06, -0.5692036732051049
ODOM 3.92, 2.06, -0.5892036732051049
ODOM 3.94, 2.04, -0.5892036732051049
ODOM 3.96, 2.04, -0.5892036732051049
ODOM 3.98, 2.02, -0.5892036732051049
ODOM 4.0, 2.02, -0.5892036732051049
ODOM 4.0200000000000005, 2.0, -0.5892036732051049
ODOM 4.0200000000000005, 1.98, -0.5892036732051049
ODOM 4.04, 1.98, -0.5892036732051049
ODOM 4.0600000000000005, 1.96, -0.5892036732051049
ODOM 4.08, 1.96, -0.5892036732051049
ODOM 4.1, 1.94, -0.5892036732051049
ODOM 4.12, 1.94, -0.5892036732051049
ODOM 4.12, 1.92, -0.5892036732051049
ODOM 4.14, 1.92, -0.5892036732051049
ODOM 4.16, 1.9000000000000001, -0.5892036732051049
ODOM 4.18, 1.8800000000000001, -0.5892036732051049
ODOM 4.2, 1.8800000000000001, -0.5892036732051049
ODOM 4.22, 1.86, -0.5892036732051049
ODOM 4.22, 1.86, -0.5892036732051049
ODOM 4.24, 1.84, -0.5892036732051049
ODOM 4.26, 1.84, -0.5892036732051049
ODOM 4.28, 1.82, -0.5892036732051049
ODOM 4.3, 1.82, -0.5892036732051049
ODOM 4.3, 1.8, -0.5892036732051049
ODOM 4.32, 1.78, -0.5892036732051049
ODOM 4.34, 1.78, -0.5892036732051049
ODOM 4.36, 1.76, -0.5892036732051049
ODOM 4.38, 1.76, -0.5892036732051049
ODOM 4.4, 1.74, -0.5892036732051049
ODOM 4.4, 1.74, -0.5892036732051049
ODOM 4.42, 1.72, -0.5892036732051049
ODOM 4.44, 1.72, -0.5892036732051049
ODOM 4.46, 1.7, -0.5892036732051049
ODOM 4.48, 1.68, -0.5892036732051049
ODOM 4.5, 1.68, -0.5892036732051049
ODOM 4.5, 1.6600000000000001, -0.5892036732051049
ODOM 4.5200000000000005, 1.6600000000000001, -0.5892036732051049
ODOM 4.54, 1.6400000000000001, -0.5892036732051049
ODOM 4.5600000000000005, 1.6400000000000001, -0.5892036732051049
ODOM 4.58, 1.62, -0.5892036732051049
ODOM 4.6000000000000005, 1.62, -0.5892036732051049
ODOM 4.6000000000000005, 1.6, -0.5692036732051049
ODOM 4.62, 1.58, -0.5492036732051049
ODOM 4.64, 1.58, -0.5292036732051049
ODOM 4.66, 1.56, -0.5092036732051048
ODOM 4.68, 1.56, -0.48920367320510477
ODOM 4.7, 1.56, -0.46920367320510475
ODOM 4.72, 1.54, -0.44920367320510474
ODOM 4.74, 1.54, -0.4292036732051047
ODOM 4.76, 1.52, -0.40920367320510476
ODOM 4.76, 1.52, -0.38920367320510474
ODOM 4.78, 1.5, -0.3692036732051047
ODOM 4.8, 1.5, -0.3692036732051047
ODOM 4.82, 1.5, -0.3692036732051047
ODOM 4.84, 1.48, -0.3692036732051047
ODOM 4.86, 1.48, -0.3692036732051047
ODOM 4.88, 1.48, -0.3692036732051047
ODOM 4.9, 1.46, -0.3692036732051047
ODOM 4.92, 1.46, -0.3692036732051047
ODOM 4.94, 1.46, -0.3692036732051047
ODOM 4.96, 1.44, -0.3692036732051047
ODOM 4.98, 1.44, -0.3692036732051047
ODOM 5.0, 1.44, -0.3692036732051047
ODOM 5.0200000000000005, 1.42, -0.3692036732051047
ODOM 5.0200000000000005, 1.42, -0.3692036732051047
ODOM 5.04, 1.4000000000000001, -0.3692036732051047
ODOM 5.0600000000000005, 1.4000000000000001, -0.3692036732051047
ODOM 5.08, 1.4000000000000001, -0.3692036732051047
ODOM 5.1000000000000005, 1.3800000000000001, -0.3692036732051047
ODOM 5.12, 1.3800000000000001, -0.3692036732051047
ODOM 5.14, 1.3800000000000001, -0.3692036732051047
ODOM 5.16, 1.36, -0.3692036732051047
ODOM 5.18, 1.36, -0.3692036732051047
ODOM 5.2, 1.36, -0.3692036732051047
ODOM 5.22, 1.34, -0.3692036732051047
ODOM 5.24, 1.34, -0.3692036732051047
ODOM 5.26, 1.32, -0.3692036732051047
ODOM 5.28, 1.32, -0.3692036732051047
ODOM 5.3, 1.32, -0.3692036732051047
ODOM 5.3, 1.3, -0.3692036732051047
ODOM 5.32, 1.3, -0.3692036732051047
ODOM 5.34, 1.3, -0.3692036732051047
ODOM 5.36, 1.28, -0.3692036732051047
ODOM 5.38, 1.28, -0.3692036732051047
ODOM 5.4, 1.28, -0.3692036732051047
ODOM 5.42, 1.26, -0.3692036732051047
ODOM 5.44, 1.26, -0.3692036732051047
ODOM 5.46, 1.24, -0.3692036732051047
ODOM 5.48, 1.24, -0.3692036732051047
ODOM 5.5, 1.24, -0.3692036732051047
ODOM 5.5200000000000005, 1.22, -0.3692036732051047
ODOM 5.54, 1.22, -0.3692036732051047
ODOM 5.5600000000000005, 1.22, -0.3692036732051047
ODOM 5.58, 1.2, -0.3692036732051047
ODOM 5.58, 1.2, -0.3692036732051047
ODOM 5.6000000000000005, 1.2, -0.3692036732051047
ODOM 5.62, 1.18, -0.3692036732051047
ODOM 5.64, 1.18, -0.3692036732051047
ODOM 5.66, 1.18, -0.3692036732051047
ODOM 5.68, 1.16, -0.3692036732051047
ODOM 5.7, 1.16, -0.3692036732051047
ODOM 5.72, 1.1400000000000001, -0.3692036732051047
ODOM 5.74, 1.1400000000000001, -0.38920367320510474
ODOM 5.76, 1.1400000000000001, -0.4092036732051048
ODOM 5.78, 1.12, -0.42920367320510483
ODOM 5.8, 1.12, -0.44920367320510485
ODOM 5.82, 1.1, -0.4692036732051049
ODOM 5.82, 1.1, -0.48920367320510494
ODOM 5.84, 1.08, -0.509203673205105
ODOM 5.86, 1.08, -0.529203673205105
ODOM 5.88, 1.06, -0.549203673205105
ODOM 5.9, 1.06, -0.5692036732051049
ODOM 5.92, 1.04, -0.5892036732051049
ODOM 5.94, 1.04, -0.6092036732051049
ODOM 5.94, 1.02, -0.629203673205105
ODOM 5.96, 1.02, -0.649203673205105
ODOM 5.98, 1.0, -0.669203673205105
ODOM 6.0, 0.98, -0.689203673205105
ODOM 6.0200000000000005, 0.98, -0.689203673205105
ODOM 6.0200000000000005, 0.96, -0.689203673205105
ODOM 6.04, 0.9400000000000001, -0.689203673205105
ODOM 6.0600000000000005, 0.9400000000000001, -0.689203673205105
ODOM 6.08, 0.92, -0.689203673205105
ODOM 6.08, 0.92, -0.689203673205105
ODOM 6.1000000000000005, 0.9, -0.689203673205105
ODOM 6.12, 0.88, -0.709203673205105
ODOM 6.140000000000001, 0.88, -0.729203673205105
ODOM 6.140000000000001, 0.86, -0.729203673205105
ODOM 6.16, 0.84, -0.729203673205105
ODOM 6.18, 0.84, -0.729203673205105
ODOM 6.2, 0.8200000000000001, -0.729203673205105
ODOM 6.2, 0.8, -0.729203673205105
ODOM 6.22, 0.8, -0.729203673205105
ODOM 6.24, 0.78, -0.709203673205105
ODOM 6.26, 0.76, -0.689203673205105
ODOM 6.26, 0.76, -0.669203673205105
ODOM 6.28, 0.74, -0.649203673205105
ODOM 6.3, 0.74, -0.629203673205105
ODOM 6.32, 0.72, -0.6092036732051049
ODOM 6.34, 0.7000000000000001, -0.5892036732051049
ODOM 6.36, 0.7000000000000001, -0.5692036732051049
ODOM 6.36, 0.68, -0.5492036732051049
ODOM 6.38, 0.68, -0.5292036732051049
ODOM 6.4, 0.66, -0.5092036732051048
ODOM 6.42, 0.66, -0.48920367320510477
ODOM 6.44, 0.64, -0.46920367320510475
ODOM 6.46, 0.64, -0.44920367320510474
ODOM 6.48, 0.62, -0.4292036732051047
ODOM 6.5, 0.62, -0.40920367320510476
ODOM 6.5, 0.62, -0.38920367320510474
ODOM 6.5200000000000005, 0.6, -0.3692036732051047
ODOM 6.54, 0.6, -0.3492036732051047
ODOM 6.5600000000000005, 0.6, -0.3292036732051047
ODOM 6.58, 0.58, -0.30920367320510467
ODOM 6.6000000000000005, 0.58, -0.28920367320510465
ODOM 6.62, 0.58, -0.26920367320510463
ODOM 6.640000000000001, 0.56, -0.24920367320510461
ODOM 6.66, 0.56, -0.22920367320510462
ODOM 6.68, 0.56, -0.2092036732051046
ODOM 6.7, 0.56, -0.18920367320510462
ODOM 6.72, 0.56, -0.16920367320510463
ODOM 6.74, 0.54, -0.14920367320510464
ODOM 6.76, 0.54, -0.12920367320510465
ODOM 6.78, 0.54, -0.10920367320510466
ODOM 6.8, 0.54, -0.08920367320510467
ODOM 6.82, 0.54, -0.06920367320510468
ODOM 6.84, 0.54, -0.04920367320510468
ODOM 6.86, 0.54, -0.029203673205104683
ODOM 6.88, 0.54, -0.009203673205104686
ODOM 6.9, 0.54, 0.010796326794895311
ODOM 6.92, 0.54, 0.030796326794895308
ODOM 6.94, 0.54, 0.050796326794895305
ODOM 6.96, 0.54, 0.07079632679489531
ODOM 6.98, 0.54, 0.0907963267948953
ODOM 7.0, 0.54, 0.0907963267948953
ODOM 7.0200000000000005, 0.54, 0.0907963267948953
ODOM 7.04, 0.54, 0.0907963267948953
ODOM 7.0600000000000005, 0.54, 0.0907963267948953
ODOM 7.08, 0.56, 0.0907963267948953
ODOM 7.1000000000000005, 0.56, 0.0907963267948953
ODOM 7.12, 0.56, 0.0907963267948953
ODOM 7.140000000000001, 0.56, 0.0907963267948953
ODOM 7.16, 0.56, 0.0907963267948953
ODOM 7.18, 0.56, 0.0907963267948953
ODOM 7.2, 0.56, 0.0907963267948953
ODOM 7.22, 0.56, 0.0907963267948953
ODOM 7.24, 0.56, 0.0907963267948953
ODOM 7.26, 0.56, 0.0907963267948953
ODOM 7.28, 0.56, 0.0907963267948953
ODOM 7.3, 0.58, 0.0907963267948953
ODOM 7.32, 0.58, 0.0907963267948953
ODOM 7.34, 0.58, 0.0907963267948953
ODOM 7.36, 0.58, 0.0907963267948953
ODOM 7.38, 0.58, 0.0907963267948953
ODOM 7.4, 0.58, 0.0907963267948953
ODOM 7.42, 0.58, 0.0907963267948953
ODOM 7.44, 0.58, 0.0907963267948953
ODOM 7.46, 0.58, 0.0907963267948953
ODOM 7.48, 0.58, 0.07079632679489531
ODOM 7.5, 0.58, 0.05079632679489531
ODOM 7.5200000000000005, 0.58, 0.030796326794895315
ODOM 7.54, 0.6, 0.010796326794895318
ODOM 7.5600000000000005, 0.6, -0.009203673205104679
ODOM 7.58, 0.58, -0.029203673205104676
ODOM 7.6000000000000005, 0.58, -0.04920367320510467
ODOM 7.62, 0.58, -0.06920367320510468
ODOM 7.640000000000001, 0.58, -0.08920367320510467
ODOM 7.66, 0.58, -0.10920367320510466
ODOM 7.68, 0.58, -0.10920367320510466
ODOM 7.7, 0.58, -0.10920367320510466
ODOM 7.72, 0.58, -0.10920367320510466
ODOM 7.74, 0.58, -0.10920367320510466
ODOM 7.76, 0.58, -0.10920367320510466
ODOM 7.78, 0.58, -0.10920367320510466
ODOM 7.8, 0.56, -0.10920367320510466
ODOM 7.82, 0.56, -0.10920367320510466
ODOM 7.84, 0.56, -0.10920367320510466
ODOM 7.86, 0.56, -0.10920367320510466
ODOM 7.88, 0.56, -0.10920367320510466
ODOM 7.9, 0.56, -0.10920367320510466
ODOM 7.92, 0.56, -0.10920367320510466
ODOM 7.94, 0.56, -0.10920367320510466
ODOM 7.96, 0.56, -0.10920367320510466
ODOM 7.98, 0.54, -0.10920367320510466
ODOM 8.0, 0.54, -0.10920367320510466
ODOM 8.02, 0.54, -0.10920367320510466
ODOM 8.040000000000001, 0.54, -0.10920367320510466
ODOM 8.06, 0.54, -0.10920367320510466
ODOM 8.08, 0.54, -0.10920367320510466
ODOM 8.1, 0.54, -0.10920367320510466
ODOM 8.120000000000001, 0.54, -0.10920367320510466
ODOM 8.14, 0.54, -0.10920367320510466
ODOM 8.16, 0.52, -0.10920367320510466
ODOM 8.18, 0.52, -0.10920367320510466
ODOM 8.2, 0.52, -0.10920367320510466
ODOM 8.22, 0.52, -0.10920367320510466
ODOM 8.24, 0.52, -0.10920367320510466
ODOM 8.26, 0.52, -0.10920367320510466
ODOM 8.28, 0.52, -0.10920367320510466
ODOM 8.3, 0.52, -0.10920367320510466
ODOM 8.32, 0.52, -0.10920367320510466
ODOM 8.34, 0.52, -0.10920367320510466
ODOM 8.36, 0.5, -0.10920367320510466
ODOM 8.38, 0.5, -0.10920367320510466
ODOM 8.4, 0.5, -0.08920367320510467
ODOM 8.42, 0.5, -0.06920367320510468
ODOM 8.44, 0.5, -0.04920367320510468
ODOM 8.46, 0.5, -0.029203673205104683
ODOM 8.48, 0.5, -0.009203673205104686
ODOM 8.5, 0.5, 0.010796326794895311
ODOM 8.52, 0.5, 0.030796326794895308
ODOM 8.540000000000001, 0.5, 0.050796326794895305
ODOM 8.56, 0.5, 0.07079632679489531
ODOM 8.58, 0.5, 0.07079632679489531
ODOM 8.6, 0.5, 0.07079632679489531
ODOM 8.620000000000001, 0.5, 0.07079632679489531
ODOM 8.64, 0.5, 0.07079632679489531
ODOM 8.66, 0.5, 0.07079632679489531
ODOM 8.68, 0.52, 0.07079632679489531
ODOM 8.700000000000001, 0.52, 0.07079632679489531
ODOM 8.72, 0.52, 0.07079632679489531
ODOM 8.74, 0.52, 0.07079632679489531
ODOM 8.76, 0.52, 0.07079632679489531
ODOM 8.78, 0.52, 0.07079632679489531
ODOM 8.8, 0.52, 0.07079632679489531
ODOM 8.82, 0.52, 0.07079632679489531
ODOM 8.84, 0.52, 0.07079632679489531
ODOM 8.86, 0.52, 0.07079632679489531
ODOM 8.88, 0.52, 0.07079632679489531
ODOM 8.9, 0.52, 0.07079632679489531
ODOM 8.92, 0.52, 0.07079632679489531
ODOM 8.94, 0.52, 0.07079632679489531
ODOM 8.96, 0.54, 0.07079632679489531
ODOM 8.98, 0.54, 0.07079632679489531
ODOM 9.0, 0.54, 0.07079632679489531
ODOM 9.02, 0.54, 0.07079632679489531
ODOM 9.040000000000001, 0.54, 0.07079632679489531
ODOM 9.06, 0.54, 0.07079632679489531
ODOM 9.08, 0.54, 0.07079632679489531
ODOM 9.1, 0.54, 0.07079632679489531
ODOM 9.120000000000001, 0.54, 0.07079632679489531
ODOM 9.14, 0.54, 0.07079632679489531
ODOM 9.16, 0.54, 0.07079632679489531
ODOM 9.18, 0.54, 0.07079632679489531
ODOM 9.200000000000001, 0.54, 0.07079632679489531
ODOM 9.22, 0.54, 0.07079632679489531
ODOM 9.24, 0.56, 0.07079632679489531
ODOM 9.26, 0.56, 0.07079632679489531
ODOM 9.28, 0.56, 0.07079632679489531
ODOM 9.3, 0.56, 0.07079632679489531
ODOM 9.32, 0.56, 0.07079632679489531
ODOM 9.34, 0.56, 0.07079632679489531
ODOM 9.36, 0.56, 0.05079632679489531
ODOM 9.38, 0.56, 0.030796326794895315
ODOM 9.4, 0.56, 0.010796326794895318
ODOM 9.42, 0.56, -0.009203673205104679
ODOM 9.44, 0.56, -0.029203673205104676
ODOM 9.46, 0.56, -0.04920367320510467
ODOM 9.48, 0.56, -0.04920367320510467
ODOM 9.5, 0.56, -0.04920367320510467
ODOM 9.52, 0.56, -0.04920367320510467
ODOM 9.540000000000001, 0.56, -0.04920367320510467
ODOM 9.56, 0.56, -0.04920367320510467
ODOM 9.58, 0.56, -0.04920367320510467
ODOM 9.6, 0.56, -0.04920367320510467
ODOM 9.620000000000001, 0.56, -0.04920367320510467
ODOM 9.64, 0.56, -0.04920367320510467
ODOM 9.66, 0.54, -0.04920367320510467
ODOM 9.68, 0.54, -0.04920367320510467
ODOM 9.700000000000001, 0.54, -0.04920367320510467
ODOM 9.72, 0.54, -0.04920367320510467
ODOM 9.74, 0.54, -0.04920367320510467
ODOM 9.76, 0.54, -0.04920367320510467
ODOM 9.78, 0.54, -0.04920367320510467
ODOM 9.8, 0.54, -0.04920367320510467
ODOM 9.82, 0.54, -0.04920367320510467
ODOM 9.84, 0.54, -0.04920367320510467
ODOM 9.86, 0.54, -0.04920367320510467
ODOM 9.88, 0.54, -0.04920367320510467
ODOM 9.9, 0.54, -0.04920367320510467
ODOM 9.92, 0.54, -0.04920367320510467
ODOM 9.94, 0.54, -0.04920367320510467
ODOM 9.96, 0.54, -0.04920367320510467
ODOM 9.98, 0.54, -0.04920367320510467
ODOM 10.0, 0.54, -0.04920367320510467
ODOM 10.02, 0.54, -0.04920367320510467
ODOM 10.040000000000001, 0.54, -0.04920367320510467
ODOM 10.06, 0.52, -0.04920367320510467
ODOM 10.08, 0.52, -0.04920367320510467
ODOM 10.1, 0.52, -0.04920367320510467
ODOM 10.120000000000001, 0.52, -0.04920367320510467
ODOM 10.14, 0.52, -0.04920367320510467
ODOM 10.16, 0.52, -0.04920367320510467
ODOM 10.18, 0.52, -0.04920367320510467
ODOM 10.200000000000001, 0.52, -0.04920367320510467
ODOM 10.22, 0.52, -0.04920367320510467
ODOM 10.22, 0.52, -0.04920367320510467
ODOM 10.24, 0.52, -0.04920367320510467
ODOM 10.26, 0.52, -0.04920367320510467
ODOM 10.28, 0.52, -0.04920367320510467
ODOM 10.3, 0.52, -0.04920367320510467
ODOM 10.32, 0.52, -0.04920367320510467
ODOM 10.34, 0.52, -0.04920367320510467
ODOM 10.36, 0.52, -0.04920367320510467
ODOM 10.38, 0.52, -0.029203673205104676
ODOM 10.4, 0.52, -0.009203673205104679
ODOM 10.42, 0.52, 0.010796326794895318
ODOM 10.44, 0.52, 0.030796326794895315
ODOM 10.46, 0.52, 0.05079632679489531
ODOM 10.48, 0.52, 0.07079632679489531
ODOM 10.5, 0.52, 0.0907963267948953
ODOM 10.52, 0.52, 0.11079632679489529
ODOM 10.540000000000001, 0.52, 0.11079632679489529
ODOM 10.56, 0.52, 0.11079632679489529
ODOM 10.58, 0.52, 0.11079632679489529
ODOM 10.6, 0.52, 0.11079632679489529
ODOM 10.620000000000001, 0.52, 0.11079632679489529
ODOM 10.64, 0.54, 0.11079632679489529
ODOM 10.66, 0.54, 0.11079632679489529
ODOM 10.68, 0.54, 0.11079632679489529
ODOM 10.700000000000001, 0.54, 0.11079632679489529
ODOM 10.72, 0.54, 0.11079632679489529
ODOM 10.74, 0.54, 0.11079632679489529
ODOM 10.76, 0.54, 0.11079632679489529
ODOM 10.78, 0.54, 0.11079632679489529
ODOM 10.8, 0.54, 0.11079632679489529
ODOM 10.82, 0.56, 0.11079632679489529
ODOM 10.84, 0.56, 0.11079632679489529
ODOM 10.86, 0.56, 0.11079632679489529
ODOM 10.88, 0.56, 0.11079632679489529
ODOM 10.9, 0.56, 0.11079632679489529
ODOM 10.92, 0.56, 0.11079632679489529
ODOM 10.94, 0.56, 0.11079632679489529
ODOM 10.96, 0.56, 0.11079632679489529
ODOM 10.98, 0.56, 0.11079632679489529
ODOM 11.0, 0.58, 0.11079632679489529
ODOM 11.02, 0.58, 0.11079632679489529
ODOM 11.040000000000001, 0.58, 0.11079632679489529
ODOM 11.06, 0.58, 0.11079632679489529
ODOM 11.08, 0.58, 0.11079632679489529
ODOM 11.1, 0.58, 0.11079632679489529
ODOM 11.120000000000001, 0.58, 0.11079632679489529
ODOM 11.14, 0.58, 0.11079632679489529
ODOM 11.16, 0.58, 0.11079632679489529
ODOM 11.18, 0.6, 0.11079632679489529
ODOM 11.200000000000001, 0.6, 0.11079632679489529
ODOM 11.22, 0.6, 0.11079632679489529
ODOM 11.24, 0.6, 0.11079632679489529
ODOM 11.26, 0.6, 0.11079632679489529
ODOM 11.28, 0.6, 0.11079632679489529
ODOM 11.3, 0.6, 0.11079632679489529
ODOM 11.32, 0.6, 0.0907963267948953
ODOM 11.34, 0.6, 0.07079632679489531
ODOM 11.36, 0.6, 0.05079632679489531
ODOM 11.38, 0.62, 0.030796326794895315
ODOM 11.4, 0.62, 0.010796326794895318
ODOM 11.42, 0.62, -0.009203673205104679
ODOM 11.44, 0.62, -0.029203673205104676
ODOM 11.46, 0.6, -0.029203673205104676
ODOM 11.48, 0.6, -0.029203673205104676
ODOM 11.5, 0.6, -0.029203673205104676
ODOM 11.52, 0.6, -0.029203673205104676
ODOM 11.540000000000001, 0.6, -0.029203673205104676
ODOM 11.56, 0.6, -0.029203673205104676
ODOM 11.58, 0.6, -0.029203673205104676
ODOM 11.6, 0.6, -0.029203673205104676
ODOM 11.620000000000001, 0.6, -0.029203673205104676
ODOM 11.64, 0.6, -0.029203673205104676
ODOM 11.66, 0.6, -0.029203673205104676
ODOM 11.68, 0.6, -0.029203673205104676
ODOM 11.700000000000001, 0.6, -0.029203673205104676
ODOM 11.72, 0.6, -0.029203673205104676
ODOM 11.74, 0.6, -0.029203673205104676
ODOM 11.76, 0.6, -0.029203673205104676
ODOM 11.78, 0.6, -0.029203673205104676
ODOM 11.8, 0.6, -0.029203673205104676
ODOM 11.82, 0.6, -0.029203673205104676
ODOM 11.84, 0.6, -0.029203673205104676
ODOM 11.86, 0.6, -0.029203673205104676
ODOM 11.88, 0.6, -0.029203673205104676
ODOM 11.9, 0.6, -0.029203673205104676
ODOM 11.92, 0.6, -0.029203673205104676
ODOM 11.94, 0.6, -0.029203673205104676
ODOM 11.96, 0.6, -0.029203673205104676
ODOM 11.98, 0.6, -0.029203673205104676
ODOM 12.0, 0.6, -0.029203673205104676
ODOM 12.02, 0.6, -0.029203673205104676
ODOM 12.040000000000001, 0.6, -0.029203673205104676
ODOM 12.06, 0.6, -0.029203673205104676
ODOM 12.08, 0.6, -0.029203673205104676
ODOM 12.1, 0.6, -0.029203673205104676
ODOM 12.120000000000001, 0.6, -0.029203673205104676
ODOM 12.14, 0.6, -0.029203673205104676
ODOM 12.16, 0.58, -0.029203673205104676
ODOM 12.18, 0.58, -0.029203673205104676
ODOM 12.200000000000001, 0.58, -0.029203673205104676
ODOM 12.22, 0.58, -0.029203673205104676
ODOM 12.24, 0.58, -0.029203673205104676
ODOM 12.26, 0.58, -0.029203673205104676
ODOM 12.280000000000001, 0.58, -0.029203673205104676
ODOM 12.3, 0.58, -0.029203673205104676
ODOM 12.32, 0.58, -0.029203673205104676
ODOM 12.34, 0.58, -0.029203673205104676
ODOM 12.36, 0.58, -0.029203673205104676
ODOM 12.38, 0.58, -0.029203673205104676
ODOM 12.4, 0.58, -0.029203673205104676
ODOM 12.42, 0.58, -0.029203673205104676
ODOM 12.44, 0.58, -0.029203673205104676
ODOM 12.46, 0.58, -0.029203673205104676
ODOM 12.48, 0.58, -0.029203673205104676
ODOM 12.5, 0.58, -0.029203673205104676
ODOM 12.52, 0.58, -0.029203673205104676
ODOM 12.540000000000001, 0.58, -0.029203673205104676
ODOM 12.56, 0.58, -0.029203673205104676
ODOM 12.58, 0.58, -0.029203673205104676
ODOM 12.6, 0.58, -0.029203673205104676
ODOM 12.620000000000001, 0.58, -0.029203673205104676
ODOM 12.64, 0.58, -0.029203673205104676
ODOM 12.66, 0.58, -0.029203673205104676
ODOM 12.68, 0.58, -0.029203673205104676
ODOM 12.700000000000001, 0.58, -0.029203673205104676
ODOM 12.72, 0.58, -0.029203673205104676
ODOM 12.74, 0.58, -0.029203673205104676
ODOM 12.76, 0.58, -0.029203673205104676
ODOM 12.780000000000001, 0.58, -0.029203673205104676
ODOM 12.8, 0.58, -0.029203673205104676
ODOM 12.82, 0.58, -0.029203673205104676
ODOM 12.84, 0.56, -0.029203673205104676
ODOM 12.86, 0.56, -0.029203673205104676
ODOM 12.88, 0.56, -0.029203673205104676
ODOM 12.9, 0.56, -0.029203673205104676
ODOM 12.92, 0.56, -0.029203673205104676
ODOM 12.94, 0.56, -0.029203673205104676
ODOM 12.96, 0.56, -0.029203673205104676
ODOM 12.98, 0.56, -0.029203673205104676
ODOM 13.0, 0.56, -0.029203673205104676
ODOM 13.02, 0.56, -0.029203673205104676
ODOM 13.040000000000001, 0.56, -0.029203673205104676
ODOM 13.06, 0.56, -0.029203673205104676
ODOM 13.08, 0.56, -0.029203673205104676
ODOM 13.1, 0.56, -0.029203673205104676
ODOM 13.120000000000001, 0.56, -0.029203673205104676
ODOM 13.14, 0.56, -0.029203673205104676
ODOM 13.16, 0.56, -0.029203673205104676
ODOM 13.18, 0.56, -0.029203673205104676
ODOM 13.200000000000001, 0.56, -0.029203673205104676
ODOM 13.22, 0.56, -0.029203673205104676
ODOM 13.24, 0.56, -0.029203673205104676
ODOM 13.26, 0.56, -0.029203673205104676
ODOM 13.280000000000001, 0.56, -0.029203673205104676
ODOM 13.3, 0.56, -0.029203673205104676
ODOM 13.32, 0.56, -0.029203673205104676
ODOM 13.34, 0.56, -0.029203673205104676
ODOM 13.36, 0.56, -0.029203673205104676
ODOM 13.38, 0.56, -0.029203673205104676
ODOM 13.4, 0.56, -0.029203673205104676
ODOM 13.42, 0.56, -0.029203673205104676
ODOM 13.44, 0.56, -0.029203673205104676
ODOM 13.46, 0.56, -0.029203673205104676
ODOM 13.48, 0.56, -0.029203673205104676
ODOM 13.5, 0.56, -0.029203673205104676
ODOM 13.52, 0.54, -0.029203673205104676
ODOM 13.540000000000001, 0.54, -0.029203673205104676
ODOM 13.56, 0.54, -0.029203673205104676
ODOM 13.58, 0.54, -0.029203673205104676
ODOM 13.6, 0.54, -0.029203673205104676
ODOM 13.620000000000001, 0.54, -0.029203673205104676
ODOM 13.64, 0.54, -0.029203673205104676
ODOM 13.66, 0.54, -0.029203673205104676
ODOM 13.68, 0.54, -0.029203673205104676
ODOM 13.700000000000001, 0.54, -0.029203673205104676
ODOM 13.72, 0.54, -0.029203673205104676
ODOM 13.74, 0.54, -0.029203673205104676
ODOM 13.76, 0.54, -0.029203673205104676
ODOM 13.780000000000001, 0.54, -0.029203673205104676
ODOM 13.8, 0.54, -0.029203673205104676
ODOM 13.82, 0.54, -0.029203673205104676
ODOM 13.84, 0.54, -0.029203673205104676
ODOM 13.86, 0.54, -0.029203673205104676
ODOM 13.88, 0.54, -0.029203673205104676
ODOM 13.9, 0.54, -0.029203673205104676
ODOM 13.92, 0.54, -0.029203673205104676
ODOM 13.94, 0.54, -0.029203673205104676
ODOM 13.96, 0.54, -0.029203673205104676
ODOM 13.98, 0.54, -0.029203673205104676
ODOM 14.0, 0.54, -0.029203673205104676
ODOM 14.02, 0.54, -0.029203673205104676
ODOM 14.040000000000001, 0.54, -0.029203673205104676
ODOM 14.06, 0.54, -0.029203673205104676
ODOM 14.08, 0.54, -0.029203673205104676
ODOM 14.1, 0.54, -0.029203673205104676
ODOM 14.120000000000001, 0.54, -0.029203673205104676
ODOM 14.14, 0.54, -0.029203673205104676
ODOM 14.16, 0.54, -0.029203673205104676
ODOM 14.18, 0.54, -0.029203673205104676
ODOM 14.200000000000001, 0.52, -0.029203673205104676
ODOM 14.22, 0.52, -0.029203673205104676
ODOM 14.24, 0.52, -0.029203673205104676
ODOM 14.26, 0.52, -0.029203673205104676
ODOM 14.280000000000001, 0.52, -0.029203673205104676
ODOM 14.3, 0.52, -0.029203673205104676
ODOM 14.32, 0.52, -0.029203673205104676
ODOM 14.34, 0.52, -0.029203673205104676
ODOM 14.36, 0.52, -0.029203673205104676
ODOM 14.38, 0.52, -0.029203673205104676
ODOM 14.4, 0.52, -0.029203673205104676
ODOM 14.42, 0.52, -0.029203673205104676
ODOM 14.44, 0.52, -0.029203673205104676
ODOM 14.46, 0.52, -0.029203673205104676
ODOM 14.48, 0.52, -0.029203673205104676
ODOM 14.5, 0.52, -0.029203673205104676
ODOM 14.52, 0.52, -0.029203673205104676
ODOM 14.540000000000001, 0.52, -0.029203673205104676
ODOM 14.56, 0.52, -0.029203673205104676
ODOM 14.58, 0.52, -0.029203673205104676
ODOM 14.6, 0.52, -0.029203673205104676
ODOM 14.620000000000001, 0.52, -0.029203673205104676
ODOM 14.64, 0.52, -0.029203673205104676
ODOM 14.66, 0.52, -0.029203673205104676
ODOM 14.68, 0.52, -0.029203673205104676
ODOM 14.700000000000001, 0.52, -0.029203673205104676
ODOM 14.72, 0.52, -0.029203673205104676
ODOM 14.74, 0.52, -0.029203673205104676
ODOM 14.76, 0.52, -0.029203673205104676
ODOM 14.780000000000001, 0.52, -0.029203673205104676
ODOM 14.8, 0.52, -0.029203673205104676
ODOM 14.82, 0.52, -0.029203673205104676
ODOM 14.84, 0.52, -0.029203673205104676
ODOM 14.86, 0.52, -0.029203673205104676
ODOM 14.88, 0.52, -0.029203673205104676
ODOM 14.9, 0.5, -0.029203673205104676
ODOM 14.92, 0.5, -0.029203673205104676
ODOM 14.94, 0.5, -0.029203673205104676
ODOM 14.96, 0.5, -0.029203673205104676
ODOM 14.98, 0.5, -0.029203673205104676
ODOM 15.0, 0.5, -0.029203673205104676
ODOM 15.02, 0.5, -0.029203673205104676
ODOM 15.040000000000001, 0.5, -0.029203673205104676
ODOM 15.06, 0.5, -0.029203673205104676
ODOM 15.08, 0.5, -0.029203673205104676
ODOM 15.1, 0.5, -0.029203673205104676
ODOM 15.120000000000001, 0.5, -0.029203673205104676
ODOM 15.14, 0.5, -0.029203673205104676
ODOM 15.16, 0.5, -0.029203673205104676
ODOM 15.18, 0.5, -0.029203673205104676
ODOM 15.200000000000001, 0.5, -0.029203673205104676
ODOM 15.22, 0.5, -0.029203673205104676
ODOM 15.24, 0.5, -0.029203673205104676
ODOM 15.26, 0.5, -0.029203673205104676
ODOM 15.280000000000001, 0.5, -0.029203673205104676
ODOM 15.3, 0.5, -0.029203673205104676
ODOM 15.32, 0.5, -0.029203673205104676
ODOM 15.34, 0.5, -0.029203673205104676
ODOM 15.36, 0.5, -0.029203673205104676
ODOM 15.38, 0.5, -0.029203673205104676
ODOM 15.4, 0.5, -0.029203673205104676
ODOM 15.42, 0.5, -0.029203673205104676
ODOM 15.44, 0.5, -0.029203673205104676
ODOM 15.46, 0.5, -0.029203673205104676
ODOM 15.48, 0.5, -0.029203673205104676
ODOM 15.5, 0.5, -0.029203673205104676
ODOM 15.52, 0.5, -0.029203673205104676
ODOM 15.540000000000001, 0.5, -0.029203673205104676
ODOM 15.56, 0.5, -0.029203673205104676
ODOM 15.58, 0.48, -0.029203673205104676
ODOM 15.6, 0.48, -0.029203673205104676
ODOM 15.620000000000001, 0.48, -0.029203673205104676
ODOM 15.64, 0.48, -0.029203673205104676
ODOM 15.66, 0.48, -0.029203673205104676
ODOM 15.68, 0.48, -0.029203673205104676
ODOM 15.700000000000001, 0.48, -0.029203673205104676
ODOM 15.72, 0.48, -0.029203673205104676
ODOM 15.74, 0.48, -0.029203673205104676
ODOM 15.76, 0.48, -0.029203673205104676
ODOM 15.780000000000001, 0.48, -0.029203673205104676
ODOM 15.8, 0.48, -0.029203673205104676
ODOM 15.82, 0.48, -0.029203673205104676
ODOM 15.84, 0.48, -0.029203673205104676
ODOM 15.860000000000001, 0.48, -0.029203673205104676
ODOM 15.88, 0.48, -0.029203673205104676
ODOM 15.9, 0.48, -0.029203673205104676
ODOM 15.92, 0.48, -0.029203673205104676
ODOM 15.94, 0.48, -0.029203673205104676
ODOM 15.96, 0.48, -0.029203673205104676
ODOM 15.98, 0.48, -0.029203673205104676
ODOM 16.0, 0.48, -0.029203673205104676
ODOM 16.02, 0.48, -0.029203673205104676
ODOM 16.04, 0.48, -0.029203673205104676
ODOM 16.06, 0.48, -0.029203673205104676
ODOM 16.080000000000002, 0.48, -0.029203673205104676
ODOM 16.1, 0.48, -0.029203673205104676
ODOM 16.12, 0.48, -0.029203673205104676
ODOM 16.14, 0.48, -0.029203673205104676
ODOM 16.16, 0.48, -0.029203673205104676
ODOM 16.18, 0.48, -0.029203673205104676
ODOM 16.2, 0.48, -0.029203673205104676
ODOM 16.22, 0.48, -0.029203673205104676
ODOM 16.240000000000002, 0.48, -0.029203673205104676
ODOM 16.26, 0.46, -0.029203673205104676
ODOM 16.28, 0.46, -0.029203673205104676
ODOM 16.3, 0.46, -0.029203673205104676
ODOM 16.32, 0.46, -0.029203673205104676
ODOM 16.34, 0.46, -0.029203673205104676
ODOM 16.36, 0.46, -0.029203673205104676
ODOM 16.38, 0.46, -0.029203673205104676
ODOM 16.4, 0.46, -0.029203673205104676
ODOM 16.42, 0.46, -0.029203673205104676
ODOM 16.44, 0.46, -0.029203673205104676
ODOM 16.46, 0.46, -0.029203673205104676
ODOM 16.48, 0.46, -0.029203673205104676
ODOM 16.5, 0.46, -0.029203673205104676
ODOM 16.52, 0.46, -0.029203673205104676
ODOM 16.54, 0.46, -0.029203673205104676
ODOM 16.56, 0.46, -0.029203673205104676
ODOM 16.580000000000002, 0.46, -0.029203673205104676
ODOM 16.6, 0.46, -0.029203673205104676
ODOM 16.62, 0.46, -0.029203673205104676
ODOM 16.64, 0.46, -0.029203673205104676
ODOM 16.66, 0.46, -0.029203673205104676
ODOM 16.68, 0.46, -0.029203673205104676
ODOM 16.7, 0.46, -0.029203673205104676
ODOM 16.72, 0.46, -0.029203673205104676
ODOM 16.740000000000002, 0.46, -0.029203673205104676
ODOM 16.76, 0.46, -0.029203673205104676
ODOM 16.78, 0.46, -0.029203673205104676
ODOM 16.8, 0.46, -0.029203673205104676
ODOM 16.82, 0.46, -0.029203673205104676
ODOM 16.84, 0.46, -0.029203673205104676
ODOM 16.86, 0.46, -0.029203673205104676
ODOM 16.88, 0.46, -0.009203673205104679
ODOM 16.9, 0.46, 0.010796326794895318
ODOM 16.92, 0.46, 0.030796326794895315
ODOM 16.94, 0.46, 0.05079632679489531
ODOM 16.96, 0.46, 0.07079632679489531
ODOM 16.98, 0.46, 0.0907963267948953
ODOM 17.0, 0.46, 0.11079632679489529
ODOM 17.02, 0.46, 0.13079632679489528
ODOM 17.04, 0.46, 0.1507963267948953
ODOM 17.06, 0.46, 0.1707963267948953
ODOM 17.080000000000002, 0.46, 0.19079632679489528
ODOM 17.1, 0.48, 0.21079632679489527
ODOM 17.12, 0.48, 0.23079632679489526
ODOM 17.14, 0.48, 0.2507963267948953
ODOM 17.16, 0.48, 0.2707963267948953
ODOM 17.18, 0.5, 0.2907963267948953
ODOM 17.2, 0.5, 0.31079632679489533
ODOM 17.22, 0.5, 0.33079632679489535
ODOM 17.240000000000002, 0.52, 0.35079632679489536
ODOM 17.26, 0.52, 0.3707963267948953
ODOM 17.28, 0.52, 0.3907963267948953
ODOM 17.3, 0.54, 0.4107963267948953
ODOM 17.3, 0.54, 0.43079632679489527
ODOM 17.32, 0.56, 0.45079632679489534
ODOM 17.34, 0.56, 0.47079632679489536
ODOM 17.36, 0.56, 0.4907963267948954
ODOM 17.38, 0.58, 0.5107963267948954
ODOM 17.400000000000002, 0.58, 0.5307963267948955
ODOM 17.42, 0.6, 0.5507963267948955
ODOM 17.44, 0.62, 0.5707963267948956
ODOM 17.44, 0.62, 0.5907963267948956
ODOM 17.46, 0.64, 0.6107963267948956
ODOM 17.48, 0.64, 0.6307963267948956
ODOM 17.5, 0.66, 0.6507963267948956
ODOM 17.52, 0.66, 0.6707963267948956
ODOM 17.52, 0.68, 0.6907963267948957
ODOM 17.54, 0.7000000000000001, 0.7107963267948957
ODOM 17.56, 0.7000000000000001, 0.7307963267948957
ODOM 17.580000000000002, 0.72, 0.7507963267948957
ODOM 17.580000000000002, 0.74, 0.7707963267948957
ODOM 17.6, 0.74, 0.7707963267948957
ODOM 17.62, 0.76, 0.7707963267948957
ODOM 17.64, 0.78, 0.7707963267948957
ODOM 17.64, 0.8, 0.7707963267948957
ODOM 17.66, 0.8, 0.7707963267948957
ODOM 17.68, 0.8200000000000001, 0.7707963267948957
ODOM 17.68, 0.84, 0.7707963267948957
ODOM 17.7, 0.84, 0.7707963267948957
ODOM 17.72, 0.86, 0.7707963267948957
ODOM 17.740000000000002, 0.88, 0.7707963267948957
ODOM 17.740000000000002, 0.88, 0.7707963267948957
ODOM 17.76, 0.9, 0.7707963267948957
ODOM 17.78, 0.92, 0.7707963267948957
ODOM 17.78, 0.92, 0.7907963267948958
ODOM 17.8, 0.9400000000000001, 0.8107963267948958
ODOM 17.82, 0.96, 0.8307963267948958
ODOM 17.82, 0.98, 0.8507963267948958
ODOM 17.84, 0.98, 0.8707963267948958
ODOM 17.86, 1.0, 0.8907963267948958
ODOM 17.86, 1.02, 0.9107963267948959
ODOM 17.88, 1.04, 0.9307963267948959
ODOM 17.900000000000002, 1.06, 0.9507963267948959
ODOM 17.900000000000002, 1.06, 0.9507963267948959
ODOM 17.92, 1.08, 0.9507963267948959
ODOM 17.92, 1.1, 0.9507963267948959
ODOM 17.94, 1.12, 0.9507963267948959
ODOM 17.94, 1.1400000000000001, 0.9507963267948959
ODOM 17.96, 1.1400000000000001, 0.9507963267948959
ODOM 17.98, 1.16, 0.9507963267948959
ODOM 17.98, 1.18, 0.9707963267948959
ODOM 18.0, 1.2, 0.9907963267948959
ODOM 18.0, 1.22, 1.0107963267948958
ODOM 18.02, 1.24, 1.0307963267948959
ODOM 18.02, 1.26, 1.0507963267948959
ODOM 18.04, 1.26, 1.070796326794896
ODOM 18.04, 1.28, 1.090796326794896
ODOM 18.06, 1.3, 1.110796326794896
ODOM 18.06, 1.32, 1.130796326794896
ODOM 18.080000000000002, 1.34, 1.150796326794896
ODOM 18.080000000000002, 1.36, 1.170796326794896
ODOM 18.080000000000002, 1.3800000000000001, 1.190796326794896
ODOM 18.1, 1.4000000000000001, 1.210796326794896
ODOM 18.1, 1.42, 1.230796326794896
ODOM 18.1, 1.44, 1.250796326794896
ODOM 18.12, 1.46, 1.250796326794896
ODOM 18.12, 1.48, 1.250796326794896
ODOM 18.12, 1.48, 1.250796326794896
ODOM 18.14, 1.5, 1.250796326794896
ODOM 18.14, 1.52, 1.250796326794896
ODOM 18.14, 1.54, 1.270796326794896
ODOM 18.16, 1.56, 1.290796326794896
ODOM 18.16, 1.58, 1.310796326794896
ODOM 18.16, 1.6, 1.3307963267948961
ODOM 18.16, 1.62, 1.3507963267948961
ODOM 18.18, 1.6400000000000001, 1.3707963267948962
ODOM 18.18, 1.6600000000000001, 1.3907963267948962
ODOM 18.18, 1.68, 1.4107963267948962
ODOM 18.18, 1.7, 1.4307963267948962
ODOM 18.18, 1.72, 1.4507963267948962
ODOM 18.18, 1.74, 1.4507963267948962
ODOM 18.18, 1.76, 1.4507963267948962
ODOM 18.2, 1.78, 1.4507963267948962
ODOM 18.2, 1.8, 1.4507963267948962
ODOM 18.2, 1.82, 1.4507963267948962
ODOM 18.2, 1.84, 1.4507963267948962
ODOM 18.2, 1.86, 1.4507963267948962
ODOM 18.2, 1.8800000000000001, 1.4507963267948962
ODOM 18.2, 1.9000000000000001, 1.4507963267948962
ODOM 18.2, 1.92, 1.4507963267948962
ODOM 18.2, 1.94, 1.4507963267948962
ODOM 18.22, 1.96, 1.4507963267948962
ODOM 18.22, 1.98, 1.4507963267948962
ODOM 18.22, 2.0, 1.4507963267948962
ODOM 18.22, 2.02, 1.4507963267948962
ODOM 18.22, 2.04, 1.4507963267948962
ODOM 18.22, 2.06, 1.4507963267948962
ODOM 18.22, 2.08, 1.4507963267948962
ODOM 18.22, 2.1, 1.4507963267948962
ODOM 18.240000000000002, 2.12, 1.4507963267948962
ODOM 18.240000000000002, 2.14, 1.4507963267948962
ODOM 18.240000000000002, 2.16, 1.4507963267948962
ODOM 18.240000000000002, 2.18, 1.4507963267948962
ODOM 18.240000000000002, 2.2, 1.4507963267948962
ODOM 18.240000000000002, 2.22, 1.4507963267948962
ODOM 18.240000000000002, 2.24, 1.4507963267948962
ODOM 18.240000000000002, 2.2600000000000002, 1.4507963267948962
ODOM 18.26, 2.2800000000000002, 1.4507963267948962
ODOM 18.26, 2.3000000000000003, 1.4507963267948962
ODOM 18.26, 2.32, 1.4507963267948962
ODOM 18.26, 2.34, 1.4507963267948962
ODOM 18.26, 2.36, 1.4507963267948962
ODOM 18.26, 2.38, 1.4507963267948962
ODOM 18.26, 2.4, 1.4507963267948962
ODOM 18.26, 2.42, 1.4507963267948962
ODOM 18.26, 2.44, 1.4507963267948962
ODOM 18.28, 2.46, 1.4507963267948962
ODOM 18.28, 2.48, 1.4507963267948962
ODOM 18.28, 2.5, 1.4507963267948962
ODOM 18.28, 2.52, 1.4507963267948962
ODOM 18.28, 2.54, 1.4507963267948962
ODOM 18.28, 2.56, 1.4507963267948962
ODOM 18.28, 2.58, 1.4507963267948962
ODOM 18.28, 2.6, 1.4507963267948962
ODOM 18.3, 2.62, 1.4507963267948962
ODOM 18.3, 2.64, 1.4507963267948962
ODOM 18.3, 2.66, 1.4507963267948962
ODOM 18.3, 2.68, 1.4507963267948962
ODOM 18.3, 2.7, 1.4507963267948962
ODOM 18.3, 2.72, 1.4507963267948962
ODOM 18.3, 2.74, 1.4507963267948962
ODOM 18.3, 2.7600000000000002, 1.4507963267948962
ODOM 18.32, 2.7800000000000002, 1.4507963267948962
ODOM 18.32, 2.8000000000000003, 1.4507963267948962
ODOM 18.32, 2.82, 1.4507963267948962
ODOM 18.32, 2.84, 1.4507963267948962
ODOM 18.32, 2.86, 1.4507963267948962
ODOM 18.32, 2.88, 1.4507963267948962
ODOM 18.32, 2.9, 1.4507963267948962
ODOM 18.32, 2.92, 1.4507963267948962
ODOM 18.32, 2.94, 1.4507963267948962
ODOM 18.34, 2.96, 1.4507963267948962
ODOM 18.34, 2.98, 1.4507963267948962
ODOM 18.34, 3.0, 1.4507963267948962
ODOM 18.34, 3.02, 1.4507963267948962
ODOM 18.34, 3.04, 1.4507963267948962
ODOM 18.34, 3.06, 1.4507963267948962
ODOM 18.34, 3.08, 1.4507963267948962
ODOM 18.34, 3.1, 1.4507963267948962
ODOM 18.36, 3.12, 1.4507963267948962
ODOM 18.36, 3.14, 1.4507963267948962
ODOM 18.36, 3.16, 1.4507963267948962
ODOM 18.36, 3.18, 1.4507963267948962
ODOM 18.36, 3.2, 1.4507963267948962
ODOM 18.36, 3.22, 1.4507963267948962
ODOM 18.36, 3.24, 1.4507963267948962
ODOM 18.36, 3.2600000000000002, 1.4507963267948962
ODOM 18.38, 3.2800000000000002, 1.4507963267948962
ODOM 18.38, 3.3000000000000003, 1.4507963267948962
ODOM 18.38, 3.3200000000000003, 1.4707963267948962
ODOM 18.38, 3.34, 1.4907963267948963
ODOM 18.38, 3.36, 1.5107963267948963
ODOM 18.38, 3.38, 1.5307963267948963
ODOM 18.38, 3.4, 1.5507963267948963
ODOM 18.38, 3.42, 1.5707963267948963
ODOM 18.38, 3.44, 1.5907963267948964
ODOM 18.38, 3.46, 1.6107963267948964
ODOM 18.38, 3.48, 1.6307963267948964
ODOM 18.38, 3.5, 1.6507963267948964
ODOM 18.38, 3.52, 1.6707963267948964
ODOM 18.38, 3.54, 1.6907963267948964
ODOM 18.38, 3.56, 1.7107963267948965
ODOM 18.36, 3.56, 1.7307963267948965
ODOM 18.36, 3.58, 1.7507963267948965
ODOM 18.36, 3.6, 1.7707963267948965
ODOM 18.36, 3.62, 1.7907963267948965
ODOM 18.36, 3.64, 1.8107963267948965
ODOM 18.34, 3.66, 1.8307963267948966
ODOM 18.34, 3.68, 1.8507963267948966
ODOM 18.34, 3.7, 1.8707963267948966
ODOM 18.32, 3.72, 1.8907963267948966
ODOM 18.32, 3.74, 1.9107963267948966
ODOM 18.32, 3.7600000000000002, 1.9307963267948967
ODOM 18.3, 3.7800000000000002, 1.9507963267948967
ODOM 18.3, 3.8000000000000003, 1.9707963267948967
ODOM 18.3, 3.8200000000000003, 1.9907963267948967
ODOM 18.28, 3.84, 2.0107963267948965
ODOM 18.28, 3.86, 2.0307963267948965
ODOM 18.26, 3.88, 2.0507963267948965
ODOM 18.26, 3.88, 2.0707963267948966
ODOM 18.240000000000002, 3.9, 2.0907963267948966
ODOM 18.240000000000002, 3.92, 2.1107963267948966
ODOM 18.22, 3.94, 2.1307963267948966
ODOM 18.22, 3.96, 2.1507963267948966
ODOM 18.2, 3.98, 2.1707963267948966
ODOM 18.2, 4.0, 2.1907963267948967
ODOM 18.18, 4.0, 2.2107963267948967
ODOM 18.16, 4.0200000000000005, 2.2307963267948967
ODOM 18.16, 4.04, 2.2507963267948967
ODOM 18.14, 4.0600000000000005, 2.2707963267948967
ODOM 18.14, 4.0600000000000005, 2.2907963267948968
ODOM 18.12, 4.08, 2.3107963267948968
ODOM 18.1, 4.1, 2.330796326794897
ODOM 18.1, 4.12, 2.350796326794897
ODOM 18.080000000000002, 4.12, 2.370796326794897
ODOM 18.06, 4.14, 2.390796326794897
ODOM 18.04, 4.16, 2.410796326794897
ODOM 18.04, 4.16, 2.430796326794897
ODOM 18.02, 4.18, 2.450796326794897
ODOM 18.0, 4.2, 2.470796326794897
ODOM 17.98, 4.2, 2.490796326794897
ODOM 17.96, 4.22, 2.510796326794897
ODOM 17.96, 4.22, 2.530796326794897
ODOM 17.94, 4.24, 2.550796326794897
ODOM 17.92, 4.26, 2.570796326794897
ODOM 17.900000000000002, 4.26, 2.590796326794897
ODOM 17.88, 4.28, 2.610796326794897
ODOM 17.86, 4.28, 2.630796326794897
ODOM 17.86, 4.3, 2.650796326794897
ODOM 17.84, 4.3, 2.670796326794897
ODOM 17.82, 4.32, 2.690796326794897
ODOM 17.8, 4.32, 2.710796326794897
ODOM 17.78, 4.32, 2.730796326794897
ODOM 17.76, 4.34, 2.750796326794897
ODOM 17.740000000000002, 4.34, 2.770796326794897
ODOM 17.72, 4.34, 2.770796326794897
ODOM 17.7, 4.36, 2.770796326794897
ODOM 17.68, 4.36, 2.770796326794897
ODOM 17.66, 4.38, 2.770796326794897
ODOM 17.64, 4.38, 2.770796326794897
ODOM 17.64, 4.38, 2.770796326794897
ODOM 17.62, 4.4, 2.770796326794897
ODOM 17.6, 4.4, 2.770796326794897
ODOM 17.580000000000002, 4.4, 2.770796326794897
ODOM 17.56, 4.42, 2.770796326794897
ODOM 17.54, 4.42, 2.770796326794897
ODOM 17.52, 4.42, 2.750796326794897
ODOM 17.5, 4.44, 2.730796326794897
ODOM 17.48, 4.44, 2.710796326794897
ODOM 17.46, 4.46, 2.690796326794897
ODOM 17.44, 4.46, 2.670796326794897
ODOM 17.42, 4.48, 2.650796326794897
ODOM 17.42, 4.48, 2.630796326794897
ODOM 17.400000000000002, 4.5, 2.610796326794897
ODOM 17.38, 4.5, 2.590796326794897
ODOM 17.36, 4.5200000000000005, 2.570796326794897
ODOM 17.34, 4.5200000000000005, 2.550796326794897
ODOM 17.32, 4.54, 2.530796326794897
ODOM 17.3, 4.54, 2.510796326794897
ODOM 17.3, 4.5600000000000005, 2.490796326794897
ODOM 17.28, 4.58, 2.470796326794897
ODOM 17.26, 4.58, 2.450796326794897
ODOM 17.240000000000002, 4.6000000000000005, 2.430796326794897
ODOM 17.240000000000002, 4.6000000000000005, 2.410796326794897
ODOM 17.22, 4.62, 2.390796326794897
ODOM 17.2, 4.64, 2.370796326794897
ODOM 17.18, 4.66, 2.350796326794897
ODOM 17.18, 4.66, 2.330796326794897
ODOM 17.16, 4.68, 2.3107963267948968
ODOM 17.14, 4.7, 2.2907963267948968
ODOM 17.14, 4.72, 2.2707963267948967
ODOM 17.12, 4.72, 2.2507963267948967
ODOM 17.1, 4.74, 2.2307963267948967
ODOM 17.1, 4.76, 2.2107963267948967
ODOM 17.080000000000002, 4.78, 2.1907963267948967
ODOM 17.080000000000002, 4.78, 2.1707963267948966
ODOM 17.06, 4.8, 2.1507963267948966
ODOM 17.06, 4.82, 2.1307963267948966
ODOM 17.04, 4.84, 2.1107963267948966
ODOM 17.04, 4.86, 2.0907963267948966
ODOM 17.02, 4.88, 2.0707963267948966
ODOM 17.02, 4.9, 2.0507963267948965
ODOM 17.0, 4.92, 2.0307963267948965
ODOM 17.0, 4.92, 2.0107963267948965
ODOM 16.98, 4.94, 1.9907963267948965
ODOM 16.98, 4.96, 1.9707963267948965
ODOM 16.98, 4.98, 1.9507963267948965
ODOM 16.96, 5.0, 1.9307963267948964
ODOM 16.96, 5.0200000000000005, 1.9107963267948964
ODOM 16.96, 5.04, 1.8907963267948964
ODOM 16.94, 5.0600000000000005, 1.8707963267948964
ODOM 16.94, 5.08, 1.8507963267948964
ODOM 16.94, 5.1000000000000005, 1.8307963267948963
ODOM 16.92, 5.12, 1.8107963267948963
ODOM 16.92, 5.14, 1.7907963267948963
ODOM 16.92, 5.16, 1.7707963267948963
ODOM 16.92, 5.18, 1.7507963267948963
ODOM 16.92, 5.2, 1.7307963267948963
ODOM 16.9, 5.22, 1.7107963267948962
ODOM 16.9, 5.24, 1.6907963267948962
ODOM 16.9, 5.26, 1.6707963267948962
ODOM 16.9, 5.28, 1.6507963267948962
ODOM 16.9, 5.3, 1.6307963267948962
ODOM 16.9, 5.32, 1.6107963267948961
ODOM 16.9, 5.34, 1.5907963267948961
ODOM 16.9, 5.36, 1.5707963267948961
ODOM 16.9, 5.38, 1.550796326794896
ODOM 16.9, 5.4, 1.530796326794896
ODOM 16.9, 5.42, 1.510796326794896
ODOM 16.9, 5.44, 1.490796326794896
ODOM 16.9, 5.46, 1.470796326794896
ODOM 16.9, 5.48, 1.450796326794896
ODOM 16.9, 5.5, 1.430796326794896
ODOM 16.92, 5.5200000000000005, 1.410796326794896
ODOM 16.92, 5.54, 1.390796326794896
ODOM 16.92, 5.5600000000000005, 1.370796326794896
ODOM 16.92, 5.58, 1.350796326794896
ODOM 16.92, 5.6000000000000005, 1.330796326794896
ODOM 16.94, 5.62, 1.3107963267948959
ODOM 16.94, 5.64, 1.2907963267948959
ODOM 16.94, 5.64, 1.2707963267948958
ODOM 16.96, 5.66, 1.2507963267948958
ODOM 16.96, 5.68, 1.2307963267948958
ODOM 16.96, 5.7, 1.2107963267948958
ODOM 16.98, 5.72, 1.1907963267948958
ODOM 16.98, 5.74, 1.1707963267948958
ODOM 16.98, 5.76, 1.1507963267948957
ODOM 17.0, 5.78, 1.1307963267948957
ODOM 17.0, 5.8, 1.1107963267948957
ODOM 17.02, 5.82, 1.0907963267948957
ODOM 17.02, 5.84, 1.0707963267948957
ODOM 17.04, 5.86, 1.0507963267948957
ODOM 17.04, 5.86, 1.0307963267948956
ODOM 17.06, 5.88, 1.0107963267948956
ODOM 17.06, 5.9, 0.9907963267948956
ODOM 17.080000000000002, 5.92, 0.9707963267948955
ODOM 17.080000000000002, 5.94, 0.9507963267948955
ODOM 17.1, 5.96, 0.9307963267948954
ODOM 17.1, 5.96, 0.9107963267948954
ODOM 17.12, 5.98, 0.9107963267948954
ODOM 17.14, 6.0, 0.9107963267948954
ODOM 17.14, 6.0200000000000005, 0.9107963267948954
ODOM 17.16, 6.04, 0.9107963267948954
ODOM 17.18, 6.04, 0.9107963267948954
ODOM 17.18, 6.0600000000000005, 0.9107963267948954
ODOM 17.2, 6.08, 0.9107963267948954
ODOM 17.2, 6.1000000000000005, 0.9107963267948954
ODOM 17.22, 6.1000000000000005, 0.9107963267948954
ODOM 17.240000000000002, 6.12, 0.9107963267948954
ODOM 17.240000000000002, 6.140000000000001, 0.9107963267948954
ODOM 17.26, 6.16, 0.9107963267948954
ODOM 17.26, 6.18, 0.9107963267948954
ODOM 17.28, 6.18, 0.9107963267948954
ODOM 17.3, 6.2, 0.9107963267948954
ODOM 17.3, 6.22, 0.9107963267948954
ODOM 17.32, 6.24, 0.9107963267948954
ODOM 17.34, 6.26, 0.9107963267948954
ODOM 17.34, 6.26, 0.9107963267948954
ODOM 17.36, 6.28, 0.9107963267948954
ODOM 17.36, 6.3, 0.9107963267948954
ODOM 17.38, 6.32, 0.9107963267948954
ODOM 17.400000000000002, 6.34, 0.9107963267948954
ODOM 17.400000000000002, 6.34, 0.9107963267948954
ODOM 17.42, 6.36, 0.9107963267948954
ODOM 17.42, 6.38, 0.9107963267948954
ODOM 17.44, 6.4, 0.9107963267948954
ODOM 17.46, 6.4, 0.9107963267948954
ODOM 17.46, 6.42, 0.9107963267948954
ODOM 17.48, 6.44, 0.9107963267948954
ODOM 17.48, 6.46, 0.9107963267948954
ODOM 17.5, 6.48, 0.9107963267948954
ODOM 17.52, 6.48, 0.9107963267948954
ODOM 17.52, 6.5, 0.9107963267948954
ODOM 17.54, 6.5200000000000005, 0.9107963267948954
ODOM 17.56, 6.54, 0.9107963267948954
ODOM 17.56, 6.5600000000000005, 0.9107963267948954
ODOM 17.580000000000002, 6.5600000000000005, 0.9107963267948954
ODOM 17.580000000000002, 6.58, 0.9107963267948954
ODOM 17.6, 6.6000000000000005, 0.9107963267948954
ODOM 17.62, 6.62, 0.9107963267948954
ODOM 17.62, 6.640000000000001, 0.9107963267948954
ODOM 17.64, 6.640000000000001, 0.9107963267948954
ODOM 17.64, 6.66, 0.9107963267948954
ODOM 17.66, 6.68, 0.9107963267948954
ODOM 17.68, 6.7, 0.9107963267948954
ODOM 17.68, 6.7, 0.9107963267948954
ODOM 17.7, 6.72, 0.9107963267948954
ODOM 17.72, 6.74, 0.9107963267948954
ODOM 17.72, 6.76, 0.9107963267948954
ODOM 17.740000000000002, 6.78, 0.9107963267948954
ODOM 17.740000000000002, 6.78, 0.9107963267948954
ODOM 17.76, 6.8, 0.9107963267948954
ODOM 17.78, 6.82, 0.9107963267948954
ODOM 17.78, 6.84, 0.9107963267948954
ODOM 17.8, 6.86, 0.9107963267948954
ODOM 17.8, 6.86, 0.9107963267948954
ODOM 17.82, 6.88, 0.9107963267948954
ODOM 17.84, 6.9, 0.9107963267948954
ODOM 17.84, 6.92, 0.9107963267948954
ODOM 17.86, 6.94, 0.9107963267948954
ODOM 17.86, 6.94, 0.9107963267948954
ODOM 17.88, 6.96, 0.9107963267948954
ODOM 17.900000000000002, 6.98, 0.9107963267948954
ODOM 17.900000000000002, 7.0, 0.9107963267948954
ODOM 17.92, 7.0200000000000005, 0.9107963267948954
ODOM 17.94, 7.0200000000000005, 0.9107963267948954
ODOM 17.94, 7.04, 0.9107963267948954
ODOM 17.96, 7.0600000000000005, 0.9107963267948954
ODOM 17.96, 7.08, 0.9107963267948954
ODOM 17.98, 7.08, 0.9107963267948954
ODOM 18.0, 7.1000000000000005, 0.9107963267948954
ODOM 18.0, 7.12, 0.9107963267948954
ODOM 18.02, 7.140000000000001, 0.9107963267948954
ODOM 18.02, 7.16, 0.9107963267948954
ODOM 18.04, 7.16, 0.9107963267948954
ODOM 18.06, 7.18, 0.9107963267948954
ODOM 18.06, 7.2, 0.9107963267948954
ODOM 18.080000000000002, 7.22, 0.9107963267948954
ODOM 18.1, 7.24, 0.9107963267948954
ODOM 18.1, 7.24, 0.9107963267948954
ODOM 18.12, 7.26, 0.9107963267948954
ODOM 18.12, 7.28, 0.9107963267948954
ODOM 18.14, 7.3, 0.9107963267948954
ODOM 18.16, 7.32, 0.9107963267948954
ODOM 18.16, 7.32, 0.9107963267948954
ODOM 18.18, 7.34, 0.9107963267948954
ODOM 18.18, 7.36, 0.9107963267948954
ODOM 18.2, 7.38, 0.9107963267948954
ODOM 18.22, 7.38, 0.9107963267948954
ODOM 18.22, 7.4, 0.9107963267948954
ODOM 18.240000000000002, 7.42, 0.9107963267948954
ODOM 18.240000000000002, 7.44, 0.9107963267948954
ODOM 18.26, 7.46, 0.9107963267948954
ODOM 18.28, 7.46, 0.9107963267948954
ODOM 18.28, 7.48, 0.9107963267948954
ODOM 18.3, 7.5, 0.9107963267948954
ODOM 18.32, 7.5200000000000005, 0.9107963267948954
ODOM 18.32, 7.54, 0.9107963267948954
ODOM 18.34, 7.54, 0.9107963267948954
ODOM 18.34, 7.5600000000000005, 0.9107963267948954
ODOM 18.36, 7.58, 0.9307963267948954
ODOM 18.38, 7.6000000000000005, 0.9507963267948955
ODOM 18.38, 7.62, 0.9707963267948955
ODOM 18.400000000000002, 7.62, 0.9907963267948954
ODOM 18.400000000000002, 7.640000000000001, 1.0107963267948954
ODOM 18.42, 7.66, 1.0307963267948954
ODOM 18.42, 7.68, 1.0507963267948954
ODOM 18.44, 7.7, 1.0707963267948954
ODOM 18.44, 7.72, 1.0907963267948955
ODOM 18.46, 7.74, 1.1107963267948955
ODOM 18.46, 7.76, 1.1307963267948955
ODOM 18.48, 7.76, 1.1507963267948955
ODOM 18.48, 7.78, 1.1707963267948955
ODOM 18.48, 7.8, 1.1907963267948956
ODOM 18.5, 7.82, 1.2107963267948956
ODOM 18.5, 7.84, 1.2307963267948956
ODOM 18.5, 7.86, 1.2507963267948956
ODOM 18.52, 7.88, 1.2707963267948956
ODOM 18.52, 7.9, 1.2907963267948956
ODOM 18.52, 7.92, 1.3107963267948957
ODOM 18.52, 7.94, 1.3307963267948957
ODOM 18.54, 7.96, 1.3507963267948957
ODOM 18.54, 7.98, 1.3707963267948957
ODOM 18.54, 8.0, 1.3907963267948957
ODOM 18.54, 8.02, 1.4107963267948957
ODOM 18.54, 8.040000000000001, 1.4307963267948958
ODOM 18.56, 8.06, 1.4507963267948958
ODOM 18.56, 8.08, 1.4707963267948958
ODOM 18.56, 8.1, 1.4907963267948958
ODOM 18.56, 8.120000000000001, 1.5107963267948958
ODOM 18.56, 8.14, 1.5307963267948959
ODOM 18.56, 8.16, 1.5507963267948959
ODOM 18.56, 8.18, 1.570796326794896
ODOM 18.56, 8.2, 1.590796326794896
ODOM 18.56, 8.22, 1.610796326794896
ODOM 18.56, 8.24, 1.630796326794896
ODOM 18.56, 8.26, 1.650796326794896
ODOM 18.56, 8.28, 1.670796326794896
ODOM 18.56, 8.3, 1.690796326794896
ODOM 18.54, 8.32, 1.710796326794896
ODOM 18.54, 8.34, 1.730796326794896
ODOM 18.54, 8.36, 1.750796326794896
ODOM 18.54, 8.38, 1.770796326794896
ODOM 18.54, 8.4, 1.790796326794896
ODOM 18.52, 8.42, 1.810796326794896
ODOM 18.52, 8.44, 1.810796326794896
ODOM 18.52, 8.46, 1.810796326794896
ODOM 18.52, 8.48, 1.810796326794896
ODOM 18.52, 8.5, 1.810796326794896
ODOM 18.5, 8.52, 1.810796326794896
ODOM 18.5, 8.540000000000001, 1.810796326794896
ODOM 18.5, 8.540000000000001, 1.810796326794896
ODOM 18.5, 8.56, 1.810796326794896
ODOM 18.48, 8.58, 1.810796326794896
ODOM 18.48, 8.6, 1.810796326794896
ODOM 18.48, 8.620000000000001, 1.810796326794896
ODOM 18.48, 8.64, 1.810796326794896
ODOM 18.46, 8.66, 1.810796326794896
ODOM 18.46, 8.68, 1.810796326794896
ODOM 18.46, 8.700000000000001, 1.810796326794896
ODOM 18.46, 8.72, 1.810796326794896
ODOM 18.44, 8.74, 1.810796326794896
ODOM 18.44, 8.76, 1.810796326794896
ODOM 18.44, 8.78, 1.810796326794896
ODOM 18.44, 8.8, 1.810796326794896
ODOM 18.42, 8.82, 1.810796326794896
ODOM 18.42, 8.84, 1.810796326794896
ODOM 18.42, 8.86, 1.810796326794896
ODOM 18.42, 8.88, 1.810796326794896
ODOM 18.42, 8.9, 1.810796326794896
ODOM 18.400000000000002, 8.92, 1.810796326794896
ODOM 18.400000000000002, 8.94, 1.810796326794896
ODOM 18.400000000000002, 8.96, 1.810796326794896
ODOM 18.400000000000002, 8.98, 1.810796326794896
ODOM 18.38, 9.0, 1.810796326794896
ODOM 18.38, 9.02, 1.810796326794896
ODOM 18.38, 9.040000000000001, 1.810796326794896
ODOM 18.38, 9.06, 1.810796326794896
ODOM 18.36, 9.08, 1.810796326794896
ODOM 18.36, 9.1, 1.810796326794896
ODOM 18.36, 9.120000000000001, 1.810796326794896
ODOM 18.36, 9.14, 1.810796326794896
ODOM 18.34, 9.16, 1.810796326794896
ODOM 18.34, 9.18, 1.810796326794896
ODOM 18.34, 9.200000000000001, 1.810796326794896
ODOM 18.34, 9.22, 1.810796326794896
ODOM 18.32, 9.22, 1.810796326794896
ODOM 18.32, 9.24, 1.810796326794896
ODOM 18.32, 9.26, 1.810796326794896
ODOM 18.32, 9.28, 1.810796326794896
ODOM 18.32, 9.3, 1.810796326794896
ODOM 18.3, 9.32, 1.810796326794896
ODOM 18.3, 9.34, 1.8307963267948961
ODOM 18.3, 9.36, 1.8507963267948961
ODOM 18.28, 9.38, 1.8707963267948962
ODOM 18.28, 9.4, 1.8907963267948962
ODOM 18.28, 9.42, 1.9107963267948962
ODOM 18.28, 9.44, 1.9307963267948962
ODOM 18.26, 9.46, 1.9507963267948962
ODOM 18.26, 9.48, 1.9707963267948962
ODOM 18.240000000000002, 9.5, 1.9907963267948963
ODOM 18.240000000000002, 9.52, 2.010796326794896
ODOM 18.240000000000002, 9.540000000000001, 2.030796326794896
ODOM 18.22, 9.56, 2.050796326794896
ODOM 18.22, 9.56, 2.070796326794896
ODOM 18.2, 9.58, 2.090796326794896
ODOM 18.2, 9.6, 2.110796326794896
ODOM 18.18, 9.620000000000001, 2.130796326794896
ODOM 18.18, 9.64, 2.150796326794896
ODOM 18.16, 9.66, 2.170796326794896
ODOM 18.14, 9.68, 2.190796326794896
ODOM 18.14, 9.68, 2.2107963267948962
ODOM 18.12, 9.700000000000001, 2.2307963267948963
ODOM 18.12, 9.72, 2.2507963267948963
ODOM 18.1, 9.74, 2.2707963267948963
ODOM 18.080000000000002, 9.74, 2.2907963267948963
ODOM 18.080000000000002, 9.76, 2.3107963267948963
ODOM 18.06, 9.78, 2.3307963267948963
ODOM 18.04, 9.8, 2.3507963267948964
ODOM 18.04, 9.8, 2.3707963267948964
ODOM 18.02, 9.82, 2.3907963267948964
ODOM 18.0, 9.84, 2.4107963267948964
ODOM 17.98, 9.84, 2.4307963267948964
ODOM 17.98, 9.86, 2.4507963267948965
ODOM 17.96, 9.88, 2.4707963267948965
ODOM 17.94, 9.88, 2.4907963267948965
ODOM 17.92, 9.9, 2.5107963267948965
ODOM 17.900000000000002, 9.9, 2.5307963267948965
ODOM 17.900000000000002, 9.92, 2.5507963267948965
ODOM 17.88, 9.94, 2.5707963267948966
ODOM 17.86, 9.94, 2.5907963267948966
ODOM 17.84, 9.96, 2.6107963267948966
ODOM 17.82, 9.96, 2.6307963267948966
ODOM 17.8, 9.98, 2.6507963267948966
ODOM 17.78, 9.98, 2.6707963267948966
ODOM 17.78, 9.98, 2.6707963267948966
ODOM 17.76, 10.0, 2.6707963267948966
ODOM 17.740000000000002, 10.0, 2.6707963267948966
ODOM 17.72, 10.02, 2.6707963267948966
ODOM 17.7, 10.02, 2.6707963267948966
