x_pixel, y_pixel, heading_rad
ODOM 50, 614, 1.5707963267948966
ODOM 50, 614, 1.5707963267948966
ODOM 50, 614, 1.5707963267948966
ODOM 50, 614, 1.5707963267948966
ODOM 50, 614, 1.5707963267948966
ODOM 50, 614, 1.5707963267948966
ODOM 50, 614, 1.5707963267948966
ODOM 50, 614, 1.5707963267948966
ODOM 50, 614, 1.5707963267948966
ODOM 50, 614, 1.5707963267948966
ODOM 50, 614, 1.5707963267948966
ODOM 50, 614, 1.5707963267948966
ODOM 50, 614, 1.5707963267948966
ODOM 50, 614, 1.5707963267948966
ODOM 50, 614, 1.5707963267948966
ODOM 50, 614, 1.5707963267948966
ODOM 50, 614, 1.5707963267948966
ODOM 50, 614, 1.5707963267948966
ODOM 50, 614, 1.5707963267948966
ODOM 50, 614, 1.5707963267948966
ODOM 50, 614, 1.5707963267948966
ODOM 50, 614, 1.5707963267948966
ODOM 50, 614, 1.5707963267948966
ODOM 50, 614, 1.5707963267948966
ODOM 50, 614, 1.5707963267948966
ODOM 50, 614, 1.5707963267948966
ODOM 50, 614, 1.5707963267948966
ODOM 50, 614, 1.5707963267948966
ODOM 50, 614, 1.5707963267948966
ODOM 50, 614, 1.5707963267948966
ODOM 50, 614, 1.5707963267948966
ODOM 50, 614, 1.5707963267948966
ODOM 50, 614, 1.5707963267948966
ODOM 50, 614, 1.5707963267948966
ODOM 50, 614, 1.5707963267948966
ODOM 50, 614, 1.5707963267948966
ODOM 50, 614, 1.5707963267948966
ODOM 50, 614, 1.5707963267948966
ODOM 50, 614, 1.5707963267948966
ODOM 50, 614, 1.5707963267948966
ODOM 50, 614, 1.5707963267948966
ODOM 50, 614, 1.5707963267948966
ODOM 50, 614, 1.5707963267948966
ODOM 50, 614, 1.5707963267948966
ODOM 50, 614, 1.5707963267948966
ODOM 50, 614, 1.5707963267948966
ODOM 50, 614, 1.5707963267948966
ODOM 50, 614, 1.5707963267948966
ODOM 50, 614, 1.5707963267948966
ODOM 50, 614, 1.5707963267948966
ODOM 50, 614, 1.5707963267948966
ODOM 50, 614, 1.5707963267948966
ODOM 50, 614, 1.5707963267948966
ODOM 50, 614, 1.5707963267948966
ODOM 50, 614, 1.5707963267948966
ODOM 50, 614, 1.5707963267948966
ODOM 50, 614, 1.5707963267948966
ODOM 50, 614, 1.5707963267948966
ODOM 50, 614, 1.5707963267948966
ODOM 50, 614, 1.5707963267948966
ODOM 50, 614, 1.5707963267948966
ODOM 50, 614, 1.5707963267948966
ODOM 50, 614, 1.5707963267948966
ODOM 50, 614, 1.5707963267948966
ODOM 50, 614, 1.5707963267948966
ODOM 50, 614, 1.5707963267948966
ODOM 50, 614, 1.5707963267948966
ODOM 50, 614, 1.5707963267948966
ODOM 50, 614, 1.5707963267948966
ODOM 50, 614, 1.5707963267948966
ODOM 50, 614, 1.5707963267948966
ODOM 50, 614, 1.5707963267948966
ODOM 50, 614, 1.5707963267948966
ODOM 50, 614, 1.5707963267948966
ODOM 50, 614, 1.5707963267948966
ODOM 50, 614, 1.5707963267948966
ODOM 50, 614, 1.5707963267948966
ODOM 50, 614, 1.5707963267948966
ODOM 50, 614, 1.5707963267948966
ODOM 50, 614, 1.5507963267948965
ODOM 50, 614, 1.5307963267948965
ODOM 50, 614, 1.5107963267948965
ODOM 50, 614, 1.4907963267948965
ODOM 50, 614, 1.4707963267948965
ODOM 50, 614, 1.4507963267948965
ODOM 50, 614, 1.4307963267948964
ODOM 50, 614, 1.4107963267948964
ODOM 50, 614, 1.3907963267948964
ODOM 50, 614, 1.3707963267948964
ODOM 50, 614, 1.3507963267948964
ODOM 50, 614, 1.3307963267948963
ODOM 50, 614, 1.3107963267948963
ODOM 50, 614, 1.2907963267948963
ODOM 50, 614, 1.2707963267948963
ODOM 50, 614, 1.2507963267948963
ODOM 50, 614, 1.2307963267948963
ODOM 50, 614, 1.2107963267948962
ODOM 50, 614, 1.1907963267948962
ODOM 50, 614, 1.1707963267948962
ODOM 50, 614, 1.1507963267948962
ODOM 50, 614, 1.1307963267948962
ODOM 50, 614, 1.1107963267948961
ODOM 50, 614, 1.0907963267948961
ODOM 50, 614, 1.0707963267948961
ODOM 50, 614, 1.050796326794896
ODOM 50, 614, 1.030796326794896
ODOM 50, 614, 1.010796326794896
ODOM 50, 614, 0.990796326794896
ODOM 50, 614, 0.970796326794896
ODOM 50, 614, 0.950796326794896
ODOM 50, 614, 0.930796326794896
ODOM 50, 614, 0.910796326794896
ODOM 50, 614, 0.890796326794896
ODOM 50, 614, 0.8707963267948959
ODOM 50, 614, 0.8507963267948959
ODOM 50, 614, 0.8307963267948959
ODOM 50, 614, 0.8107963267948959
ODOM 50, 614, 0.7907963267948959
ODOM 50, 614, 0.7707963267948957
ODOM 50, 614, 0.7507963267948957
ODOM 50, 614, 0.7307963267948957
ODOM 50, 614, 0.7107963267948957
ODOM 50, 614, 0.6907963267948957
ODOM 50, 614, 0.6707963267948956
ODOM 50, 614, 0.6507963267948956
ODOM 50, 614, 0.6307963267948956
ODOM 50, 614, 0.6107963267948956
ODOM 50, 614, 0.5907963267948956
ODOM 50, 614, 0.5707963267948956
ODOM 50, 614, 0.5507963267948955
ODOM 50, 614, 0.5307963267948955
ODOM 50, 614, 0.5107963267948955
ODOM 50, 614, 0.4907963267948955
ODOM 50, 614, 0.47079632679489547
ODOM 50, 614, 0.4507963267948954
ODOM 50, 614, 0.4307963267948954
ODOM 50, 614, 0.41079632679489536
ODOM 50, 614, 0.3907963267948953
ODOM 50, 614, 0.37079632679489527
ODOM 50, 614, 0.35079632679489525
ODOM 50, 614, 0.3307963267948953
ODOM 50, 614, 0.3107963267948953
ODOM 50, 614, 0.29079632679489525
ODOM 50, 614, 0.27079632679489524
ODOM 50, 614, 0.2507963267948952
ODOM 50, 614, 0.2507963267948952
ODOM 50, 614, 0.2507963267948952
ODOM 50, 614, 0.2507963267948952
ODOM 50, 614, 0.2507963267948952
ODOM 50, 614, 0.2507963267948952
ODOM 50, 614, 0.2507963267948952
ODOM 50, 614, 0.2507963267948952
ODOM 50, 614, 0.2507963267948952
ODOM 50, 614, 0.2507963267948952
ODOM 50, 614, 0.2507963267948952
ODOM 50, 614, 0.23079632679489523
ODOM 50, 614, 0.21079632679489524
ODOM 50, 614, 0.19079632679489525
ODOM 50, 614, 0.17079632679489526
ODOM 50, 614, 0.1507963267948953
ODOM 50, 614, 0.1307963267948953
ODOM 50, 614, 0.11079632679489532
ODOM 50, 614, 0.11079632679489532
ODOM 50, 614, 0.11079632679489532
ODOM 50, 614, 0.11079632679489532
ODOM 50, 614, 0.11079632679489532
ODOM 50, 614, 0.11079632679489532
ODOM 50, 614, 0.11079632679489532
ODOM 50, 614, 0.09079632679489533
ODOM 50, 614, 0.07079632679489534
ODOM 50, 614, 0.05079632679489534
ODOM 50, 614, 0.030796326794895343
ODOM 50, 614, 0.010796326794895346
ODOM 50, 614, 0.010796326794895346
ODOM 50, 614, 0.010796326794895346
ODOM 50, 614, 0.010796326794895346
ODOM 50, 614, 0.010796326794895346
ODOM 50, 614, 0.010796326794895346
ODOM 50, 614, 0.010796326794895346
ODOM 50, 614, 0.010796326794895346
ODOM 50, 614, 0.010796326794895346
ODOM 50, 614, 0.010796326794895346
ODOM 50, 614, 0.010796326794895346
ODOM 50, 614, 0.010796326794895346
ODOM 50, 614, 0.010796326794895346
ODOM 50, 614, 0.010796326794895346
ODOM 50, 614, 0.010796326794895346
ODOM 50, 614, 0.010796326794895346
ODOM 50, 614, 0.010796326794895346
ODOM 50, 614, 0.010796326794895346
ODOM 50, 614, 0.010796326794895346
ODOM 50, 614, 0.010796326794895346
ODOM 50, 614, 0.010796326794895346
ODOM 50, 614, 0.010796326794895346
ODOM 50, 614, 0.010796326794895346
ODOM 50, 614, 0.010796326794895346
ODOM 50, 614, 0.010796326794895346
ODOM 50, 614, 0.010796326794895346
ODOM 50, 614, 0.010796326794895346
ODOM 50, 614, 0.010796326794895346
ODOM 50, 614, 0.010796326794895346
ODOM 50, 614, 0.010796326794895346
ODOM 50, 614, 0.010796326794895346
ODOM 50, 614, 0.010796326794895346
ODOM 50, 614, 0.010796326794895346
ODOM 50, 614, 0.010796326794895346
ODOM 50, 614, 0.010796326794895346
ODOM 50, 614, 0.010796326794895346
ODOM 50, 614, 0.010796326794895346
ODOM 50, 614, 0.010796326794895346
ODOM 50, 614, 0.010796326794895346
ODOM 50, 614, 0.010796326794895346
ODOM 50, 614, 0.010796326794895346
ODOM 50, 614, 0.010796326794895346
ODOM 50, 614, 0.010796326794895346
ODOM 50, 614, 0.010796326794895346
ODOM 50, 613, 0.010796326794895346
ODOM 51, 613, 0.010796326794895346
ODOM 52, 613, 0.010796326794895346
ODOM 53, 613, 0.010796326794895346
ODOM 54, 613, 0.010796326794895346
ODOM 55, 613, 0.010796326794895346
ODOM 56, 613, 0.010796326794895346
ODOM 57, 613, 0.010796326794895346
ODOM 58, 613, 0.010796326794895346
ODOM 59, 613, 0.010796326794895346
ODOM 60, 613, 0.010796326794895346
ODOM 61, 613, 0.010796326794895346
ODOM 62, 613, 0.010796326794895346
ODOM 63, 613, 0.010796326794895346
ODOM 64, 613, 0.010796326794895346
ODOM 65, 613, 0.010796326794895346
ODOM 66, 613, 0.010796326794895346
ODOM 67, 613, 0.010796326794895346
ODOM 68, 613, 0.010796326794895346
ODOM 69, 613, 0.010796326794895346
ODOM 70, 613, 0.010796326794895346
ODOM 71, 613, 0.010796326794895346
ODOM 72, 613, 0.010796326794895346
ODOM 73, 613, 0.010796326794895346
ODOM 74, 613, 0.010796326794895346
ODOM 75, 613, 0.010796326794895346
ODOM 76, 613, 0.010796326794895346
ODOM 77, 613, 0.010796326794895346
ODOM 78, 613, 0.010796326794895346
ODOM 79, 613, 0.010796326794895346
ODOM 80, 613, 0.010796326794895346
ODOM 81, 613, 0.010796326794895346
ODOM 82, 613, 0.010796326794895346
ODOM 83, 613, 0.010796326794895346
ODOM 84, 613, 0.010796326794895346
ODOM 85, 613, 0.010796326794895346
ODOM 86, 613, 0.010796326794895346
ODOM 87, 613, 0.010796326794895346
ODOM 88, 613, 0.010796326794895346
ODOM 89, 613, 0.010796326794895346
ODOM 90, 613, 0.010796326794895346
ODOM 91, 613, 0.010796326794895346
ODOM 92, 613, 0.010796326794895346
ODOM 93, 613, 0.010796326794895346
ODOM 94, 613, 0.010796326794895346
ODOM 95, 613, 0.010796326794895346
ODOM 96, 613, 0.010796326794895346
ODOM 97, 613, 0.010796326794895346
ODOM 98, 613, 0.010796326794895346
ODOM 99, 613, 0.010796326794895346
ODOM 100, 613, 0.010796326794895346
ODOM 101, 613, 0.010796326794895346
ODOM 102, 613, 0.010796326794895346
ODOM 103, 613, 0.010796326794895346
ODOM 104, 613, 0.010796326794895346
ODOM 105, 613, 0.010796326794895346
ODOM 106, 613, 0.010796326794895346
ODOM 107, 613, 0.010796326794895346
ODOM 108, 613, 0.010796326794895346
ODOM 109, 613, 0.010796326794895346
ODOM 110, 613, 0.010796326794895346
ODOM 111, 613, 0.010796326794895346
ODOM 112, 613, 0.010796326794895346
ODOM 113, 613, 0.010796326794895346
ODOM 114, 613, 0.010796326794895346
ODOM 115, 613, 0.010796326794895346
ODOM 116, 613, 0.010796326794895346
ODOM 117, 613, 0.010796326794895346
ODOM 118, 613, 0.010796326794895346
ODOM 119, 613, 0.010796326794895346
ODOM 120, 613, 0.010796326794895346
ODOM 121, 613, -0.009203673205104651
ODOM 122, 613, -0.029203673205104648
ODOM 123, 613, -0.049203673205104645
ODOM 124, 613, -0.06920367320510465
ODOM 125, 613, -0.08920367320510464
ODOM 126, 613, -0.10920367320510463
ODOM 127, 613, -0.10920367320510463
ODOM 128, 613, -0.10920367320510463
ODOM 129, 613, -0.10920367320510463
ODOM 130, 613, -0.10920367320510463
ODOM 131, 614, -0.10920367320510463
ODOM 132, 614, -0.10920367320510463
ODOM 133, 614, -0.10920367320510463
ODOM 134, 614, -0.10920367320510463
ODOM 135, 614, -0.10920367320510463
ODOM 136, 614, -0.10920367320510463
ODOM 137, 614, -0.10920367320510463
ODOM 138, 614, -0.10920367320510463
ODOM 139, 614, -0.10920367320510463
ODOM 140, 615, -0.10920367320510463
ODOM 141, 615, -0.10920367320510463
ODOM 142, 615, -0.10920367320510463
ODOM 143, 615, -0.10920367320510463
ODOM 144, 615, -0.10920367320510463
ODOM 145, 615, -0.10920367320510463
ODOM 146, 615, -0.10920367320510463
ODOM 147, 615, -0.10920367320510463
ODOM 148, 615, -0.10920367320510463
ODOM 149, 616, -0.10920367320510463
ODOM 150, 616, -0.10920367320510463
ODOM 151, 616, -0.10920367320510463
ODOM 152, 616, -0.10920367320510463
ODOM 153, 616, -0.10920367320510463
ODOM 154, 616, -0.10920367320510463
ODOM 155, 616, -0.10920367320510463
ODOM 156, 616, -0.10920367320510463
ODOM 157, 616, -0.10920367320510463
ODOM 158, 617, -0.10920367320510463
ODOM 159, 617, -0.10920367320510463
ODOM 160, 617, -0.10920367320510463
ODOM 161, 617, -0.10920367320510463
ODOM 162, 617, -0.10920367320510463
ODOM 163, 617, -0.10920367320510463
ODOM 164, 617, -0.10920367320510463
ODOM 165, 617, -0.10920367320510463
ODOM 166, 617, -0.10920367320510463
ODOM 167, 617, -0.10920367320510463
ODOM 168, 618, -0.10920367320510463
ODOM 169, 618, -0.10920367320510463
ODOM 170, 618, -0.10920367320510463
ODOM 171, 618, -0.10920367320510463
ODOM 172, 618, -0.10920367320510463
ODOM 173, 618, -0.10920367320510463
ODOM 174, 618, -0.10920367320510463
ODOM 175, 618, -0.10920367320510463
ODOM 176, 618, -0.10920367320510463
ODOM 177, 619, -0.10920367320510463
ODOM 178, 619, -0.10920367320510463
ODOM 179, 619, -0.10920367320510463
ODOM 180, 619, -0.10920367320510463
ODOM 181, 619, -0.10920367320510463
ODOM 182, 619, -0.10920367320510463
ODOM 183, 619, -0.10920367320510463
ODOM 184, 619, -0.10920367320510463
ODOM 185, 619, -0.10920367320510463
ODOM 186, 620, -0.10920367320510463
ODOM 187, 620, -0.10920367320510463
ODOM 188, 620, -0.10920367320510463
ODOM 189, 620, -0.10920367320510463
ODOM 190, 620, -0.10920367320510463
ODOM 191, 620, -0.10920367320510463
ODOM 192, 620, -0.10920367320510463
ODOM 193, 620, -0.10920367320510463
ODOM 194, 620, -0.10920367320510463
ODOM 195, 621, -0.10920367320510463
ODOM 196, 621, -0.10920367320510463
ODOM 197, 621, -0.10920367320510463
ODOM 198, 621, -0.10920367320510463
ODOM 199, 621, -0.10920367320510463
ODOM 200, 621, -0.10920367320510463
ODOM 201, 621, -0.10920367320510463
ODOM 202, 621, -0.10920367320510463
ODOM 203, 621, -0.10920367320510463
ODOM 204, 622, -0.10920367320510463
ODOM 205, 622, -0.10920367320510463
ODOM 206, 622, -0.10920367320510463
ODOM 207, 622, -0.10920367320510463
ODOM 208, 622, -0.10920367320510463
ODOM 209, 622, -0.10920367320510463
ODOM 210, 622, -0.10920367320510463
ODOM 211, 622, -0.10920367320510463
ODOM 212, 622, -0.10920367320510463
ODOM 213, 623, -0.10920367320510463
ODOM 214, 623, -0.10920367320510463
ODOM 215, 623, -0.10920367320510463
ODOM 216, 623, -0.10920367320510463
ODOM 217, 623, -0.10920367320510463
ODOM 218, 623, -0.10920367320510463
ODOM 219, 623, -0.10920367320510463
ODOM 220, 623, -0.10920367320510463
ODOM 221, 623, -0.10920367320510463
ODOM 222, 623, -0.10920367320510463
ODOM 223, 624, -0.10920367320510463
ODOM 224, 624, -0.10920367320510463
ODOM 225, 624, -0.10920367320510463
ODOM 226, 624, -0.10920367320510463
ODOM 227, 624, -0.10920367320510463
ODOM 228, 624, -0.10920367320510463
ODOM 229, 624, -0.10920367320510463
ODOM 230, 624, -0.10920367320510463
ODOM 231, 624, -0.10920367320510463
ODOM 232, 625, -0.10920367320510463
ODOM 233, 625, -0.10920367320510463
ODOM 234, 625, -0.10920367320510463
ODOM 235, 625, -0.10920367320510463
ODOM 236, 625, -0.10920367320510463
ODOM 237, 625, -0.10920367320510463
ODOM 238, 625, -0.10920367320510463
ODOM 239, 625, -0.10920367320510463
ODOM 240, 625, -0.10920367320510463
ODOM 241, 626, -0.10920367320510463
ODOM 242, 626, -0.10920367320510463
ODOM 243, 626, -0.10920367320510463
ODOM 244, 626, -0.10920367320510463
ODOM 245, 626, -0.10920367320510463
ODOM 246, 626, -0.10920367320510463
ODOM 247, 626, -0.10920367320510463
ODOM 248, 626, -0.10920367320510463
ODOM 249, 626, -0.10920367320510463
ODOM 250, 627, -0.10920367320510463
ODOM 251, 627, -0.10920367320510463
ODOM 252, 627, -0.10920367320510463
ODOM 253, 627, -0.10920367320510463
ODOM 254, 627, -0.10920367320510463
ODOM 255, 627, -0.10920367320510463
ODOM 256, 627, -0.10920367320510463
ODOM 257, 627, -0.10920367320510463
ODOM 258, 627, -0.10920367320510463
ODOM 259, 628, -0.10920367320510463
ODOM 260, 628, -0.10920367320510463
ODOM 261, 628, -0.10920367320510463
ODOM 262, 628, -0.10920367320510463
ODOM 263, 628, -0.10920367320510463
ODOM 264, 628, -0.10920367320510463
ODOM 265, 628, -0.10920367320510463
ODOM 266, 628, -0.10920367320510463
ODOM 267, 628, -0.10920367320510463
ODOM 268, 629, -0.10920367320510463
ODOM 269, 629, -0.10920367320510463
ODOM 270, 629, -0.10920367320510463
ODOM 271, 629, -0.10920367320510463
ODOM 272, 629, -0.10920367320510463
ODOM 273, 629, -0.12920367320510462
ODOM 274, 629, -0.1492036732051046
ODOM 275, 629, -0.1692036732051046
ODOM 276, 630, -0.1692036732051046
ODOM 277, 630, -0.1692036732051046
ODOM 278, 630, -0.1692036732051046
ODOM 279, 630, -0.1692036732051046
ODOM 280, 630, -0.1692036732051046
ODOM 281, 630, -0.1692036732051046
ODOM 281, 631, -0.1692036732051046
ODOM 282, 631, -0.1692036732051046
ODOM 283, 631, -0.1692036732051046
ODOM 284, 631, -0.1692036732051046
ODOM 285, 631, -0.1692036732051046
ODOM 286, 631, -0.1692036732051046
ODOM 287, 632, -0.1692036732051046
ODOM 288, 632, -0.1692036732051046
ODOM 289, 632, -0.1692036732051046
ODOM 290, 632, -0.1692036732051046
ODOM 291, 632, -0.1692036732051046
ODOM 292, 632, -0.1692036732051046
ODOM 293, 633, -0.1692036732051046
ODOM 294, 633, -0.1692036732051046
ODOM 295, 633, -0.1692036732051046
ODOM 296, 633, -0.1692036732051046
ODOM 297, 633, -0.1692036732051046
ODOM 298, 633, -0.1692036732051046
ODOM 299, 634, -0.1692036732051046
ODOM 300, 634, -0.1692036732051046
ODOM 301, 634, -0.1492036732051046
ODOM 302, 634, -0.12920367320510462
ODOM 303, 634, -0.10920367320510463
ODOM 304, 634, -0.08920367320510464
ODOM 305, 634, -0.06920367320510465
ODOM 306, 634, -0.04920367320510465
ODOM 307, 634, -0.029203673205104655
ODOM 308, 634, -0.009203673205104658
ODOM 309, 634, -0.009203673205104658
ODOM 310, 634, -0.009203673205104658
ODOM 311, 634, -0.009203673205104658
ODOM 312, 634, -0.009203673205104658
ODOM 313, 634, -0.009203673205104658
ODOM 314, 635, -0.009203673205104658
ODOM 315, 635, -0.009203673205104658
ODOM 316, 635, -0.009203673205104658
ODOM 317, 635, -0.009203673205104658
ODOM 318, 635, -0.009203673205104658
ODOM 319, 635, -0.009203673205104658
ODOM 320, 635, -0.009203673205104658
ODOM 321, 635, -0.009203673205104658
ODOM 322, 635, -0.009203673205104658
ODOM 323, 635, -0.009203673205104658
ODOM 324, 635, -0.009203673205104658
ODOM 325, 635, -0.009203673205104658
ODOM 326, 635, -0.009203673205104658
ODOM 327, 635, -0.009203673205104658
ODOM 328, 635, -0.009203673205104658
ODOM 329, 635, -0.009203673205104658
ODOM 330, 635, -0.009203673205104658
ODOM 331, 635, -0.009203673205104658
ODOM 332, 635, -0.009203673205104658
ODOM 333, 635, -0.009203673205104658
ODOM 334, 635, -0.009203673205104658
ODOM 335, 635, -0.009203673205104658
ODOM 336, 635, -0.009203673205104658
ODOM 337, 635, -0.009203673205104658
ODOM 338, 635, -0.009203673205104658
ODOM 339, 635, -0.009203673205104658
ODOM 340, 635, -0.009203673205104658
ODOM 341, 635, -0.009203673205104658
ODOM 342, 635, -0.009203673205104658
ODOM 343, 635, -0.009203673205104658
ODOM 344, 635, -0.009203673205104658
ODOM 345, 635, -0.009203673205104658
ODOM 346, 635, -0.009203673205104658
ODOM 347, 635, -0.009203673205104658
ODOM 348, 635, -0.009203673205104658
ODOM 349, 635, -0.009203673205104658
ODOM 350, 635, -0.009203673205104658
ODOM 351, 635, -0.009203673205104658
ODOM 352, 635, -0.009203673205104658
ODOM 353, 635, -0.009203673205104658
ODOM 354, 635, -0.009203673205104658
ODOM 355, 635, -0.009203673205104658
ODOM 356, 635, -0.029203673205104655
ODOM 357, 635, -0.04920367320510465
ODOM 358, 635, -0.06920367320510465
ODOM 359, 635, -0.08920367320510464
ODOM 360, 635, -0.10920367320510463
ODOM 361, 635, -0.12920367320510462
ODOM 362, 635, -0.1492036732051046
ODOM 363, 636, -0.1692036732051046
ODOM 364, 636, -0.1892036732051046
ODOM 365, 636, -0.1892036732051046
ODOM 366, 636, -0.1892036732051046
ODOM 367, 636, -0.1892036732051046
ODOM 368, 637, -0.1892036732051046
ODOM 369, 637, -0.1892036732051046
ODOM 370, 637, -0.1892036732051046
ODOM 371, 637, -0.1892036732051046
ODOM 372, 637, -0.1892036732051046
ODOM 373, 637, -0.1892036732051046
ODOM 374, 638, -0.1892036732051046
ODOM 375, 638, -0.1892036732051046
ODOM 376, 638, -0.1892036732051046
ODOM 377, 638, -0.1892036732051046
ODOM 378, 638, -0.1892036732051046
ODOM 379, 639, -0.1892036732051046
ODOM 380, 639, -0.1892036732051046
ODOM 381, 639, -0.1692036732051046
ODOM 382, 639, -0.1492036732051046
ODOM 383, 639, -0.12920367320510462
ODOM 384, 639, -0.10920367320510463
ODOM 385, 639, -0.08920367320510464
ODOM 386, 640, -0.06920367320510465
ODOM 387, 640, -0.04920367320510465
ODOM 388, 640, -0.029203673205104655
ODOM 389, 640, -0.009203673205104658
ODOM 390, 640, -0.009203673205104658
ODOM 391, 640, -0.009203673205104658
ODOM 392, 640, -0.009203673205104658
ODOM 393, 640, -0.009203673205104658
ODOM 394, 640, -0.009203673205104658
ODOM 395, 640, -0.009203673205104658
ODOM 396, 640, -0.009203673205104658
ODOM 397, 640, -0.009203673205104658
ODOM 398, 640, -0.009203673205104658
ODOM 399, 640, -0.009203673205104658
ODOM 400, 640, -0.009203673205104658
ODOM 401, 640, -0.009203673205104658
ODOM 402, 640, -0.009203673205104658
ODOM 403, 640, -0.009203673205104658
ODOM 404, 640, -0.009203673205104658
ODOM 405, 640, -0.009203673205104658
ODOM 406, 640, -0.009203673205104658
ODOM 407, 640, -0.009203673205104658
ODOM 408, 640, -0.009203673205104658
ODOM 409, 640, -0.009203673205104658
ODOM 410, 640, -0.009203673205104658
ODOM 411, 640, -0.009203673205104658
ODOM 412, 640, -0.009203673205104658
ODOM 413, 640, -0.009203673205104658
ODOM 414, 640, -0.009203673205104658
ODOM 415, 640, -0.009203673205104658
ODOM 416, 640, -0.009203673205104658
ODOM 417, 640, -0.009203673205104658
ODOM 418, 640, -0.009203673205104658
ODOM 419, 640, -0.009203673205104658
ODOM 420, 640, -0.009203673205104658
ODOM 421, 640, -0.009203673205104658
ODOM 422, 640, -0.009203673205104658
ODOM 423, 640, -0.009203673205104658
ODOM 424, 640, -0.009203673205104658
ODOM 425, 640, -0.009203673205104658
ODOM 426, 640, -0.009203673205104658
ODOM 427, 640, -0.009203673205104658
ODOM 428, 640, -0.009203673205104658
ODOM 429, 640, -0.009203673205104658
ODOM 430, 640, -0.009203673205104658
ODOM 431, 640, -0.009203673205104658
ODOM 432, 640, -0.009203673205104658
ODOM 433, 640, -0.009203673205104658
ODOM 434, 640, -0.009203673205104658
ODOM 435, 640, -0.009203673205104658
ODOM 436, 640, -0.009203673205104658
ODOM 437, 640, -0.009203673205104658
ODOM 438, 640, -0.009203673205104658
ODOM 439, 640, -0.009203673205104658
ODOM 440, 640, -0.009203673205104658
ODOM 441, 640, -0.009203673205104658
ODOM 442, 640, -0.009203673205104658
ODOM 443, 640, -0.009203673205104658
ODOM 444, 640, -0.009203673205104658
ODOM 445, 640, -0.009203673205104658
ODOM 446, 640, -0.009203673205104658
ODOM 447, 640, -0.009203673205104658
ODOM 448, 640, -0.009203673205104658
ODOM 449, 640, -0.009203673205104658
ODOM 450, 640, -0.009203673205104658
ODOM 451, 640, -0.009203673205104658
ODOM 452, 640, -0.009203673205104658
ODOM 453, 640, -0.009203673205104658
ODOM 454, 640, -0.009203673205104658
ODOM 455, 640, -0.009203673205104658
ODOM 456, 640, -0.009203673205104658
ODOM 457, 640, -0.009203673205104658
ODOM 458, 640, -0.009203673205104658
ODOM 459, 640, -0.009203673205104658
ODOM 460, 640, -0.009203673205104658
ODOM 461, 640, -0.009203673205104658
ODOM 462, 640, -0.009203673205104658
ODOM 463, 640, -0.009203673205104658
ODOM 464, 640, -0.009203673205104658
ODOM 465, 640, -0.009203673205104658
ODOM 466, 640, -0.009203673205104658
ODOM 467, 640, -0.009203673205104658
ODOM 468, 640, -0.009203673205104658
ODOM 469, 640, -0.009203673205104658
ODOM 470, 640, -0.009203673205104658
ODOM 471, 640, -0.009203673205104658
ODOM 472, 640, -0.009203673205104658
ODOM 473, 640, -0.009203673205104658
ODOM 474, 640, -0.009203673205104658
ODOM 475, 640, -0.009203673205104658
ODOM 476, 640, -0.009203673205104658
ODOM 477, 640, -0.009203673205104658
ODOM 478, 640, -0.009203673205104658
ODOM 479, 640, -0.009203673205104658
ODOM 480, 641, -0.009203673205104658
ODOM 481, 641, -0.009203673205104658
ODOM 482, 641, -0.009203673205104658
ODOM 483, 641, -0.009203673205104658
ODOM 484, 641, -0.009203673205104658
ODOM 485, 641, -0.009203673205104658
ODOM 486, 641, -0.009203673205104658
ODOM 487, 641, -0.009203673205104658
ODOM 488, 641, -0.009203673205104658
ODOM 489, 641, -0.009203673205104658
ODOM 490, 641, -0.009203673205104658
ODOM 491, 641, -0.009203673205104658
ODOM 492, 641, -0.009203673205104658
ODOM 493, 641, -0.009203673205104658
ODOM 494, 641, -0.009203673205104658
ODOM 495, 641, -0.009203673205104658
ODOM 496, 641, -0.009203673205104658
ODOM 497, 641, -0.009203673205104658
ODOM 498, 641, -0.009203673205104658
ODOM 499, 641, -0.009203673205104658
ODOM 500, 641, -0.009203673205104658
ODOM 501, 641, -0.009203673205104658
ODOM 502, 641, -0.009203673205104658
ODOM 503, 641, -0.009203673205104658
ODOM 504, 641, -0.009203673205104658
ODOM 505, 641, -0.009203673205104658
ODOM 506, 641, -0.009203673205104658
ODOM 507, 641, -0.009203673205104658
ODOM 508, 641, -0.009203673205104658
ODOM 509, 641, -0.009203673205104658
ODOM 510, 641, -0.009203673205104658
ODOM 511, 641, -0.009203673205104658
ODOM 512, 641, -0.009203673205104658
ODOM 513, 641, -0.009203673205104658
ODOM 514, 641, -0.009203673205104658
ODOM 515, 641, -0.009203673205104658
ODOM 516, 641, -0.009203673205104658
ODOM 517, 641, -0.009203673205104658
ODOM 518, 641, -0.009203673205104658
ODOM 519, 641, -0.009203673205104658
ODOM 520, 641, -0.009203673205104658
ODOM 521, 641, -0.009203673205104658
ODOM 522, 641, -0.009203673205104658
ODOM 523, 641, -0.009203673205104658
ODOM 524, 641, -0.009203673205104658
ODOM 525, 641, -0.009203673205104658
ODOM 526, 641, -0.009203673205104658
ODOM 527, 641, -0.009203673205104658
ODOM 528, 641, -0.009203673205104658
ODOM 529, 641, -0.009203673205104658
ODOM 530, 641, -0.009203673205104658
ODOM 531, 641, -0.009203673205104658
ODOM 532, 641, -0.009203673205104658
ODOM 533, 641, -0.009203673205104658
ODOM 534, 641, -0.009203673205104658
ODOM 535, 641, -0.009203673205104658
ODOM 536, 641, -0.009203673205104658
ODOM 537, 641, -0.009203673205104658
ODOM 538, 641, -0.009203673205104658
ODOM 539, 641, -0.009203673205104658
ODOM 540, 641, -0.009203673205104658
ODOM 541, 641, 0.010796326794895339
ODOM 542, 641, 0.030796326794895336
ODOM 543, 641, 0.05079632679489533
ODOM 544, 641, 0.07079632679489534
ODOM 545, 641, 0.09079632679489533
ODOM 546, 641, 0.11079632679489532
ODOM 547, 641, 0.1307963267948953
ODOM 548, 640, 0.15079632679489532
ODOM 549, 640, 0.17079632679489531
ODOM 550, 640, 0.1907963267948953
ODOM 551, 640, 0.1907963267948953
ODOM 552, 640, 0.1907963267948953
ODOM 553, 640, 0.1907963267948953
ODOM 554, 639, 0.1907963267948953
ODOM 555, 639, 0.1907963267948953
ODOM 556, 639, 0.1907963267948953
ODOM 557, 639, 0.1907963267948953
ODOM 558, 639, 0.1907963267948953
ODOM 559, 638, 0.1907963267948953
ODOM 560, 638, 0.1907963267948953
ODOM 561, 638, 0.1907963267948953
ODOM 561, 638, 0.1907963267948953
ODOM 562, 638, 0.1907963267948953
ODOM 563, 637, 0.1907963267948953
ODOM 564, 637, 0.1907963267948953
ODOM 565, 637, 0.1907963267948953
ODOM 566, 637, 0.1907963267948953
ODOM 567, 637, 0.1907963267948953
ODOM 568, 637, 0.1907963267948953
ODOM 569, 636, 0.1907963267948953
ODOM 570, 636, 0.1907963267948953
ODOM 571, 636, 0.1907963267948953
ODOM 572, 636, 0.1907963267948953
ODOM 573, 636, 0.1907963267948953
ODOM 574, 635, 0.1907963267948953
ODOM 575, 635, 0.1907963267948953
ODOM 576, 635, 0.1907963267948953
ODOM 577, 635, 0.1907963267948953
ODOM 578, 635, 0.1907963267948953
ODOM 579, 634, 0.1907963267948953
ODOM 580, 634, 0.1907963267948953
ODOM 581, 634, 0.1907963267948953
ODOM 582, 634, 0.1907963267948953
ODOM 583, 634, 0.1907963267948953
ODOM 584, 634, 0.1907963267948953
ODOM 585, 633, 0.1907963267948953
ODOM 586, 633, 0.1907963267948953
ODOM 587, 633, 0.1907963267948953
ODOM 588, 633, 0.1907963267948953
ODOM 589, 633, 0.1907963267948953
ODOM 590, 632, 0.1907963267948953
ODOM 591, 632, 0.1907963267948953
ODOM 592, 632, 0.17079632679489531
ODOM 593, 632, 0.15079632679489535
ODOM 594, 632, 0.13079632679489536
ODOM 595, 632, 0.11079632679489537
ODOM 596, 631, 0.09079632679489538
ODOM 597, 631, 0.07079632679489539
ODOM 598, 631, 0.050796326794895395
ODOM 599, 631, 0.0307963267948954
ODOM 600, 631, 0.010796326794895401
ODOM 601, 631, -0.009203673205104596
ODOM 602, 631, -0.029203673205104592
ODOM 603, 631, -0.029203673205104592
ODOM 604, 631, -0.029203673205104592
ODOM 605, 631, -0.029203673205104592
ODOM 606, 631, -0.029203673205104592
ODOM 607, 631, -0.029203673205104592
ODOM 608, 631, -0.029203673205104592
ODOM 609, 632, -0.029203673205104592
ODOM 610, 632, -0.029203673205104592
ODOM 611, 632, -0.029203673205104592
ODOM 612, 632, -0.029203673205104592
ODOM 613, 632, -0.029203673205104592
ODOM 614, 632, -0.029203673205104592
ODOM 615, 632, -0.029203673205104592
ODOM 616, 632, -0.029203673205104592
ODOM 617, 632, -0.029203673205104592
ODOM 618, 632, -0.029203673205104592
ODOM 619, 632, -0.029203673205104592
ODOM 620, 632, -0.029203673205104592
ODOM 621, 632, -0.029203673205104592
ODOM 622, 632, -0.029203673205104592
ODOM 623, 632, -0.029203673205104592
ODOM 624, 632, -0.029203673205104592
ODOM 625, 632, -0.029203673205104592
ODOM 626, 632, -0.029203673205104592
ODOM 627, 632, -0.029203673205104592
ODOM 628, 632, -0.029203673205104592
ODOM 629, 632, -0.029203673205104592
ODOM 630, 632, -0.029203673205104592
ODOM 631, 632, -0.029203673205104592
ODOM 632, 632, -0.029203673205104592
ODOM 633, 632, -0.029203673205104592
ODOM 634, 632, -0.029203673205104592
ODOM 635, 632, -0.029203673205104592
ODOM 636, 632, -0.029203673205104592
ODOM 637, 632, -0.029203673205104592
ODOM 638, 632, -0.029203673205104592
ODOM 639, 632, -0.029203673205104592
ODOM 640, 632, -0.029203673205104592
ODOM 641, 632, -0.029203673205104592
ODOM 642, 632, -0.029203673205104592
ODOM 643, 632, -0.029203673205104592
ODOM 644, 633, -0.029203673205104592
ODOM 645, 633, -0.029203673205104592
ODOM 646, 633, -0.029203673205104592
ODOM 647, 633, -0.029203673205104592
ODOM 648, 633, -0.029203673205104592
ODOM 649, 633, -0.029203673205104592
ODOM 650, 633, -0.029203673205104592
ODOM 651, 633, -0.029203673205104592
ODOM 652, 633, -0.029203673205104592
ODOM 653, 633, -0.029203673205104592
ODOM 654, 633, -0.029203673205104592
ODOM 655, 633, -0.029203673205104592
ODOM 656, 633, -0.029203673205104592
ODOM 657, 633, -0.029203673205104592
ODOM 658, 633, -0.029203673205104592
ODOM 659, 633, -0.029203673205104592
ODOM 660, 633, -0.029203673205104592
ODOM 661, 633, -0.029203673205104592
ODOM 662, 633, -0.029203673205104592
ODOM 663, 633, -0.029203673205104592
ODOM 664, 633, -0.029203673205104592
ODOM 665, 633, -0.029203673205104592
ODOM 666, 633, -0.029203673205104592
ODOM 667, 633, -0.029203673205104592
ODOM 668, 633, -0.029203673205104592
ODOM 669, 633, -0.029203673205104592
ODOM 670, 633, -0.029203673205104592
ODOM 671, 633, -0.029203673205104592
ODOM 672, 633, -0.029203673205104592
ODOM 673, 633, -0.029203673205104592
ODOM 674, 633, -0.029203673205104592
ODOM 675, 633, -0.029203673205104592
ODOM 676, 633, -0.029203673205104592
ODOM 677, 633, -0.029203673205104592
ODOM 678, 634, -0.029203673205104592
ODOM 679, 634, -0.029203673205104592
ODOM 680, 634, -0.029203673205104592
ODOM 681, 634, -0.029203673205104592
ODOM 682, 634, -0.029203673205104592
ODOM 683, 634, -0.029203673205104592
ODOM 684, 634, -0.029203673205104592
ODOM 685, 634, -0.029203673205104592
ODOM 686, 634, -0.029203673205104592
ODOM 687, 634, -0.029203673205104592
ODOM 688, 634, -0.029203673205104592
ODOM 689, 634, -0.029203673205104592
ODOM 690, 634, -0.029203673205104592
ODOM 691, 634, -0.029203673205104592
ODOM 692, 634, -0.029203673205104592
ODOM 693, 634, -0.029203673205104592
ODOM 694, 634, -0.029203673205104592
ODOM 695, 634, -0.029203673205104592
ODOM 696, 634, -0.029203673205104592
ODOM 697, 634, -0.029203673205104592
ODOM 698, 634, -0.029203673205104592
ODOM 699, 634, -0.029203673205104592
ODOM 700, 634, -0.029203673205104592
ODOM 701, 634, -0.029203673205104592
ODOM 702, 634, -0.029203673205104592
ODOM 703, 634, -0.029203673205104592
ODOM 704, 634, -0.029203673205104592
ODOM 705, 634, -0.029203673205104592
ODOM 706, 634, -0.029203673205104592
ODOM 707, 634, -0.029203673205104592
ODOM 708, 634, -0.029203673205104592
ODOM 709, 634, -0.029203673205104592
ODOM 710, 634, -0.029203673205104592
ODOM 711, 634, -0.029203673205104592
ODOM 712, 635, -0.029203673205104592
ODOM 713, 635, -0.029203673205104592
ODOM 714, 635, -0.029203673205104592
ODOM 715, 635, -0.029203673205104592
ODOM 716, 635, -0.029203673205104592
ODOM 717, 635, -0.029203673205104592
ODOM 718, 635, -0.029203673205104592
ODOM 719, 635, -0.029203673205104592
ODOM 720, 635, -0.029203673205104592
ODOM 721, 635, -0.029203673205104592
ODOM 722, 635, -0.029203673205104592
ODOM 723, 635, -0.029203673205104592
ODOM 724, 635, -0.029203673205104592
ODOM 725, 635, -0.029203673205104592
ODOM 726, 635, -0.029203673205104592
ODOM 727, 635, -0.029203673205104592
ODOM 728, 635, -0.029203673205104592
ODOM 729, 635, -0.029203673205104592
ODOM 730, 635, -0.029203673205104592
ODOM 731, 635, -0.029203673205104592
ODOM 732, 635, -0.029203673205104592
ODOM 733, 635, -0.029203673205104592
ODOM 734, 635, -0.029203673205104592
ODOM 735, 635, -0.029203673205104592
ODOM 736, 635, -0.029203673205104592
ODOM 737, 635, -0.029203673205104592
ODOM 738, 635, -0.029203673205104592
ODOM 739, 635, -0.029203673205104592
ODOM 740, 635, -0.029203673205104592
ODOM 741, 635, -0.029203673205104592
ODOM 742, 635, -0.029203673205104592
ODOM 743, 635, -0.029203673205104592
ODOM 744, 635, -0.029203673205104592
ODOM 745, 635, -0.029203673205104592
ODOM 746, 636, -0.029203673205104592
ODOM 747, 636, -0.029203673205104592
ODOM 748, 636, -0.029203673205104592
ODOM 749, 636, -0.029203673205104592
ODOM 750, 636, -0.029203673205104592
ODOM 751, 636, -0.029203673205104592
ODOM 752, 636, -0.029203673205104592
ODOM 753, 636, -0.029203673205104592
ODOM 754, 636, -0.029203673205104592
ODOM 755, 636, -0.029203673205104592
ODOM 756, 636, -0.029203673205104592
ODOM 757, 636, -0.029203673205104592
ODOM 758, 636, -0.029203673205104592
ODOM 759, 636, -0.029203673205104592
ODOM 760, 636, -0.029203673205104592
ODOM 761, 636, -0.029203673205104592
ODOM 762, 636, -0.029203673205104592
ODOM 763, 636, -0.029203673205104592
ODOM 764, 636, -0.029203673205104592
ODOM 765, 636, -0.029203673205104592
ODOM 766, 636, -0.029203673205104592
ODOM 767, 636, -0.029203673205104592
ODOM 768, 636, -0.029203673205104592
ODOM 769, 636, -0.029203673205104592
ODOM 770, 636, -0.029203673205104592
ODOM 771, 636, -0.029203673205104592
ODOM 772, 636, -0.029203673205104592
ODOM 773, 636, -0.029203673205104592
ODOM 774, 636, -0.029203673205104592
ODOM 775, 636, -0.029203673205104592
ODOM 776, 636, -0.029203673205104592
ODOM 777, 636, -0.029203673205104592
ODOM 778, 636, -0.029203673205104592
ODOM 779, 636, -0.029203673205104592
ODOM 780, 637, -0.029203673205104592
ODOM 781, 637, -0.029203673205104592
ODOM 782, 637, -0.029203673205104592
ODOM 783, 637, -0.029203673205104592
ODOM 784, 637, -0.029203673205104592
ODOM 785, 637, -0.029203673205104592
ODOM 786, 637, -0.029203673205104592
ODOM 787, 637, -0.029203673205104592
ODOM 788, 637, -0.029203673205104592
ODOM 789, 637, -0.029203673205104592
ODOM 790, 637, -0.029203673205104592
ODOM 791, 637, -0.029203673205104592
ODOM 792, 637, -0.029203673205104592
ODOM 793, 637, -0.029203673205104592
ODOM 794, 637, -0.029203673205104592
ODOM 795, 637, -0.029203673205104592
ODOM 796, 637, -0.029203673205104592
ODOM 797, 637, -0.029203673205104592
ODOM 798, 637, -0.029203673205104592
ODOM 799, 637, -0.029203673205104592
ODOM 800, 637, -0.029203673205104592
ODOM 801, 637, -0.029203673205104592
ODOM 802, 637, -0.029203673205104592
ODOM 803, 637, -0.029203673205104592
ODOM 804, 637, -0.029203673205104592
ODOM 805, 637, -0.029203673205104592
ODOM 806, 637, -0.029203673205104592
ODOM 807, 637, -0.029203673205104592
ODOM 808, 637, -0.029203673205104592
ODOM 809, 637, -0.029203673205104592
ODOM 810, 637, -0.029203673205104592
ODOM 811, 637, -0.029203673205104592
ODOM 812, 637, -0.029203673205104592
ODOM 813, 637, -0.029203673205104592
ODOM 814, 637, -0.029203673205104592
ODOM 815, 638, -0.029203673205104592
ODOM 816, 638, -0.029203673205104592
ODOM 817, 638, -0.029203673205104592
ODOM 818, 638, -0.029203673205104592
ODOM 819, 638, -0.029203673205104592
ODOM 820, 638, -0.029203673205104592
ODOM 821, 638, -0.029203673205104592
ODOM 822, 638, -0.029203673205104592
ODOM 823, 638, -0.029203673205104592
ODOM 824, 638, -0.029203673205104592
ODOM 825, 638, -0.029203673205104592
ODOM 826, 638, -0.029203673205104592
ODOM 827, 638, -0.029203673205104592
ODOM 828, 638, -0.029203673205104592
ODOM 829, 638, -0.029203673205104592
ODOM 830, 638, -0.029203673205104592
ODOM 831, 638, -0.029203673205104592
ODOM 832, 638, -0.029203673205104592
ODOM 833, 638, -0.029203673205104592
ODOM 834, 638, -0.029203673205104592
ODOM 835, 638, -0.029203673205104592
ODOM 836, 638, -0.009203673205104596
ODOM 837, 638, 0.010796326794895401
ODOM 838, 638, 0.0307963267948954
ODOM 839, 638, 0.050796326794895395
ODOM 840, 638, 0.07079632679489539
ODOM 841, 638, 0.09079632679489538
ODOM 842, 638, 0.11079632679489537
ODOM 843, 638, 0.13079632679489536
ODOM 844, 638, 0.15079632679489538
ODOM 845, 637, 0.17079632679489537
ODOM 846, 637, 0.19079632679489536
ODOM 847, 637, 0.21079632679489535
ODOM 848, 637, 0.23079632679489534
ODOM 849, 637, 0.25079632679489533
ODOM 850, 636, 0.27079632679489535
ODOM 851, 636, 0.2907963267948953
ODOM 852, 636, 0.31079632679489533
ODOM 852, 635, 0.33079632679489535
ODOM 853, 635, 0.35079632679489536
ODOM 854, 635, 0.3707963267948953
ODOM 855, 634, 0.3907963267948953
ODOM 856, 634, 0.4107963267948953
ODOM 857, 634, 0.43079632679489527
ODOM 858, 633, 0.45079632679489534
ODOM 859, 633, 0.47079632679489536
ODOM 860, 632, 0.4907963267948954
ODOM 861, 632, 0.5107963267948954
ODOM 862, 631, 0.5307963267948955
ODOM 862, 631, 0.5507963267948955
ODOM 863, 630, 0.5507963267948955
ODOM 864, 630, 0.5507963267948955
ODOM 865, 629, 0.5507963267948955
ODOM 866, 629, 0.5507963267948955
ODOM 867, 628, 0.5507963267948955
ODOM 868, 628, 0.5507963267948955
ODOM 868, 627, 0.5507963267948955
ODOM 869, 627, 0.5507963267948955
ODOM 870, 626, 0.5507963267948955
ODOM 871, 625, 0.5507963267948955
ODOM 872, 625, 0.5507963267948955
ODOM 873, 624, 0.5507963267948955
ODOM 873, 624, 0.5507963267948955
ODOM 874, 623, 0.5507963267948955
ODOM 875, 623, 0.5507963267948955
ODOM 876, 622, 0.5507963267948955
ODOM 877, 622, 0.5707963267948956
ODOM 878, 621, 0.5907963267948956
ODOM 879, 621, 0.6107963267948956
ODOM 879, 620, 0.6307963267948956
ODOM 880, 620, 0.6507963267948956
ODOM 881, 619, 0.6707963267948956
ODOM 882, 618, 0.6907963267948957
ODOM 883, 618, 0.7107963267948957
ODOM 883, 617, 0.7307963267948957
ODOM 884, 616, 0.7507963267948957
ODOM 885, 616, 0.7707963267948957
ODOM 885, 615, 0.7907963267948958
ODOM 886, 614, 0.8107963267948958
ODOM 887, 613, 0.8307963267948958
ODOM 887, 613, 0.8507963267948958
ODOM 888, 612, 0.8707963267948958
ODOM 889, 611, 0.8907963267948958
ODOM 889, 610, 0.9107963267948959
ODOM 890, 610, 0.9307963267948959
ODOM 891, 609, 0.9507963267948959
ODOM 891, 608, 0.9707963267948959
ODOM 892, 607, 0.9907963267948959
ODOM 892, 606, 1.0107963267948958
ODOM 893, 605, 1.0307963267948959
ODOM 893, 605, 1.0507963267948959
ODOM 894, 604, 1.070796326794896
ODOM 894, 603, 1.090796326794896
ODOM 895, 602, 1.110796326794896
ODOM 895, 601, 1.130796326794896
ODOM 896, 600, 1.150796326794896
ODOM 896, 599, 1.170796326794896
ODOM 896, 598, 1.190796326794896
ODOM 897, 597, 1.210796326794896
ODOM 897, 596, 1.230796326794896
ODOM 897, 595, 1.250796326794896
ODOM 898, 595, 1.270796326794896
ODOM 898, 594, 1.290796326794896
ODOM 898, 593, 1.310796326794896
ODOM 898, 592, 1.3307963267948961
ODOM 899, 591, 1.3507963267948961
ODOM 899, 590, 1.3707963267948962
ODOM 899, 589, 1.3907963267948962
ODOM 899, 588, 1.4107963267948962
ODOM 899, 587, 1.4307963267948962
ODOM 900, 586, 1.4507963267948962
ODOM 900, 585, 1.4707963267948962
ODOM 900, 584, 1.4907963267948963
ODOM 900, 583, 1.5107963267948963
ODOM 900, 582, 1.5307963267948963
ODOM 900, 581, 1.5507963267948963
ODOM 900, 580, 1.5707963267948963
ODOM 900, 579, 1.5907963267948964
ODOM 900, 578, 1.6107963267948964
ODOM 900, 577, 1.6307963267948964
ODOM 900, 576, 1.6507963267948964
ODOM 900, 575, 1.6707963267948964
ODOM 900, 574, 1.6907963267948964
ODOM 899, 573, 1.7107963267948965
ODOM 899, 572, 1.7307963267948965
ODOM 899, 571, 1.7507963267948965
ODOM 899, 570, 1.7707963267948965
ODOM 899, 569, 1.7907963267948965
ODOM 898, 568, 1.8107963267948965
ODOM 898, 567, 1.8307963267948966
ODOM 898, 566, 1.8507963267948966
ODOM 898, 565, 1.8707963267948966
ODOM 897, 564, 1.8907963267948966
ODOM 897, 563, 1.9107963267948966
ODOM 897, 562, 1.9307963267948967
ODOM 896, 561, 1.9507963267948967
ODOM 896, 560, 1.9707963267948967
ODOM 896, 559, 1.9907963267948967
ODOM 895, 558, 2.0107963267948965
ODOM 895, 558, 2.0307963267948965
ODOM 894, 557, 2.0507963267948965
ODOM 894, 556, 2.0707963267948966
ODOM 893, 555, 2.0907963267948966
ODOM 893, 554, 2.1107963267948966
ODOM 892, 553, 2.1307963267948966
ODOM 892, 552, 2.1507963267948966
ODOM 891, 552, 2.1707963267948966
ODOM 891, 551, 2.1907963267948967
ODOM 890, 550, 2.2107963267948967
ODOM 889, 549, 2.2307963267948967
ODOM 889, 548, 2.2507963267948967
ODOM 888, 548, 2.2707963267948967
ODOM 887, 547, 2.2907963267948968
ODOM 887, 546, 2.3107963267948968
ODOM 886, 545, 2.330796326794897
ODOM 885, 545, 2.350796326794897
ODOM 885, 544, 2.370796326794897
ODOM 884, 543, 2.390796326794897
ODOM 883, 543, 2.410796326794897
ODOM 883, 542, 2.430796326794897
ODOM 882, 541, 2.450796326794897
ODOM 881, 541, 2.470796326794897
ODOM 880, 540, 2.490796326794897
ODOM 879, 539, 2.510796326794897
ODOM 879, 539, 2.530796326794897
ODOM 878, 538, 2.550796326794897
ODOM 877, 538, 2.570796326794897
ODOM 876, 537, 2.590796326794897
ODOM 875, 537, 2.610796326794897
ODOM 874, 536, 2.630796326794897
ODOM 873, 536, 2.650796326794897
ODOM 873, 535, 2.670796326794897
ODOM 872, 535, 2.690796326794897
ODOM 871, 534, 2.710796326794897
ODOM 870, 534, 2.730796326794897
ODOM 869, 534, 2.750796326794897
ODOM 868, 533, 2.770796326794897
ODOM 867, 533, 2.790796326794897
ODOM 866, 532, 2.810796326794897
ODOM 865, 532, 2.8307963267948972
ODOM 864, 532, 2.8507963267948973
ODOM 863, 532, 2.8707963267948973
ODOM 862, 531, 2.8907963267948973
ODOM 861, 531, 2.9107963267948973
ODOM 860, 531, 2.9307963267948973
ODOM 859, 531, 2.9507963267948973
ODOM 858, 530, 2.9707963267948974
ODOM 857, 530, 2.9907963267948974
ODOM 856, 530, 3.0107963267948974
ODOM 855, 530, 3.0307963267948974
ODOM 854, 530, 3.0507963267948974
ODOM 853, 530, 3.0707963267948974
ODOM 852, 530, 3.0907963267948975
ODOM 851, 530, 3.1107963267948975
ODOM 850, 530, 3.1307963267948975
ODOM 849, 530, -3.132388980384689
ODOM 848, 530, -3.112388980384689
ODOM 847, 530, -3.092388980384689
ODOM 846, 530, -3.072388980384689
ODOM 845, 530, -3.052388980384689
ODOM 844, 530, -3.032388980384689
ODOM 843, 530, -3.012388980384689
ODOM 842, 530, -2.992388980384689
ODOM 841, 530, -2.972388980384689
ODOM 840, 531, -2.952388980384689
ODOM 840, 531, -2.932388980384689
ODOM 839, 531, -2.912388980384689
ODOM 838, 531, -2.892388980384689
ODOM 837, 532, -2.872388980384689
ODOM 836, 532, -2.852388980384689
ODOM 835, 532, -2.832388980384689
ODOM 834, 532, -2.812388980384689
ODOM 833, 533, -2.792388980384689
ODOM 832, 533, -2.772388980384689
ODOM 831, 533, -2.752388980384689
ODOM 830, 534, -2.732388980384689
ODOM 829, 534, -2.712388980384689
ODOM 828, 535, -2.6923889803846888
ODOM 827, 535, -2.6723889803846888
ODOM 826, 536, -2.6523889803846887
ODOM 826, 536, -2.6323889803846887
ODOM 825, 537, -2.6123889803846887
ODOM 824, 537, -2.5923889803846887
ODOM 823, 538, -2.5723889803846887
ODOM 822, 538, -2.5523889803846886
ODOM 821, 539, -2.5323889803846886
ODOM 820, 539, -2.5123889803846886
ODOM 820, 540, -2.4923889803846886
ODOM 819, 541, -2.4723889803846886
ODOM 818, 541, -2.4523889803846886
ODOM 817, 542, -2.4323889803846885
ODOM 817, 542, -2.4123889803846885
ODOM 816, 543, -2.3923889803846885
ODOM 815, 544, -2.3723889803846885
ODOM 814, 545, -2.3523889803846885
ODOM 814, 545, -2.3323889803846884
ODOM 813, 546, -2.3123889803846884
ODOM 812, 547, -2.2923889803846884
ODOM 812, 547, -2.2723889803846884
ODOM 811, 548, -2.2523889803846884
ODOM 810, 549, -2.2523889803846884
ODOM 810, 550, -2.2523889803846884
ODOM 809, 551, -2.2523889803846884
ODOM 809, 551, -2.2523889803846884
ODOM 808, 552, -2.2523889803846884
ODOM 807, 553, -2.2523889803846884
ODOM 807, 554, -2.2523889803846884
ODOM 806, 554, -2.2523889803846884
ODOM 805, 555, -2.2523889803846884
ODOM 805, 556, -2.2523889803846884
ODOM 804, 557, -2.2523889803846884
ODOM 803, 558, -2.2523889803846884
ODOM 803, 558, -2.2523889803846884
ODOM 802, 559, -2.2523889803846884
ODOM 802, 560, -2.2523889803846884
ODOM 801, 561, -2.2523889803846884
ODOM 800, 561, -2.2523889803846884
ODOM 800, 562, -2.2523889803846884
ODOM 799, 563, -2.2723889803846884
ODOM 798, 564, -2.2923889803846884
ODOM 798, 565, -2.3123889803846884
ODOM 797, 565, -2.3323889803846884
ODOM 796, 566, -2.3523889803846885
ODOM 796, 567, -2.3723889803846885
ODOM 795, 567, -2.3923889803846885
ODOM 794, 568, -2.4123889803846885
ODOM 793, 569, -2.4323889803846885
ODOM 793, 569, -2.4523889803846886
ODOM 792, 570, -2.4723889803846886
ODOM 791, 571, -2.4923889803846886
ODOM 790, 571, -2.5123889803846886
ODOM 789, 572, -2.5323889803846886
ODOM 789, 572, -2.5523889803846886
ODOM 788, 573, -2.5723889803846887
ODOM 787, 573, -2.5923889803846887
ODOM 786, 574, -2.6123889803846887
ODOM 785, 574, -2.6323889803846887
ODOM 784, 575, -2.6323889803846887
ODOM 784, 575, -2.6323889803846887
ODOM 783, 576, -2.6323889803846887
ODOM 782, 576, -2.6323889803846887
ODOM 781, 577, -2.6323889803846887
ODOM 780, 577, -2.6323889803846887
ODOM 779, 578, -2.6323889803846887
ODOM 778, 578, -2.6323889803846887
ODOM 777, 579, -2.6323889803846887
ODOM 777, 579, -2.6323889803846887
ODOM 776, 580, -2.6323889803846887
ODOM 775, 580, -2.6323889803846887
ODOM 774, 581, -2.6323889803846887
ODOM 773, 581, -2.6323889803846887
ODOM 772, 582, -2.6323889803846887
ODOM 771, 582, -2.6323889803846887
ODOM 770, 583, -2.6323889803846887
ODOM 770, 583, -2.6323889803846887
ODOM 769, 584, -2.6323889803846887
ODOM 768, 584, -2.6323889803846887
ODOM 767, 585, -2.6323889803846887
ODOM 766, 585, -2.6323889803846887
ODOM 765, 586, -2.6323889803846887
ODOM 764, 586, -2.6323889803846887
ODOM 763, 587, -2.6323889803846887
ODOM 763, 587, -2.6323889803846887
ODOM 762, 588, -2.6323889803846887
ODOM 761, 588, -2.6323889803846887
ODOM 760, 589, -2.6323889803846887
ODOM 759, 589, -2.6323889803846887
ODOM 758, 589, -2.6323889803846887
ODOM 757, 590, -2.6323889803846887
ODOM 756, 590, -2.6323889803846887
ODOM 756, 591, -2.6323889803846887
ODOM 755, 591, -2.6323889803846887
ODOM 754, 592, -2.6323889803846887
ODOM 753, 592, -2.6323889803846887
ODOM 752, 593, -2.6323889803846887
ODOM 751, 593, -2.6323889803846887
ODOM 750, 594, -2.6323889803846887
ODOM 749, 594, -2.6323889803846887
ODOM 749, 595, -2.6323889803846887
ODOM 748, 595, -2.6323889803846887
ODOM 747, 596, -2.6323889803846887
ODOM 746, 596, -2.6323889803846887
ODOM 745, 597, -2.6323889803846887
ODOM 744, 597, -2.6323889803846887
ODOM 743, 598, -2.6323889803846887
ODOM 742, 598, -2.6523889803846887
ODOM 742, 599, -2.6723889803846888
ODOM 741, 599, -2.6923889803846888
ODOM 740, 600, -2.712388980384689
ODOM 739, 600, -2.732388980384689
ODOM 738, 600, -2.752388980384689
ODOM 737, 601, -2.772388980384689
ODOM 736, 601, -2.792388980384689
ODOM 735, 601, -2.812388980384689
ODOM 734, 602, -2.832388980384689
ODOM 733, 602, -2.852388980384689
ODOM 732, 602, -2.872388980384689
ODOM 731, 603, -2.892388980384689
ODOM 730, 603, -2.912388980384689
ODOM 729, 603, -2.932388980384689
ODOM 728, 603, -2.952388980384689
ODOM 727, 603, -2.972388980384689
ODOM 726, 604, -2.992388980384689
ODOM 725, 604, -3.012388980384689
ODOM 724, 604, -3.032388980384689
ODOM 723, 604, -3.052388980384689
ODOM 722, 604, -3.072388980384689
ODOM 721, 604, -3.092388980384689
ODOM 720, 604, -3.112388980384689
ODOM 719, 604, -3.132388980384689
ODOM 718, 604, 3.1307963267948975
ODOM 717, 604, 3.1107963267948975
ODOM 716, 604, 3.0907963267948975
ODOM 715, 604, 3.0707963267948974
ODOM 714, 604, 3.0507963267948974
ODOM 713, 604, 3.0307963267948974
ODOM 712, 604, 3.0107963267948974
ODOM 711, 604, 2.9907963267948974
ODOM 710, 603, 2.9907963267948974
ODOM 709, 603, 2.9907963267948974
ODOM 708, 603, 2.9907963267948974
ODOM 708, 603, 2.9907963267948974
ODOM 707, 603, 2.9907963267948974
ODOM 706, 603, 2.9907963267948974
ODOM 705, 603, 2.9907963267948974
ODOM 704, 602, 2.9907963267948974
ODOM 703, 602, 2.9707963267948974
ODOM 702, 602, 2.9507963267948973
ODOM 701, 602, 2.9307963267948973
ODOM 700, 602, 2.9107963267948973
ODOM 699, 601, 2.8907963267948973
ODOM 698, 601, 2.8707963267948973
ODOM 697, 601, 2.8507963267948973
ODOM 696, 601, 2.8307963267948972
ODOM 695, 600, 2.810796326794897
ODOM 694, 600, 2.790796326794897
ODOM 693, 600, 2.770796326794897
ODOM 692, 599, 2.750796326794897
ODOM 691, 599, 2.730796326794897
ODOM 690, 598, 2.710796326794897
ODOM 689, 598, 2.690796326794897
ODOM 688, 597, 2.670796326794897
ODOM 688, 597, 2.650796326794897
ODOM 687, 597, 2.630796326794897
ODOM 686, 596, 2.610796326794897
ODOM 685, 596, 2.590796326794897
ODOM 684, 595, 2.570796326794897
ODOM 683, 594, 2.550796326794897
ODOM 682, 594, 2.530796326794897
ODOM 682, 593, 2.510796326794897
ODOM 681, 593, 2.490796326794897
ODOM 680, 592, 2.470796326794897
ODOM 679, 591, 2.450796326794897
ODOM 678, 591, 2.430796326794897
ODOM 678, 590, 2.410796326794897
ODOM 677, 589, 2.390796326794897
ODOM 676, 589, 2.370796326794897
ODOM 676, 588, 2.350796326794897
ODOM 675, 587, 2.330796326794897
ODOM 674, 587, 2.3107963267948968
ODOM 673, 586, 2.2907963267948968
ODOM 673, 585, 2.2707963267948967
ODOM 672, 584, 2.2507963267948967
ODOM 672, 584, 2.2307963267948967
ODOM 671, 583, 2.2107963267948967
ODOM 670, 582, 2.1907963267948967
ODOM 670, 581, 2.1707963267948966
ODOM 669, 580, 2.1507963267948966
ODOM 669, 579, 2.1307963267948966
ODOM 668, 579, 2.1107963267948966
ODOM 668, 578, 2.0907963267948966
ODOM 667, 577, 2.0707963267948966
ODOM 667, 576, 2.0507963267948965
ODOM 666, 575, 2.0307963267948965
ODOM 666, 574, 2.0107963267948965
ODOM 665, 573, 1.9907963267948965
ODOM 665, 572, 1.9707963267948965
ODOM 665, 571, 1.9507963267948965
ODOM 664, 571, 1.9307963267948964
ODOM 664, 570, 1.9107963267948964
ODOM 664, 569, 1.8907963267948964
ODOM 663, 568, 1.8707963267948964
ODOM 663, 567, 1.8507963267948964
ODOM 663, 566, 1.8307963267948963
ODOM 663, 565, 1.8107963267948963
ODOM 662, 564, 1.7907963267948963
ODOM 662, 563, 1.7707963267948963
ODOM 662, 562, 1.7507963267948963
ODOM 662, 561, 1.7307963267948963
ODOM 662, 560, 1.7107963267948962
ODOM 661, 559, 1.6907963267948962
ODOM 661, 558, 1.6707963267948962
ODOM 661, 557, 1.6507963267948962
ODOM 661, 556, 1.6307963267948962
ODOM 661, 555, 1.6107963267948961
ODOM 661, 554, 1.5907963267948961
ODOM 661, 553, 1.5707963267948961
ODOM 661, 552, 1.550796326794896
ODOM 661, 551, 1.530796326794896
ODOM 661, 550, 1.510796326794896
ODOM 661, 549, 1.490796326794896
ODOM 661, 548, 1.470796326794896
ODOM 661, 547, 1.450796326794896
ODOM 662, 546, 1.430796326794896
ODOM 662, 545, 1.410796326794896
ODOM 662, 544, 1.390796326794896
ODOM 662, 543, 1.390796326794896
ODOM 662, 542, 1.390796326794896
ODOM 662, 541, 1.390796326794896
ODOM 663, 540, 1.390796326794896
ODOM 663, 539, 1.390796326794896
ODOM 663, 538, 1.390796326794896
ODOM 663, 537, 1.390796326794896
ODOM 663, 536, 1.390796326794896
ODOM 663, 535, 1.390796326794896
ODOM 664, 534, 1.390796326794896
ODOM 664, 533, 1.390796326794896
ODOM 664, 532, 1.390796326794896
ODOM 664, 531, 1.390796326794896
ODOM 664, 530, 1.390796326794896
ODOM 665, 529, 1.390796326794896
ODOM 665, 528, 1.390796326794896
ODOM 665, 527, 1.390796326794896
ODOM 665, 526, 1.390796326794896
ODOM 665, 525, 1.390796326794896
ODOM 665, 524, 1.390796326794896
ODOM 666, 523, 1.390796326794896
ODOM 666, 522, 1.390796326794896
ODOM 666, 521, 1.390796326794896
ODOM 666, 520, 1.390796326794896
ODOM 666, 519, 1.390796326794896
ODOM 667, 518, 1.390796326794896
ODOM 667, 517, 1.390796326794896
ODOM 667, 516, 1.390796326794896
ODOM 667, 515, 1.390796326794896
ODOM 667, 514, 1.390796326794896
ODOM 667, 513, 1.390796326794896
ODOM 668, 512, 1.390796326794896
ODOM 668, 512, 1.390796326794896
ODOM 668, 511, 1.390796326794896
ODOM 668, 510, 1.390796326794896
ODOM 668, 509, 1.390796326794896
ODOM 668, 508, 1.390796326794896
ODOM 669, 507, 1.390796326794896
ODOM 669, 506, 1.390796326794896
ODOM 669, 505, 1.390796326794896
ODOM 669, 504, 1.390796326794896
ODOM 669, 503, 1.390796326794896
ODOM 670, 502, 1.390796326794896
ODOM 670, 501, 1.390796326794896
ODOM 670, 500, 1.390796326794896
ODOM 670, 499, 1.390796326794896
ODOM 670, 498, 1.390796326794896
ODOM 670, 497, 1.390796326794896
ODOM 671, 496, 1.390796326794896
ODOM 671, 495, 1.390796326794896
ODOM 671, 494, 1.390796326794896
ODOM 671, 493, 1.390796326794896
ODOM 671, 492, 1.390796326794896
ODOM 672, 491, 1.390796326794896
ODOM 672, 490, 1.390796326794896
ODOM 672, 489, 1.390796326794896
ODOM 672, 488, 1.390796326794896
ODOM 672, 487, 1.390796326794896
ODOM 672, 486, 1.390796326794896
ODOM 673, 485, 1.390796326794896
ODOM 673, 484, 1.390796326794896
ODOM 673, 483, 1.390796326794896
ODOM 673, 482, 1.390796326794896
ODOM 673, 481, 1.390796326794896
ODOM 674, 480, 1.390796326794896
ODOM 674, 479, 1.390796326794896
ODOM 674, 478, 1.390796326794896
ODOM 674, 477, 1.390796326794896
ODOM 674, 476, 1.390796326794896
ODOM 674, 475, 1.390796326794896
ODOM 675, 474, 1.390796326794896
ODOM 675, 473, 1.390796326794896
ODOM 675, 472, 1.390796326794896
ODOM 675, 471, 1.390796326794896
ODOM 675, 470, 1.390796326794896
ODOM 675, 469, 1.390796326794896
ODOM 676, 468, 1.390796326794896
ODOM 676, 467, 1.390796326794896
ODOM 676, 466, 1.390796326794896
ODOM 676, 465, 1.370796326794896
ODOM 676, 464, 1.350796326794896
ODOM 677, 463, 1.330796326794896
ODOM 677, 462, 1.3107963267948959
ODOM 677, 461, 1.2907963267948959
ODOM 677, 460, 1.2707963267948958
ODOM 678, 459, 1.2507963267948958
ODOM 678, 459, 1.2307963267948958
ODOM 678, 458, 1.2107963267948958
ODOM 679, 457, 1.1907963267948958
ODOM 679, 456, 1.1707963267948958
ODOM 680, 455, 1.1507963267948957
ODOM 680, 454, 1.1307963267948957
ODOM 680, 453, 1.1107963267948957
ODOM 681, 452, 1.0907963267948957
ODOM 681, 451, 1.0707963267948957
ODOM 682, 450, 1.0507963267948957
ODOM 682, 449, 1.0307963267948956
ODOM 683, 449, 1.0107963267948956
ODOM 683, 448, 0.9907963267948956
ODOM 684, 447, 0.9707963267948955
ODOM 685, 446, 0.9507963267948955
ODOM 685, 445, 0.9307963267948954
ODOM 686, 445, 0.9107963267948954
ODOM 686, 444, 0.8907963267948954
ODOM 687, 443, 0.8707963267948954
ODOM 688, 442, 0.8507963267948954
ODOM 688, 441, 0.8307963267948953
ODOM 689, 441, 0.8107963267948953
ODOM 690, 440, 0.7907963267948953
ODOM 690, 439, 0.7707963267948953
ODOM 691, 439, 0.7507963267948953
ODOM 692, 438, 0.7307963267948953
ODOM 693, 437, 0.7107963267948952
ODOM 693, 437, 0.6907963267948952
ODOM 694, 436, 0.6707963267948952
ODOM 695, 435, 0.6507963267948952
ODOM 696, 435, 0.6307963267948952
ODOM 697, 434, 0.6107963267948952
ODOM 697, 434, 0.5907963267948951
ODOM 698, 433, 0.5707963267948951
ODOM 699, 433, 0.5507963267948951
ODOM 700, 432, 0.5307963267948951
ODOM 701, 432, 0.5107963267948951
ODOM 702, 431, 0.49079632679489504
ODOM 703, 431, 0.470796326794895
ODOM 703, 430, 0.450796326794895
ODOM 704, 430, 0.430796326794895
ODOM 705, 429, 0.410796326794895
ODOM 706, 429, 0.39079632679489495
ODOM 707, 429, 0.37079632679489494
ODOM 708, 428, 0.3507963267948949
ODOM 709, 428, 0.3307963267948949
ODOM 710, 428, 0.3107963267948949
ODOM 711, 427, 0.29079632679489487
ODOM 712, 427, 0.27079632679489485
ODOM 713, 427, 0.25079632679489483
ODOM 714, 427, 0.23079632679489487
ODOM 715, 426, 0.21079632679489488
ODOM 716, 426, 0.21079632679489488
ODOM 717, 426, 0.21079632679489488
ODOM 718, 426, 0.21079632679489488
ODOM 719, 425, 0.21079632679489488
ODOM 720, 425, 0.21079632679489488
ODOM 721, 425, 0.21079632679489488
ODOM 722, 425, 0.21079632679489488
ODOM 723, 425, 0.21079632679489488
ODOM 724, 424, 0.21079632679489488
ODOM 725, 424, 0.21079632679489488
ODOM 726, 424, 0.21079632679489488
ODOM 726, 424, 0.21079632679489488
ODOM 727, 424, 0.21079632679489488
ODOM 728, 423, 0.21079632679489488
ODOM 729, 423, 0.21079632679489488
ODOM 730, 423, 0.21079632679489488
ODOM 731, 423, 0.21079632679489488
ODOM 732, 423, 0.21079632679489488
ODOM 733, 422, 0.21079632679489488
ODOM 734, 422, 0.21079632679489488
ODOM 735, 422, 0.21079632679489488
ODOM 736, 422, 0.21079632679489488
ODOM 737, 421, 0.21079632679489488
ODOM 738, 421, 0.21079632679489488
ODOM 739, 421, 0.21079632679489488
ODOM 740, 421, 0.21079632679489488
ODOM 741, 421, 0.21079632679489488
ODOM 742, 420, 0.21079632679489488
ODOM 743, 420, 0.21079632679489488
ODOM 744, 420, 0.21079632679489488
ODOM 745, 420, 0.21079632679489488
ODOM 746, 420, 0.21079632679489488
ODOM 747, 419, 0.21079632679489488
ODOM 748, 419, 0.21079632679489488
ODOM 749, 419, 0.21079632679489488
ODOM 750, 419, 0.21079632679489488
ODOM 751, 419, 0.21079632679489488
ODOM 752, 418, 0.21079632679489488
ODOM 753, 418, 0.21079632679489488
ODOM 754, 418, 0.21079632679489488
ODOM 755, 418, 0.21079632679489488
ODOM 756, 418, 0.21079632679489488
ODOM 757, 417, 0.21079632679489488
ODOM 758, 417, 0.21079632679489488
ODOM 759, 417, 0.21079632679489488
ODOM 760, 417, 0.21079632679489488
ODOM 761, 416, 0.21079632679489488
ODOM 762, 416, 0.21079632679489488
ODOM 763, 416, 0.21079632679489488
ODOM 764, 416, 0.21079632679489488
ODOM 765, 416, 0.21079632679489488
ODOM 766, 415, 0.21079632679489488
ODOM 767, 415, 0.21079632679489488
ODOM 768, 415, 0.21079632679489488
ODOM 769, 415, 0.21079632679489488
ODOM 770, 415, 0.21079632679489488
ODOM 770, 414, 0.21079632679489488
ODOM 771, 414, 0.21079632679489488
ODOM 772, 414, 0.21079632679489488
ODOM 773, 414, 0.21079632679489488
ODOM 774, 414, 0.21079632679489488
ODOM 775, 413, 0.21079632679489488
ODOM 776, 413, 0.21079632679489488
ODOM 777, 413, 0.21079632679489488
ODOM 778, 413, 0.21079632679489488
ODOM 779, 412, 0.21079632679489488
ODOM 780, 412, 0.21079632679489488
ODOM 781, 412, 0.21079632679489488
ODOM 782, 412, 0.21079632679489488
ODOM 783, 412, 0.21079632679489488
ODOM 784, 411, 0.21079632679489488
ODOM 785, 411, 0.21079632679489488
ODOM 786, 411, 0.21079632679489488
ODOM 787, 411, 0.21079632679489488
ODOM 788, 411, 0.21079632679489488
ODOM 789, 410, 0.21079632679489488
ODOM 790, 410, 0.21079632679489488
ODOM 791, 410, 0.21079632679489488
ODOM 792, 410, 0.21079632679489488
ODOM 793, 410, 0.21079632679489488
ODOM 794, 409, 0.21079632679489488
ODOM 795, 409, 0.21079632679489488
ODOM 796, 409, 0.21079632679489488
ODOM 797, 409, 0.21079632679489488
ODOM 798, 409, 0.21079632679489488
ODOM 799, 408, 0.21079632679489488
ODOM 800, 408, 0.21079632679489488
ODOM 801, 408, 0.21079632679489488
ODOM 802, 408, 0.21079632679489488
ODOM 803, 407, 0.21079632679489488
ODOM 804, 407, 0.21079632679489488
ODOM 805, 407, 0.21079632679489488
ODOM 806, 407, 0.21079632679489488
ODOM 807, 407, 0.21079632679489488
ODOM 808, 406, 0.21079632679489488
ODOM 809, 406, 0.21079632679489488
ODOM 810, 406, 0.21079632679489488
ODOM 811, 406, 0.21079632679489488
ODOM 812, 406, 0.21079632679489488
ODOM 813, 405, 0.21079632679489488
ODOM 814, 405, 0.21079632679489488
ODOM 814, 405, 0.21079632679489488
ODOM 815, 405, 0.21079632679489488
ODOM 816, 405, 0.21079632679489488
ODOM 817, 404, 0.21079632679489488
ODOM 818, 404, 0.21079632679489488
ODOM 819, 404, 0.21079632679489488
ODOM 820, 404, 0.21079632679489488
ODOM 821, 404, 0.21079632679489488
ODOM 822, 403, 0.21079632679489488
ODOM 823, 403, 0.21079632679489488
ODOM 824, 403, 0.21079632679489488
ODOM 825, 403, 0.21079632679489488
ODOM 826, 402, 0.21079632679489488
ODOM 827, 402, 0.21079632679489488
ODOM 828, 402, 0.21079632679489488
ODOM 829, 402, 0.21079632679489488
ODOM 830, 402, 0.21079632679489488
ODOM 831, 401, 0.21079632679489488
ODOM 832, 401, 0.21079632679489488
ODOM 833, 401, 0.21079632679489488
ODOM 834, 401, 0.21079632679489488
ODOM 835, 401, 0.21079632679489488
ODOM 836, 400, 0.21079632679489488
ODOM 837, 400, 0.21079632679489488
ODOM 838, 400, 0.21079632679489488
ODOM 839, 400, 0.21079632679489488
ODOM 840, 400, 0.21079632679489488
ODOM 841, 399, 0.21079632679489488
ODOM 842, 399, 0.21079632679489488
ODOM 843, 399, 0.21079632679489488
ODOM 844, 399, 0.21079632679489488
ODOM 845, 398, 0.21079632679489488
ODOM 846, 398, 0.21079632679489488
ODOM 847, 398, 0.21079632679489488
ODOM 848, 398, 0.21079632679489488
ODOM 849, 398, 0.21079632679489488
ODOM 850, 397, 0.21079632679489488
ODOM 851, 397, 0.21079632679489488
ODOM 852, 397, 0.21079632679489488
ODOM 853, 397, 0.21079632679489488
ODOM 854, 397, 0.21079632679489488
ODOM 855, 396, 0.21079632679489488
