x_meters, y_meters, heading_rad
ODOM 1.0, 1.0, 1.5707963267948966
ODOM 1.0, 1.0, 1.5707963267948966
ODOM 1.0, 1.0, 1.5707963267948966
ODOM 1.0, 1.0, 1.5707963267948966
ODOM 1.0, 1.0, 1.5707963267948966
ODOM 1.0, 1.0, 1.5707963267948966
ODOM 1.0, 1.0, 1.5707963267948966
ODOM 1.0, 1.0, 1.5707963267948966
ODOM 1.0, 1.0, 1.5707963267948966
ODOM 1.0, 1.0, 1.5707963267948966
ODOM 1.0, 1.0, 1.5707963267948966
ODOM 1.0, 1.0, 1.5707963267948966
ODOM 1.0, 1.0, 1.5707963267948966
ODOM 1.0, 1.0, 1.5707963267948966
ODOM 1.0, 1.0, 1.5707963267948966
ODOM 1.0, 1.0, 1.5707963267948966
ODOM 1.0, 1.0, 1.5707963267948966
ODOM 1.0, 1.0, 1.5707963267948966
ODOM 1.0, 1.0, 1.5707963267948966
ODOM 1.0, 1.0, 1.5707963267948966
ODOM 1.0, 1.0, 1.5707963267948966
ODOM 1.0, 1.0, 1.5707963267948966
ODOM 1.0, 1.0, 1.5707963267948966
ODOM 1.0, 1.0, 1.5707963267948966
ODOM 1.0, 1.0, 1.5707963267948966
ODOM 1.0, 1.0, 1.5707963267948966
ODOM 1.0, 1.0, 1.5707963267948966
ODOM 1.0, 1.0, 1.5707963267948966
ODOM 1.0, 1.0, 1.5707963267948966
ODOM 1.0, 1.0, 1.5707963267948966
ODOM 1.0, 1.0, 1.5707963267948966
ODOM 1.0, 1.0, 1.5707963267948966
ODOM 1.0, 1.0, 1.5707963267948966
ODOM 1.0, 1.0, 1.5707963267948966
ODOM 1.0, 1.0, 1.5707963267948966
ODOM 1.0, 1.0, 1.5707963267948966
ODOM 1.0, 1.0, 1.5707963267948966
ODOM 1.0, 1.0, 1.5707963267948966
ODOM 1.0, 1.0, 1.5707963267948966
ODOM 1.0, 1.0, 1.5707963267948966
ODOM 1.0, 1.0, 1.5707963267948966
ODOM 1.0, 1.0, 1.5707963267948966
ODOM 1.0, 1.0, 1.5707963267948966
ODOM 1.0, 1.0, 1.5707963267948966
ODOM 1.0, 1.0, 1.5707963267948966
ODOM 1.0, 1.0, 1.5707963267948966
ODOM 1.0, 1.0, 1.5707963267948966
ODOM 1.0, 1.0, 1.5707963267948966
ODOM 1.0, 1.0, 1.5707963267948966
ODOM 1.0, 1.0, 1.5707963267948966
ODOM 1.0, 1.0, 1.5707963267948966
ODOM 1.0, 1.0, 1.5707963267948966
ODOM 1.0, 1.0, 1.5707963267948966
ODOM 1.0, 1.0, 1.5707963267948966
ODOM 1.0, 1.0, 1.5707963267948966
ODOM 1.0, 1.0, 1.5707963267948966
ODOM 1.0, 1.0, 1.5707963267948966
ODOM 1.0, 1.0, 1.5707963267948966
ODOM 1.0, 1.0, 1.5707963267948966
ODOM 1.0, 1.0, 1.5707963267948966
ODOM 1.0, 1.0, 1.5707963267948966
ODOM 1.0, 1.0, 1.5707963267948966
ODOM 1.0, 1.0, 1.5707963267948966
ODOM 1.0, 1.0, 1.5707963267948966
ODOM 1.0, 1.0, 1.5707963267948966
ODOM 1.0, 1.0, 1.5707963267948966
ODOM 1.0, 1.0, 1.5707963267948966
ODOM 1.0, 1.0, 1.5707963267948966
ODOM 1.0, 1.0, 1.5707963267948966
ODOM 1.0, 1.0, 1.5707963267948966
ODOM 1.0, 1.0, 1.5707963267948966
ODOM 1.0, 1.0, 1.5707963267948966
ODOM 1.0, 1.0, 1.5707963267948966
ODOM 1.0, 1.0, 1.5707963267948966
ODOM 1.0, 1.0, 1.5707963267948966
ODOM 1.0, 1.0, 1.5707963267948966
ODOM 1.0, 1.0, 1.5707963267948966
ODOM 1.0, 1.0, 1.5707963267948966
ODOM 1.0, 1.0, 1.5707963267948966
ODOM 1.0, 1.0, 1.5507963267948965
ODOM 1.0, 1.0, 1.5307963267948965
ODOM 1.0, 1.0, 1.5107963267948965
ODOM 1.0, 1.0, 1.4907963267948965
ODOM 1.0, 1.0, 1.4707963267948965
ODOM 1.0, 1.0, 1.4507963267948965
ODOM 1.0, 1.0, 1.4307963267948964
ODOM 1.0, 1.0, 1.4107963267948964
ODOM 1.0, 1.0, 1.3907963267948964
ODOM 1.0, 1.0, 1.3707963267948964
ODOM 1.0, 1.0, 1.3507963267948964
ODOM 1.0, 1.0, 1.3307963267948963
ODOM 1.0, 1.0, 1.3107963267948963
ODOM 1.0, 1.0, 1.2907963267948963
ODOM 1.0, 1.0, 1.2707963267948963
ODOM 1.0, 1.0, 1.2507963267948963
ODOM 1.0, 1.0, 1.2307963267948963
ODOM 1.0, 1.0, 1.2107963267948962
ODOM 1.0, 1.0, 1.1907963267948962
ODOM 1.0, 1.0, 1.1707963267948962
ODOM 1.0, 1.0, 1.1507963267948962
ODOM 1.0, 1.0, 1.1307963267948962
ODOM 1.0, 1.0, 1.1107963267948961
ODOM 1.0, 1.0, 1.0907963267948961
ODOM 1.0, 1.0, 1.0707963267948961
ODOM 1.0, 1.0, 1.050796326794896
ODOM 1.0, 1.0, 1.030796326794896
ODOM 1.0, 1.0, 1.010796326794896
ODOM 1.0, 1.0, 0.990796326794896
ODOM 1.0, 1.0, 0.970796326794896
ODOM 1.0, 1.0, 0.950796326794896
ODOM 1.0, 1.0, 0.930796326794896
ODOM 1.0, 1.0, 0.910796326794896
ODOM 1.0, 1.0, 0.890796326794896
ODOM 1.0, 1.0, 0.8707963267948959
ODOM 1.0, 1.0, 0.8507963267948959
ODOM 1.0, 1.0, 0.8307963267948959
ODOM 1.0, 1.0, 0.8107963267948959
ODOM 1.0, 1.0, 0.7907963267948959
ODOM 1.0, 1.0, 0.7707963267948957
ODOM 1.0, 1.0, 0.7507963267948957
ODOM 1.0, 1.0, 0.7307963267948957
ODOM 1.0, 1.0, 0.7107963267948957
ODOM 1.0, 1.0, 0.6907963267948957
ODOM 1.0, 1.0, 0.6707963267948956
ODOM 1.0, 1.0, 0.6507963267948956
ODOM 1.0, 1.0, 0.6307963267948956
ODOM 1.0, 1.0, 0.6107963267948956
ODOM 1.0, 1.0, 0.5907963267948956
ODOM 1.0, 1.0, 0.5707963267948956
ODOM 1.0, 1.0, 0.5507963267948955
ODOM 1.0, 1.0, 0.5307963267948955
ODOM 1.0, 1.0, 0.5107963267948955
ODOM 1.0, 1.0, 0.4907963267948955
ODOM 1.0, 1.0, 0.47079632679489547
ODOM 1.0, 1.0, 0.4507963267948954
ODOM 1.0, 1.0, 0.4307963267948954
ODOM 1.0, 1.0, 0.41079632679489536
ODOM 1.0, 1.0, 0.3907963267948953
ODOM 1.0, 1.0, 0.37079632679489527
ODOM 1.0, 1.0, 0.35079632679489525
ODOM 1.0, 1.0, 0.3307963267948953
ODOM 1.0, 1.0, 0.3107963267948953
ODOM 1.0, 1.0, 0.29079632679489525
ODOM 1.0, 1.0, 0.27079632679489524
ODOM 1.0, 1.0, 0.2507963267948952
ODOM 1.0, 1.0, 0.2507963267948952
ODOM 1.0, 1.0, 0.2507963267948952
ODOM 1.0, 1.0, 0.2507963267948952
ODOM 1.0, 1.0, 0.2507963267948952
ODOM 1.0, 1.0, 0.2507963267948952
ODOM 1.0, 1.0, 0.2507963267948952
ODOM 1.0, 1.0, 0.2507963267948952
ODOM 1.0, 1.0, 0.2507963267948952
ODOM 1.0, 1.0, 0.2507963267948952
ODOM 1.0, 1.0, 0.2507963267948952
ODOM 1.0, 1.0, 0.23079632679489523
ODOM 1.0, 1.0, 0.21079632679489524
ODOM 1.0, 1.0, 0.19079632679489525
ODOM 1.0, 1.0, 0.17079632679489526
ODOM 1.0, 1.0, 0.1507963267948953
ODOM 1.0, 1.0, 0.1307963267948953
ODOM 1.0, 1.0, 0.11079632679489532
ODOM 1.0, 1.0, 0.11079632679489532
ODOM 1.0, 1.0, 0.11079632679489532
ODOM 1.0, 1.0, 0.11079632679489532
ODOM 1.0, 1.0, 0.11079632679489532
ODOM 1.0, 1.0, 0.11079632679489532
ODOM 1.0, 1.0, 0.11079632679489532
ODOM 1.0, 1.0, 0.09079632679489533
ODOM 1.0, 1.0, 0.07079632679489534
ODOM 1.0, 1.0, 0.05079632679489534
ODOM 1.0, 1.0, 0.030796326794895343
ODOM 1.0, 1.0, 0.010796326794895346
ODOM 1.0, 1.0, 0.010796326794895346
ODOM 1.0, 1.0, 0.010796326794895346
ODOM 1.0, 1.0, 0.010796326794895346
ODOM 1.0, 1.0, 0.010796326794895346
ODOM 1.0, 1.0, 0.010796326794895346
ODOM 1.0, 1.0, 0.010796326794895346
ODOM 1.0, 1.0, 0.010796326794895346
ODOM 1.0, 1.0, 0.010796326794895346
ODOM 1.0, 1.0, 0.010796326794895346
ODOM 1.0, 1.0, 0.010796326794895346
ODOM 1.0, 1.0, 0.010796326794895346
ODOM 1.0, 1.0, 0.010796326794895346
ODOM 1.0, 1.0, 0.010796326794895346
ODOM 1.0, 1.0, 0.010796326794895346
ODOM 1.0, 1.0, 0.010796326794895346
ODOM 1.0, 1.0, 0.010796326794895346
ODOM 1.0, 1.0, 0.010796326794895346
ODOM 1.0, 1.0, 0.010796326794895346
ODOM 1.0, 1.0, 0.010796326794895346
ODOM 1.0, 1.0, 0.010796326794895346
ODOM 1.0, 1.0, 0.010796326794895346
ODOM 1.0, 1.0, 0.010796326794895346
ODOM 1.0, 1.0, 0.010796326794895346
ODOM 1.0, 1.0, 0.010796326794895346
ODOM 1.0, 1.0, 0.010796326794895346
ODOM 1.0, 1.0, 0.010796326794895346
ODOM 1.0, 1.0, 0.010796326794895346
ODOM 1.0, 1.0, 0.010796326794895346
ODOM 1.0, 1.0, 0.010796326794895346
ODOM 1.0, 1.0, 0.010796326794895346
ODOM 1.0, 1.0, 0.010796326794895346
ODOM 1.0, 1.0, 0.010796326794895346
ODOM 1.0, 1.0, 0.010796326794895346
ODOM 1.0, 1.0, 0.010796326794895346
ODOM 1.0, 1.0, 0.010796326794895346
ODOM 1.0, 1.0, 0.010796326794895346
ODOM 1.0, 1.0, 0.010796326794895346
ODOM 1.0, 1.0, 0.010796326794895346
ODOM 1.0, 1.0, 0.010796326794895346
ODOM 1.0, 1.0, 0.010796326794895346
ODOM 1.0, 1.0, 0.010796326794895346
ODOM 1.0, 1.0, 0.010796326794895346
ODOM 1.0, 1.0, 0.010796326794895346
ODOM 1.0, 1.02, 0.010796326794895346
ODOM 1.02, 1.02, 0.010796326794895346
ODOM 1.04, 1.02, 0.010796326794895346
ODOM 1.06, 1.02, 0.010796326794895346
ODOM 1.08, 1.02, 0.010796326794895346
ODOM 1.1, 1.02, 0.010796326794895346
ODOM 1.12, 1.02, 0.010796326794895346
ODOM 1.1400000000000001, 1.02, 0.010796326794895346
ODOM 1.16, 1.02, 0.010796326794895346
ODOM 1.18, 1.02, 0.010796326794895346
ODOM 1.2, 1.02, 0.010796326794895346
ODOM 1.22, 1.02, 0.010796326794895346
ODOM 1.24, 1.02, 0.010796326794895346
ODOM 1.26, 1.02, 0.010796326794895346
ODOM 1.28, 1.02, 0.010796326794895346
ODOM 1.3, 1.02, 0.010796326794895346
ODOM 1.32, 1.02, 0.010796326794895346
ODOM 1.34, 1.02, 0.010796326794895346
ODOM 1.36, 1.02, 0.010796326794895346
ODOM 1.3800000000000001, 1.02, 0.010796326794895346
ODOM 1.4000000000000001, 1.02, 0.010796326794895346
ODOM 1.42, 1.02, 0.010796326794895346
ODOM 1.44, 1.02, 0.010796326794895346
ODOM 1.46, 1.02, 0.010796326794895346
ODOM 1.48, 1.02, 0.010796326794895346
ODOM 1.5, 1.02, 0.010796326794895346
ODOM 1.52, 1.02, 0.010796326794895346
ODOM 1.54, 1.02, 0.010796326794895346
ODOM 1.56, 1.02, 0.010796326794895346
ODOM 1.58, 1.02, 0.010796326794895346
ODOM 1.6, 1.02, 0.010796326794895346
ODOM 1.62, 1.02, 0.010796326794895346
ODOM 1.6400000000000001, 1.02, 0.010796326794895346
ODOM 1.6600000000000001, 1.02, 0.010796326794895346
ODOM 1.68, 1.02, 0.010796326794895346
ODOM 1.7, 1.02, 0.010796326794895346
ODOM 1.72, 1.02, 0.010796326794895346
ODOM 1.74, 1.02, 0.010796326794895346
ODOM 1.76, 1.02, 0.010796326794895346
ODOM 1.78, 1.02, 0.010796326794895346
ODOM 1.8, 1.02, 0.010796326794895346
ODOM 1.82, 1.02, 0.010796326794895346
ODOM 1.84, 1.02, 0.010796326794895346
ODOM 1.86, 1.02, 0.010796326794895346
ODOM 1.8800000000000001, 1.02, 0.010796326794895346
ODOM 1.9000000000000001, 1.02, 0.010796326794895346
ODOM 1.92, 1.02, 0.010796326794895346
ODOM 1.94, 1.02, 0.010796326794895346
ODOM 1.96, 1.02, 0.010796326794895346
ODOM 1.98, 1.02, 0.010796326794895346
ODOM 2.0, 1.02, 0.010796326794895346
ODOM 2.02, 1.02, 0.010796326794895346
ODOM 2.04, 1.02, 0.010796326794895346
ODOM 2.06, 1.02, 0.010796326794895346
ODOM 2.08, 1.02, 0.010796326794895346
ODOM 2.1, 1.02, 0.010796326794895346
ODOM 2.12, 1.02, 0.010796326794895346
ODOM 2.14, 1.02, 0.010796326794895346
ODOM 2.16, 1.02, 0.010796326794895346
ODOM 2.18, 1.02, 0.010796326794895346
ODOM 2.2, 1.02, 0.010796326794895346
ODOM 2.22, 1.02, 0.010796326794895346
ODOM 2.24, 1.02, 0.010796326794895346
ODOM 2.2600000000000002, 1.02, 0.010796326794895346
ODOM 2.2800000000000002, 1.02, 0.010796326794895346
ODOM 2.3000000000000003, 1.02, 0.010796326794895346
ODOM 2.32, 1.02, 0.010796326794895346
ODOM 2.34, 1.02, 0.010796326794895346
ODOM 2.36, 1.02, 0.010796326794895346
ODOM 2.38, 1.02, 0.010796326794895346
ODOM 2.4, 1.02, 0.010796326794895346
ODOM 2.42, 1.02, -0.009203673205104651
ODOM 2.44, 1.02, -0.029203673205104648
ODOM 2.46, 1.02, -0.049203673205104645
ODOM 2.48, 1.02, -0.06920367320510465
ODOM 2.5, 1.02, -0.08920367320510464
ODOM 2.52, 1.02, -0.10920367320510463
ODOM 2.54, 1.02, -0.10920367320510463
ODOM 2.56, 1.02, -0.10920367320510463
ODOM 2.58, 1.02, -0.10920367320510463
ODOM 2.6, 1.02, -0.10920367320510463
ODOM 2.62, 1.0, -0.10920367320510463
ODOM 2.64, 1.0, -0.10920367320510463
ODOM 2.66, 1.0, -0.10920367320510463
ODOM 2.68, 1.0, -0.10920367320510463
ODOM 2.7, 1.0, -0.10920367320510463
ODOM 2.72, 1.0, -0.10920367320510463
ODOM 2.74, 1.0, -0.10920367320510463
ODOM 2.7600000000000002, 1.0, -0.10920367320510463
ODOM 2.7800000000000002, 1.0, -0.10920367320510463
ODOM 2.8000000000000003, 0.98, -0.10920367320510463
ODOM 2.82, 0.98, -0.10920367320510463
ODOM 2.84, 0.98, -0.10920367320510463
ODOM 2.86, 0.98, -0.10920367320510463
ODOM 2.88, 0.98, -0.10920367320510463
ODOM 2.9, 0.98, -0.10920367320510463
ODOM 2.92, 0.98, -0.10920367320510463
ODOM 2.94, 0.98, -0.10920367320510463
ODOM 2.96, 0.98, -0.10920367320510463
ODOM 2.98, 0.96, -0.10920367320510463
ODOM 3.0, 0.96, -0.10920367320510463
ODOM 3.02, 0.96, -0.10920367320510463
ODOM 3.04, 0.96, -0.10920367320510463
ODOM 3.06, 0.96, -0.10920367320510463
ODOM 3.08, 0.96, -0.10920367320510463
ODOM 3.1, 0.96, -0.10920367320510463
ODOM 3.12, 0.96, -0.10920367320510463
ODOM 3.14, 0.96, -0.10920367320510463
ODOM 3.16, 0.9400000000000001, -0.10920367320510463
ODOM 3.18, 0.9400000000000001, -0.10920367320510463
ODOM 3.2, 0.9400000000000001, -0.10920367320510463
ODOM 3.22, 0.9400000000000001, -0.10920367320510463
ODOM 3.24, 0.9400000000000001, -0.10920367320510463
ODOM 3.2600000000000002, 0.9400000000000001, -0.10920367320510463
ODOM 3.2800000000000002, 0.9400000000000001, -0.10920367320510463
ODOM 3.3000000000000003, 0.9400000000000001, -0.10920367320510463
ODOM 3.3200000000000003, 0.9400000000000001, -0.10920367320510463
ODOM 3.34, 0.9400000000000001, -0.10920367320510463
ODOM 3.36, 0.92, -0.10920367320510463
ODOM 3.38, 0.92, -0.10920367320510463
ODOM 3.4, 0.92, -0.10920367320510463
ODOM 3.42, 0.92, -0.10920367320510463
ODOM 3.44, 0.92, -0.10920367320510463
ODOM 3.46, 0.92, -0.10920367320510463
ODOM 3.48, 0.92, -0.10920367320510463
ODOM 3.5, 0.92, -0.10920367320510463
ODOM 3.52, 0.92, -0.10920367320510463
ODOM 3.54, 0.9, -0.10920367320510463
ODOM 3.56, 0.9, -0.10920367320510463
ODOM 3.58, 0.9, -0.10920367320510463
ODOM 3.6, 0.9, -0.10920367320510463
ODOM 3.62, 0.9, -0.10920367320510463
ODOM 3.64, 0.9, -0.10920367320510463
ODOM 3.66, 0.9, -0.10920367320510463
ODOM 3.68, 0.9, -0.10920367320510463
ODOM 3.7, 0.9, -0.10920367320510463
ODOM 3.72, 0.88, -0.10920367320510463
ODOM 3.74, 0.88, -0.10920367320510463
ODOM 3.7600000000000002, 0.88, -0.10920367320510463
ODOM 3.7800000000000002, 0.88, -0.10920367320510463
ODOM 3.8000000000000003, 0.88, -0.10920367320510463
ODOM 3.8200000000000003, 0.88, -0.10920367320510463
ODOM 3.84, 0.88, -0.10920367320510463
ODOM 3.86, 0.88, -0.10920367320510463
ODOM 3.88, 0.88, -0.10920367320510463
ODOM 3.9, 0.86, -0.10920367320510463
ODOM 3.92, 0.86, -0.10920367320510463
ODOM 3.94, 0.86, -0.10920367320510463
ODOM 3.96, 0.86, -0.10920367320510463
ODOM 3.98, 0.86, -0.10920367320510463
ODOM 4.0, 0.86, -0.10920367320510463
ODOM 4.0200000000000005, 0.86, -0.10920367320510463
ODOM 4.04, 0.86, -0.10920367320510463
ODOM 4.0600000000000005, 0.86, -0.10920367320510463
ODOM 4.08, 0.84, -0.10920367320510463
ODOM 4.1, 0.84, -0.10920367320510463
ODOM 4.12, 0.84, -0.10920367320510463
ODOM 4.14, 0.84, -0.10920367320510463
ODOM 4.16, 0.84, -0.10920367320510463
ODOM 4.18, 0.84, -0.10920367320510463
ODOM 4.2, 0.84, -0.10920367320510463
ODOM 4.22, 0.84, -0.10920367320510463
ODOM 4.24, 0.84, -0.10920367320510463
ODOM 4.26, 0.8200000000000001, -0.10920367320510463
ODOM 4.28, 0.8200000000000001, -0.10920367320510463
ODOM 4.3, 0.8200000000000001, -0.10920367320510463
ODOM 4.32, 0.8200000000000001, -0.10920367320510463
ODOM 4.34, 0.8200000000000001, -0.10920367320510463
ODOM 4.36, 0.8200000000000001, -0.10920367320510463
ODOM 4.38, 0.8200000000000001, -0.10920367320510463
ODOM 4.4, 0.8200000000000001, -0.10920367320510463
ODOM 4.42, 0.8200000000000001, -0.10920367320510463
ODOM 4.44, 0.8200000000000001, -0.10920367320510463
ODOM 4.46, 0.8, -0.10920367320510463
ODOM 4.48, 0.8, -0.10920367320510463
ODOM 4.5, 0.8, -0.10920367320510463
ODOM 4.5200000000000005, 0.8, -0.10920367320510463
ODOM 4.54, 0.8, -0.10920367320510463
ODOM 4.5600000000000005, 0.8, -0.10920367320510463
ODOM 4.58, 0.8, -0.10920367320510463
ODOM 4.6000000000000005, 0.8, -0.10920367320510463
ODOM 4.62, 0.8, -0.10920367320510463
ODOM 4.64, 0.78, -0.10920367320510463
ODOM 4.66, 0.78, -0.10920367320510463
ODOM 4.68, 0.78, -0.10920367320510463
ODOM 4.7, 0.78, -0.10920367320510463
ODOM 4.72, 0.78, -0.10920367320510463
ODOM 4.74, 0.78, -0.10920367320510463
ODOM 4.76, 0.78, -0.10920367320510463
ODOM 4.78, 0.78, -0.10920367320510463
ODOM 4.8, 0.78, -0.10920367320510463
ODOM 4.82, 0.76, -0.10920367320510463
ODOM 4.84, 0.76, -0.10920367320510463
ODOM 4.86, 0.76, -0.10920367320510463
ODOM 4.88, 0.76, -0.10920367320510463
ODOM 4.9, 0.76, -0.10920367320510463
ODOM 4.92, 0.76, -0.10920367320510463
ODOM 4.94, 0.76, -0.10920367320510463
ODOM 4.96, 0.76, -0.10920367320510463
ODOM 4.98, 0.76, -0.10920367320510463
ODOM 5.0, 0.74, -0.10920367320510463
ODOM 5.0200000000000005, 0.74, -0.10920367320510463
ODOM 5.04, 0.74, -0.10920367320510463
ODOM 5.0600000000000005, 0.74, -0.10920367320510463
ODOM 5.08, 0.74, -0.10920367320510463
ODOM 5.1000000000000005, 0.74, -0.10920367320510463
ODOM 5.12, 0.74, -0.10920367320510463
ODOM 5.14, 0.74, -0.10920367320510463
ODOM 5.16, 0.74, -0.10920367320510463
ODOM 5.18, 0.72, -0.10920367320510463
ODOM 5.2, 0.72, -0.10920367320510463
ODOM 5.22, 0.72, -0.10920367320510463
ODOM 5.24, 0.72, -0.10920367320510463
ODOM 5.26, 0.72, -0.10920367320510463
ODOM 5.28, 0.72, -0.10920367320510463
ODOM 5.3, 0.72, -0.10920367320510463
ODOM 5.32, 0.72, -0.10920367320510463
ODOM 5.34, 0.72, -0.10920367320510463
ODOM 5.36, 0.7000000000000001, -0.10920367320510463
ODOM 5.38, 0.7000000000000001, -0.10920367320510463
ODOM 5.4, 0.7000000000000001, -0.10920367320510463
ODOM 5.42, 0.7000000000000001, -0.10920367320510463
ODOM 5.44, 0.7000000000000001, -0.10920367320510463
ODOM 5.46, 0.7000000000000001, -0.12920367320510462
ODOM 5.48, 0.7000000000000001, -0.1492036732051046
ODOM 5.5, 0.7000000000000001, -0.1692036732051046
ODOM 5.5200000000000005, 0.68, -0.1692036732051046
ODOM 5.54, 0.68, -0.1692036732051046
ODOM 5.5600000000000005, 0.68, -0.1692036732051046
ODOM 5.58, 0.68, -0.1692036732051046
ODOM 5.6000000000000005, 0.68, -0.1692036732051046
ODOM 5.62, 0.68, -0.1692036732051046
ODOM 5.62, 0.66, -0.1692036732051046
ODOM 5.64, 0.66, -0.1692036732051046
ODOM 5.66, 0.66, -0.1692036732051046
ODOM 5.68, 0.66, -0.1692036732051046
ODOM 5.7, 0.66, -0.1692036732051046
ODOM 5.72, 0.66, -0.1692036732051046
ODOM 5.74, 0.64, -0.1692036732051046
ODOM 5.76, 0.64, -0.1692036732051046
ODOM 5.78, 0.64, -0.1692036732051046
ODOM 5.8, 0.64, -0.1692036732051046
ODOM 5.82, 0.64, -0.1692036732051046
ODOM 5.84, 0.64, -0.1692036732051046
ODOM 5.86, 0.62, -0.1692036732051046
ODOM 5.88, 0.62, -0.1692036732051046
ODOM 5.9, 0.62, -0.1692036732051046
ODOM 5.92, 0.62, -0.1692036732051046
ODOM 5.94, 0.62, -0.1692036732051046
ODOM 5.96, 0.62, -0.1692036732051046
ODOM 5.98, 0.6, -0.1692036732051046
ODOM 6.0, 0.6, -0.1692036732051046
ODOM 6.0200000000000005, 0.6, -0.1492036732051046
ODOM 6.04, 0.6, -0.12920367320510462
ODOM 6.0600000000000005, 0.6, -0.10920367320510463
ODOM 6.08, 0.6, -0.08920367320510464
ODOM 6.1000000000000005, 0.6, -0.06920367320510465
ODOM 6.12, 0.6, -0.04920367320510465
ODOM 6.140000000000001, 0.6, -0.029203673205104655
ODOM 6.16, 0.6, -0.009203673205104658
ODOM 6.18, 0.6, -0.009203673205104658
ODOM 6.2, 0.6, -0.009203673205104658
ODOM 6.22, 0.6, -0.009203673205104658
ODOM 6.24, 0.6, -0.009203673205104658
ODOM 6.26, 0.6, -0.009203673205104658
ODOM 6.28, 0.58, -0.009203673205104658
ODOM 6.3, 0.58, -0.009203673205104658
ODOM 6.32, 0.58, -0.009203673205104658
ODOM 6.34, 0.58, -0.009203673205104658
ODOM 6.36, 0.58, -0.009203673205104658
ODOM 6.38, 0.58, -0.009203673205104658
ODOM 6.4, 0.58, -0.009203673205104658
ODOM 6.42, 0.58, -0.009203673205104658
ODOM 6.44, 0.58, -0.009203673205104658
ODOM 6.46, 0.58, -0.009203673205104658
ODOM 6.48, 0.58, -0.009203673205104658
ODOM 6.5, 0.58, -0.009203673205104658
ODOM 6.5200000000000005, 0.58, -0.009203673205104658
ODOM 6.54, 0.58, -0.009203673205104658
ODOM 6.5600000000000005, 0.58, -0.009203673205104658
ODOM 6.58, 0.58, -0.009203673205104658
ODOM 6.6000000000000005, 0.58, -0.009203673205104658
ODOM 6.62, 0.58, -0.009203673205104658
ODOM 6.640000000000001, 0.58, -0.009203673205104658
ODOM 6.66, 0.58, -0.009203673205104658
ODOM 6.68, 0.58, -0.009203673205104658
ODOM 6.7, 0.58, -0.009203673205104658
ODOM 6.72, 0.58, -0.009203673205104658
ODOM 6.74, 0.58, -0.009203673205104658
ODOM 6.76, 0.58, -0.009203673205104658
ODOM 6.78, 0.58, -0.009203673205104658
ODOM 6.8, 0.58, -0.009203673205104658
ODOM 6.82, 0.58, -0.009203673205104658
ODOM 6.84, 0.58, -0.009203673205104658
ODOM 6.86, 0.58, -0.009203673205104658
ODOM 6.88, 0.58, -0.009203673205104658
ODOM 6.9, 0.58, -0.009203673205104658
ODOM 6.92, 0.58, -0.009203673205104658
ODOM 6.94, 0.58, -0.009203673205104658
ODOM 6.96, 0.58, -0.009203673205104658
ODOM 6.98, 0.58, -0.009203673205104658
ODOM 7.0, 0.58, -0.009203673205104658
ODOM 7.0200000000000005, 0.58, -0.009203673205104658
ODOM 7.04, 0.58, -0.009203673205104658
ODOM 7.0600000000000005, 0.58, -0.009203673205104658
ODOM 7.08, 0.58, -0.009203673205104658
ODOM 7.1000000000000005, 0.58, -0.009203673205104658
ODOM 7.12, 0.58, -0.029203673205104655
ODOM 7.140000000000001, 0.58, -0.04920367320510465
ODOM 7.16, 0.58, -0.06920367320510465
ODOM 7.18, 0.58, -0.08920367320510464
ODOM 7.2, 0.58, -0.10920367320510463
ODOM 7.22, 0.58, -0.12920367320510462
ODOM 7.24, 0.58, -0.1492036732051046
ODOM 7.26, 0.56, -0.1692036732051046
ODOM 7.28, 0.56, -0.1892036732051046
ODOM 7.3, 0.56, -0.1892036732051046
ODOM 7.32, 0.56, -0.1892036732051046
ODOM 7.34, 0.56, -0.1892036732051046
ODOM 7.36, 0.54, -0.1892036732051046
ODOM 7.38, 0.54, -0.1892036732051046
ODOM 7.4, 0.54, -0.1892036732051046
ODOM 7.42, 0.54, -0.1892036732051046
ODOM 7.44, 0.54, -0.1892036732051046
ODOM 7.46, 0.54, -0.1892036732051046
ODOM 7.48, 0.52, -0.1892036732051046
ODOM 7.5, 0.52, -0.1892036732051046
ODOM 7.5200000000000005, 0.52, -0.1892036732051046
ODOM 7.54, 0.52, -0.1892036732051046
ODOM 7.5600000000000005, 0.52, -0.1892036732051046
ODOM 7.58, 0.5, -0.1892036732051046
ODOM 7.6000000000000005, 0.5, -0.1892036732051046
ODOM 7.62, 0.5, -0.1692036732051046
ODOM 7.640000000000001, 0.5, -0.1492036732051046
ODOM 7.66, 0.5, -0.12920367320510462
ODOM 7.68, 0.5, -0.10920367320510463
ODOM 7.7, 0.5, -0.08920367320510464
ODOM 7.72, 0.48, -0.06920367320510465
ODOM 7.74, 0.48, -0.04920367320510465
ODOM 7.76, 0.48, -0.029203673205104655
ODOM 7.78, 0.48, -0.009203673205104658
ODOM 7.8, 0.48, -0.009203673205104658
ODOM 7.82, 0.48, -0.009203673205104658
ODOM 7.84, 0.48, -0.009203673205104658
ODOM 7.86, 0.48, -0.009203673205104658
ODOM 7.88, 0.48, -0.009203673205104658
ODOM 7.9, 0.48, -0.009203673205104658
ODOM 7.92, 0.48, -0.009203673205104658
ODOM 7.94, 0.48, -0.009203673205104658
ODOM 7.96, 0.48, -0.009203673205104658
ODOM 7.98, 0.48, -0.009203673205104658
ODOM 8.0, 0.48, -0.009203673205104658
ODOM 8.02, 0.48, -0.009203673205104658
ODOM 8.040000000000001, 0.48, -0.009203673205104658
ODOM 8.06, 0.48, -0.009203673205104658
ODOM 8.08, 0.48, -0.009203673205104658
ODOM 8.1, 0.48, -0.009203673205104658
ODOM 8.120000000000001, 0.48, -0.009203673205104658
ODOM 8.14, 0.48, -0.009203673205104658
ODOM 8.16, 0.48, -0.009203673205104658
ODOM 8.18, 0.48, -0.009203673205104658
ODOM 8.2, 0.48, -0.009203673205104658
ODOM 8.22, 0.48, -0.009203673205104658
ODOM 8.24, 0.48, -0.009203673205104658
ODOM 8.26, 0.48, -0.009203673205104658
ODOM 8.28, 0.48, -0.009203673205104658
ODOM 8.3, 0.48, -0.009203673205104658
ODOM 8.32, 0.48, -0.009203673205104658
ODOM 8.34, 0.48, -0.009203673205104658
ODOM 8.36, 0.48, -0.009203673205104658
ODOM 8.38, 0.48, -0.009203673205104658
ODOM 8.4, 0.48, -0.009203673205104658
ODOM 8.42, 0.48, -0.009203673205104658
ODOM 8.44, 0.48, -0.009203673205104658
ODOM 8.46, 0.48, -0.009203673205104658
ODOM 8.48, 0.48, -0.009203673205104658
ODOM 8.5, 0.48, -0.009203673205104658
ODOM 8.52, 0.48, -0.009203673205104658
ODOM 8.540000000000001, 0.48, -0.009203673205104658
ODOM 8.56, 0.48, -0.009203673205104658
ODOM 8.58, 0.48, -0.009203673205104658
ODOM 8.6, 0.48, -0.009203673205104658
ODOM 8.620000000000001, 0.48, -0.009203673205104658
ODOM 8.64, 0.48, -0.009203673205104658
ODOM 8.66, 0.48, -0.009203673205104658
ODOM 8.68, 0.48, -0.009203673205104658
ODOM 8.700000000000001, 0.48, -0.009203673205104658
ODOM 8.72, 0.48, -0.009203673205104658
ODOM 8.74, 0.48, -0.009203673205104658
ODOM 8.76, 0.48, -0.009203673205104658
ODOM 8.78, 0.48, -0.009203673205104658
ODOM 8.8, 0.48, -0.009203673205104658
ODOM 8.82, 0.48, -0.009203673205104658
ODOM 8.84, 0.48, -0.009203673205104658
ODOM 8.86, 0.48, -0.009203673205104658
ODOM 8.88, 0.48, -0.009203673205104658
ODOM 8.9, 0.48, -0.009203673205104658
ODOM 8.92, 0.48, -0.009203673205104658
ODOM 8.94, 0.48, -0.009203673205104658
ODOM 8.96, 0.48, -0.009203673205104658
ODOM 8.98, 0.48, -0.009203673205104658
ODOM 9.0, 0.48, -0.009203673205104658
ODOM 9.02, 0.48, -0.009203673205104658
ODOM 9.040000000000001, 0.48, -0.009203673205104658
ODOM 9.06, 0.48, -0.009203673205104658
ODOM 9.08, 0.48, -0.009203673205104658
ODOM 9.1, 0.48, -0.009203673205104658
ODOM 9.120000000000001, 0.48, -0.009203673205104658
ODOM 9.14, 0.48, -0.009203673205104658
ODOM 9.16, 0.48, -0.009203673205104658
ODOM 9.18, 0.48, -0.009203673205104658
ODOM 9.200000000000001, 0.48, -0.009203673205104658
ODOM 9.22, 0.48, -0.009203673205104658
ODOM 9.24, 0.48, -0.009203673205104658
ODOM 9.26, 0.48, -0.009203673205104658
ODOM 9.28, 0.48, -0.009203673205104658
ODOM 9.3, 0.48, -0.009203673205104658
ODOM 9.32, 0.48, -0.009203673205104658
ODOM 9.34, 0.48, -0.009203673205104658
ODOM 9.36, 0.48, -0.009203673205104658
ODOM 9.38, 0.48, -0.009203673205104658
ODOM 9.4, 0.48, -0.009203673205104658
ODOM 9.42, 0.48, -0.009203673205104658
ODOM 9.44, 0.48, -0.009203673205104658
ODOM 9.46, 0.48, -0.009203673205104658
ODOM 9.48, 0.48, -0.009203673205104658
ODOM 9.5, 0.48, -0.009203673205104658
ODOM 9.52, 0.48, -0.009203673205104658
ODOM 9.540000000000001, 0.48, -0.009203673205104658
ODOM 9.56, 0.48, -0.009203673205104658
ODOM 9.58, 0.48, -0.009203673205104658
ODOM 9.6, 0.46, -0.009203673205104658
ODOM 9.620000000000001, 0.46, -0.009203673205104658
ODOM 9.64, 0.46, -0.009203673205104658
ODOM 9.66, 0.46, -0.009203673205104658
ODOM 9.68, 0.46, -0.009203673205104658
ODOM 9.700000000000001, 0.46, -0.009203673205104658
ODOM 9.72, 0.46, -0.009203673205104658
ODOM 9.74, 0.46, -0.009203673205104658
ODOM 9.76, 0.46, -0.009203673205104658
ODOM 9.78, 0.46, -0.009203673205104658
ODOM 9.8, 0.46, -0.009203673205104658
ODOM 9.82, 0.46, -0.009203673205104658
ODOM 9.84, 0.46, -0.009203673205104658
ODOM 9.86, 0.46, -0.009203673205104658
ODOM 9.88, 0.46, -0.009203673205104658
ODOM 9.9, 0.46, -0.009203673205104658
ODOM 9.92, 0.46, -0.009203673205104658
ODOM 9.94, 0.46, -0.009203673205104658
ODOM 9.96, 0.46, -0.009203673205104658
ODOM 9.98, 0.46, -0.009203673205104658
ODOM 10.0, 0.46, -0.009203673205104658
ODOM 10.02, 0.46, -0.009203673205104658
ODOM 10.040000000000001, 0.46, -0.009203673205104658
ODOM 10.06, 0.46, -0.009203673205104658
ODOM 10.08, 0.46, -0.009203673205104658
ODOM 10.1, 0.46, -0.009203673205104658
ODOM 10.120000000000001, 0.46, -0.009203673205104658
ODOM 10.14, 0.46, -0.009203673205104658
ODOM 10.16, 0.46, -0.009203673205104658
ODOM 10.18, 0.46, -0.009203673205104658
ODOM 10.200000000000001, 0.46, -0.009203673205104658
ODOM 10.22, 0.46, -0.009203673205104658
ODOM 10.24, 0.46, -0.009203673205104658
ODOM 10.26, 0.46, -0.009203673205104658
ODOM 10.28, 0.46, -0.009203673205104658
ODOM 10.3, 0.46, -0.009203673205104658
ODOM 10.32, 0.46, -0.009203673205104658
ODOM 10.34, 0.46, -0.009203673205104658
ODOM 10.36, 0.46, -0.009203673205104658
ODOM 10.38, 0.46, -0.009203673205104658
ODOM 10.4, 0.46, -0.009203673205104658
ODOM 10.42, 0.46, -0.009203673205104658
ODOM 10.44, 0.46, -0.009203673205104658
ODOM 10.46, 0.46, -0.009203673205104658
ODOM 10.48, 0.46, -0.009203673205104658
ODOM 10.5, 0.46, -0.009203673205104658
ODOM 10.52, 0.46, -0.009203673205104658
ODOM 10.540000000000001, 0.46, -0.009203673205104658
ODOM 10.56, 0.46, -0.009203673205104658
ODOM 10.58, 0.46, -0.009203673205104658
ODOM 10.6, 0.46, -0.009203673205104658
ODOM 10.620000000000001, 0.46, -0.009203673205104658
ODOM 10.64, 0.46, -0.009203673205104658
ODOM 10.66, 0.46, -0.009203673205104658
ODOM 10.68, 0.46, -0.009203673205104658
ODOM 10.700000000000001, 0.46, -0.009203673205104658
ODOM 10.72, 0.46, -0.009203673205104658
ODOM 10.74, 0.46, -0.009203673205104658
ODOM 10.76, 0.46, -0.009203673205104658
ODOM 10.78, 0.46, -0.009203673205104658
ODOM 10.8, 0.46, -0.009203673205104658
ODOM 10.82, 0.46, 0.010796326794895339
ODOM 10.84, 0.46, 0.030796326794895336
ODOM 10.86, 0.46, 0.05079632679489533
ODOM 10.88, 0.46, 0.07079632679489534
ODOM 10.9, 0.46, 0.09079632679489533
ODOM 10.92, 0.46, 0.11079632679489532
ODOM 10.94, 0.46, 0.1307963267948953
ODOM 10.96, 0.48, 0.15079632679489532
ODOM 10.98, 0.48, 0.17079632679489531
ODOM 11.0, 0.48, 0.1907963267948953
ODOM 11.02, 0.48, 0.1907963267948953
ODOM 11.040000000000001, 0.48, 0.1907963267948953
ODOM 11.06, 0.48, 0.1907963267948953
ODOM 11.08, 0.5, 0.1907963267948953
ODOM 11.1, 0.5, 0.1907963267948953
ODOM 11.120000000000001, 0.5, 0.1907963267948953
ODOM 11.14, 0.5, 0.1907963267948953
ODOM 11.16, 0.5, 0.1907963267948953
ODOM 11.18, 0.52, 0.1907963267948953
ODOM 11.200000000000001, 0.52, 0.1907963267948953
ODOM 11.22, 0.52, 0.1907963267948953
ODOM 11.22, 0.52, 0.1907963267948953
ODOM 11.24, 0.52, 0.1907963267948953
ODOM 11.26, 0.54, 0.1907963267948953
ODOM 11.28, 0.54, 0.1907963267948953
ODOM 11.3, 0.54, 0.1907963267948953
ODOM 11.32, 0.54, 0.1907963267948953
ODOM 11.34, 0.54, 0.1907963267948953
ODOM 11.36, 0.54, 0.1907963267948953
ODOM 11.38, 0.56, 0.1907963267948953
ODOM 11.4, 0.56, 0.1907963267948953
ODOM 11.42, 0.56, 0.1907963267948953
ODOM 11.44, 0.56, 0.1907963267948953
ODOM 11.46, 0.56, 0.1907963267948953
ODOM 11.48, 0.58, 0.1907963267948953
ODOM 11.5, 0.58, 0.1907963267948953
ODOM 11.52, 0.58, 0.1907963267948953
ODOM 11.540000000000001, 0.58, 0.1907963267948953
ODOM 11.56, 0.58, 0.1907963267948953
ODOM 11.58, 0.6, 0.1907963267948953
ODOM 11.6, 0.6, 0.1907963267948953
ODOM 11.620000000000001, 0.6, 0.1907963267948953
ODOM 11.64, 0.6, 0.1907963267948953
ODOM 11.66, 0.6, 0.1907963267948953
ODOM 11.68, 0.6, 0.1907963267948953
ODOM 11.700000000000001, 0.62, 0.1907963267948953
ODOM 11.72, 0.62, 0.1907963267948953
ODOM 11.74, 0.62, 0.1907963267948953
ODOM 11.76, 0.62, 0.1907963267948953
ODOM 11.78, 0.62, 0.1907963267948953
ODOM 11.8, 0.64, 0.1907963267948953
ODOM 11.82, 0.64, 0.1907963267948953
ODOM 11.84, 0.64, 0.17079632679489531
ODOM 11.86, 0.64, 0.15079632679489535
ODOM 11.88, 0.64, 0.13079632679489536
ODOM 11.9, 0.64, 0.11079632679489537
ODOM 11.92, 0.66, 0.09079632679489538
ODOM 11.94, 0.66, 0.07079632679489539
ODOM 11.96, 0.66, 0.050796326794895395
ODOM 11.98, 0.66, 0.0307963267948954
ODOM 12.0, 0.66, 0.010796326794895401
ODOM 12.02, 0.66, -0.009203673205104596
ODOM 12.040000000000001, 0.66, -0.029203673205104592
ODOM 12.06, 0.66, -0.029203673205104592
ODOM 12.08, 0.66, -0.029203673205104592
ODOM 12.1, 0.66, -0.029203673205104592
ODOM 12.120000000000001, 0.66, -0.029203673205104592
ODOM 12.14, 0.66, -0.029203673205104592
ODOM 12.16, 0.66, -0.029203673205104592
ODOM 12.18, 0.64, -0.029203673205104592
ODOM 12.200000000000001, 0.64, -0.029203673205104592
ODOM 12.22, 0.64, -0.029203673205104592
ODOM 12.24, 0.64, -0.029203673205104592
ODOM 12.26, 0.64, -0.029203673205104592
ODOM 12.280000000000001, 0.64, -0.029203673205104592
ODOM 12.3, 0.64, -0.029203673205104592
ODOM 12.32, 0.64, -0.029203673205104592
ODOM 12.34, 0.64, -0.029203673205104592
ODOM 12.36, 0.64, -0.029203673205104592
ODOM 12.38, 0.64, -0.029203673205104592
ODOM 12.4, 0.64, -0.029203673205104592
ODOM 12.42, 0.64, -0.029203673205104592
ODOM 12.44, 0.64, -0.029203673205104592
ODOM 12.46, 0.64, -0.029203673205104592
ODOM 12.48, 0.64, -0.029203673205104592
ODOM 12.5, 0.64, -0.029203673205104592
ODOM 12.52, 0.64, -0.029203673205104592
ODOM 12.540000000000001, 0.64, -0.029203673205104592
ODOM 12.56, 0.64, -0.029203673205104592
ODOM 12.58, 0.64, -0.029203673205104592
ODOM 12.6, 0.64, -0.029203673205104592
ODOM 12.620000000000001, 0.64, -0.029203673205104592
ODOM 12.64, 0.64, -0.029203673205104592
ODOM 12.66, 0.64, -0.029203673205104592
ODOM 12.68, 0.64, -0.029203673205104592
ODOM 12.700000000000001, 0.64, -0.029203673205104592
ODOM 12.72, 0.64, -0.029203673205104592
ODOM 12.74, 0.64, -0.029203673205104592
ODOM 12.76, 0.64, -0.029203673205104592
ODOM 12.780000000000001, 0.64, -0.029203673205104592
ODOM 12.8, 0.64, -0.029203673205104592
ODOM 12.82, 0.64, -0.029203673205104592
ODOM 12.84, 0.64, -0.029203673205104592
ODOM 12.86, 0.64, -0.029203673205104592
ODOM 12.88, 0.62, -0.029203673205104592
ODOM 12.9, 0.62, -0.029203673205104592
ODOM 12.92, 0.62, -0.029203673205104592
ODOM 12.94, 0.62, -0.029203673205104592
ODOM 12.96, 0.62, -0.029203673205104592
ODOM 12.98, 0.62, -0.029203673205104592
ODOM 13.0, 0.62, -0.029203673205104592
ODOM 13.02, 0.62, -0.029203673205104592
ODOM 13.040000000000001, 0.62, -0.029203673205104592
ODOM 13.06, 0.62, -0.029203673205104592
ODOM 13.08, 0.62, -0.029203673205104592
ODOM 13.1, 0.62, -0.029203673205104592
ODOM 13.120000000000001, 0.62, -0.029203673205104592
ODOM 13.14, 0.62, -0.029203673205104592
ODOM 13.16, 0.62, -0.029203673205104592
ODOM 13.18, 0.62, -0.029203673205104592
ODOM 13.200000000000001, 0.62, -0.029203673205104592
ODOM 13.22, 0.62, -0.029203673205104592
ODOM 13.24, 0.62, -0.029203673205104592
ODOM 13.26, 0.62, -0.029203673205104592
ODOM 13.280000000000001, 0.62, -0.029203673205104592
ODOM 13.3, 0.62, -0.029203673205104592
ODOM 13.32, 0.62, -0.029203673205104592
ODOM 13.34, 0.62, -0.029203673205104592
ODOM 13.36, 0.62, -0.029203673205104592
ODOM 13.38, 0.62, -0.029203673205104592
ODOM 13.4, 0.62, -0.029203673205104592
ODOM 13.42, 0.62, -0.029203673205104592
ODOM 13.44, 0.62, -0.029203673205104592
ODOM 13.46, 0.62, -0.029203673205104592
ODOM 13.48, 0.62, -0.029203673205104592
ODOM 13.5, 0.62, -0.029203673205104592
ODOM 13.52, 0.62, -0.029203673205104592
ODOM 13.540000000000001, 0.62, -0.029203673205104592
ODOM 13.56, 0.6, -0.029203673205104592
ODOM 13.58, 0.6, -0.029203673205104592
ODOM 13.6, 0.6, -0.029203673205104592
ODOM 13.620000000000001, 0.6, -0.029203673205104592
ODOM 13.64, 0.6, -0.029203673205104592
ODOM 13.66, 0.6, -0.029203673205104592
ODOM 13.68, 0.6, -0.029203673205104592
ODOM 13.700000000000001, 0.6, -0.029203673205104592
ODOM 13.72, 0.6, -0.029203673205104592
ODOM 13.74, 0.6, -0.029203673205104592
ODOM 13.76, 0.6, -0.029203673205104592
ODOM 13.780000000000001, 0.6, -0.029203673205104592
ODOM 13.8, 0.6, -0.029203673205104592
ODOM 13.82, 0.6, -0.029203673205104592
ODOM 13.84, 0.6, -0.029203673205104592
ODOM 13.86, 0.6, -0.029203673205104592
ODOM 13.88, 0.6, -0.029203673205104592
ODOM 13.9, 0.6, -0.029203673205104592
ODOM 13.92, 0.6, -0.029203673205104592
ODOM 13.94, 0.6, -0.029203673205104592
ODOM 13.96, 0.6, -0.029203673205104592
ODOM 13.98, 0.6, -0.029203673205104592
ODOM 14.0, 0.6, -0.029203673205104592
ODOM 14.02, 0.6, -0.029203673205104592
ODOM 14.040000000000001, 0.6, -0.029203673205104592
ODOM 14.06, 0.6, -0.029203673205104592
ODOM 14.08, 0.6, -0.029203673205104592
ODOM 14.1, 0.6, -0.029203673205104592
ODOM 14.120000000000001, 0.6, -0.029203673205104592
ODOM 14.14, 0.6, -0.029203673205104592
ODOM 14.16, 0.6, -0.029203673205104592
ODOM 14.18, 0.6, -0.029203673205104592
ODOM 14.200000000000001, 0.6, -0.029203673205104592
ODOM 14.22, 0.6, -0.029203673205104592
ODOM 14.24, 0.58, -0.029203673205104592
ODOM 14.26, 0.58, -0.029203673205104592
ODOM 14.280000000000001, 0.58, -0.029203673205104592
ODOM 14.3, 0.58, -0.029203673205104592
ODOM 14.32, 0.58, -0.029203673205104592
ODOM 14.34, 0.58, -0.029203673205104592
ODOM 14.36, 0.58, -0.029203673205104592
ODOM 14.38, 0.58, -0.029203673205104592
ODOM 14.4, 0.58, -0.029203673205104592
ODOM 14.42, 0.58, -0.029203673205104592
ODOM 14.44, 0.58, -0.029203673205104592
ODOM 14.46, 0.58, -0.029203673205104592
ODOM 14.48, 0.58, -0.029203673205104592
ODOM 14.5, 0.58, -0.029203673205104592
ODOM 14.52, 0.58, -0.029203673205104592
ODOM 14.540000000000001, 0.58, -0.029203673205104592
ODOM 14.56, 0.58, -0.029203673205104592
ODOM 14.58, 0.58, -0.029203673205104592
ODOM 14.6, 0.58, -0.029203673205104592
ODOM 14.620000000000001, 0.58, -0.029203673205104592
ODOM 14.64, 0.58, -0.029203673205104592
ODOM 14.66, 0.58, -0.029203673205104592
ODOM 14.68, 0.58, -0.029203673205104592
ODOM 14.700000000000001, 0.58, -0.029203673205104592
ODOM 14.72, 0.58, -0.029203673205104592
ODOM 14.74, 0.58, -0.029203673205104592
ODOM 14.76, 0.58, -0.029203673205104592
ODOM 14.780000000000001, 0.58, -0.029203673205104592
ODOM 14.8, 0.58, -0.029203673205104592
ODOM 14.82, 0.58, -0.029203673205104592
ODOM 14.84, 0.58, -0.029203673205104592
ODOM 14.86, 0.58, -0.029203673205104592
ODOM 14.88, 0.58, -0.029203673205104592
ODOM 14.9, 0.58, -0.029203673205104592
ODOM 14.92, 0.56, -0.029203673205104592
ODOM 14.94, 0.56, -0.029203673205104592
ODOM 14.96, 0.56, -0.029203673205104592
ODOM 14.98, 0.56, -0.029203673205104592
ODOM 15.0, 0.56, -0.029203673205104592
ODOM 15.02, 0.56, -0.029203673205104592
ODOM 15.040000000000001, 0.56, -0.029203673205104592
ODOM 15.06, 0.56, -0.029203673205104592
ODOM 15.08, 0.56, -0.029203673205104592
ODOM 15.1, 0.56, -0.029203673205104592
ODOM 15.120000000000001, 0.56, -0.029203673205104592
ODOM 15.14, 0.56, -0.029203673205104592
ODOM 15.16, 0.56, -0.029203673205104592
ODOM 15.18, 0.56, -0.029203673205104592
ODOM 15.200000000000001, 0.56, -0.029203673205104592
ODOM 15.22, 0.56, -0.029203673205104592
ODOM 15.24, 0.56, -0.029203673205104592
ODOM 15.26, 0.56, -0.029203673205104592
ODOM 15.280000000000001, 0.56, -0.029203673205104592
ODOM 15.3, 0.56, -0.029203673205104592
ODOM 15.32, 0.56, -0.029203673205104592
ODOM 15.34, 0.56, -0.029203673205104592
ODOM 15.36, 0.56, -0.029203673205104592
ODOM 15.38, 0.56, -0.029203673205104592
ODOM 15.4, 0.56, -0.029203673205104592
ODOM 15.42, 0.56, -0.029203673205104592
ODOM 15.44, 0.56, -0.029203673205104592
ODOM 15.46, 0.56, -0.029203673205104592
ODOM 15.48, 0.56, -0.029203673205104592
ODOM 15.5, 0.56, -0.029203673205104592
ODOM 15.52, 0.56, -0.029203673205104592
ODOM 15.540000000000001, 0.56, -0.029203673205104592
ODOM 15.56, 0.56, -0.029203673205104592
ODOM 15.58, 0.56, -0.029203673205104592
ODOM 15.6, 0.54, -0.029203673205104592
ODOM 15.620000000000001, 0.54, -0.029203673205104592
ODOM 15.64, 0.54, -0.029203673205104592
ODOM 15.66, 0.54, -0.029203673205104592
ODOM 15.68, 0.54, -0.029203673205104592
ODOM 15.700000000000001, 0.54, -0.029203673205104592
ODOM 15.72, 0.54, -0.029203673205104592
ODOM 15.74, 0.54, -0.029203673205104592
ODOM 15.76, 0.54, -0.029203673205104592
ODOM 15.780000000000001, 0.54, -0.029203673205104592
ODOM 15.8, 0.54, -0.029203673205104592
ODOM 15.82, 0.54, -0.029203673205104592
ODOM 15.84, 0.54, -0.029203673205104592
ODOM 15.860000000000001, 0.54, -0.029203673205104592
ODOM 15.88, 0.54, -0.029203673205104592
ODOM 15.9, 0.54, -0.029203673205104592
ODOM 15.92, 0.54, -0.029203673205104592
ODOM 15.94, 0.54, -0.029203673205104592
ODOM 15.96, 0.54, -0.029203673205104592
ODOM 15.98, 0.54, -0.029203673205104592
ODOM 16.0, 0.54, -0.029203673205104592
ODOM 16.02, 0.54, -0.029203673205104592
ODOM 16.04, 0.54, -0.029203673205104592
ODOM 16.06, 0.54, -0.029203673205104592
ODOM 16.080000000000002, 0.54, -0.029203673205104592
ODOM 16.1, 0.54, -0.029203673205104592
ODOM 16.12, 0.54, -0.029203673205104592
ODOM 16.14, 0.54, -0.029203673205104592
ODOM 16.16, 0.54, -0.029203673205104592
ODOM 16.18, 0.54, -0.029203673205104592
ODOM 16.2, 0.54, -0.029203673205104592
ODOM 16.22, 0.54, -0.029203673205104592
ODOM 16.240000000000002, 0.54, -0.029203673205104592
ODOM 16.26, 0.54, -0.029203673205104592
ODOM 16.28, 0.54, -0.029203673205104592
ODOM 16.3, 0.52, -0.029203673205104592
ODOM 16.32, 0.52, -0.029203673205104592
ODOM 16.34, 0.52, -0.029203673205104592
ODOM 16.36, 0.52, -0.029203673205104592
ODOM 16.38, 0.52, -0.029203673205104592
ODOM 16.4, 0.52, -0.029203673205104592
ODOM 16.42, 0.52, -0.029203673205104592
ODOM 16.44, 0.52, -0.029203673205104592
ODOM 16.46, 0.52, -0.029203673205104592
ODOM 16.48, 0.52, -0.029203673205104592
ODOM 16.5, 0.52, -0.029203673205104592
ODOM 16.52, 0.52, -0.029203673205104592
ODOM 16.54, 0.52, -0.029203673205104592
ODOM 16.56, 0.52, -0.029203673205104592
ODOM 16.580000000000002, 0.52, -0.029203673205104592
ODOM 16.6, 0.52, -0.029203673205104592
ODOM 16.62, 0.52, -0.029203673205104592
ODOM 16.64, 0.52, -0.029203673205104592
ODOM 16.66, 0.52, -0.029203673205104592
ODOM 16.68, 0.52, -0.029203673205104592
ODOM 16.7, 0.52, -0.029203673205104592
ODOM 16.72, 0.52, -0.009203673205104596
ODOM 16.740000000000002, 0.52, 0.010796326794895401
ODOM 16.76, 0.52, 0.0307963267948954
ODOM 16.78, 0.52, 0.050796326794895395
ODOM 16.8, 0.52, 0.07079632679489539
ODOM 16.82, 0.52, 0.09079632679489538
ODOM 16.84, 0.52, 0.11079632679489537
ODOM 16.86, 0.52, 0.13079632679489536
ODOM 16.88, 0.52, 0.15079632679489538
ODOM 16.9, 0.54, 0.17079632679489537
ODOM 16.92, 0.54, 0.19079632679489536
ODOM 16.94, 0.54, 0.21079632679489535
ODOM 16.96, 0.54, 0.23079632679489534
ODOM 16.98, 0.54, 0.25079632679489533
ODOM 17.0, 0.56, 0.27079632679489535
ODOM 17.02, 0.56, 0.2907963267948953
ODOM 17.04, 0.56, 0.31079632679489533
ODOM 17.04, 0.58, 0.33079632679489535
ODOM 17.06, 0.58, 0.35079632679489536
ODOM 17.080000000000002, 0.58, 0.3707963267948953
ODOM 17.1, 0.6, 0.3907963267948953
ODOM 17.12, 0.6, 0.4107963267948953
ODOM 17.14, 0.6, 0.43079632679489527
ODOM 17.16, 0.62, 0.45079632679489534
ODOM 17.18, 0.62, 0.47079632679489536
ODOM 17.2, 0.64, 0.4907963267948954
ODOM 17.22, 0.64, 0.5107963267948954
ODOM 17.240000000000002, 0.66, 0.5307963267948955
ODOM 17.240000000000002, 0.66, 0.5507963267948955
ODOM 17.26, 0.68, 0.5507963267948955
ODOM 17.28, 0.68, 0.5507963267948955
ODOM 17.3, 0.7000000000000001, 0.5507963267948955
ODOM 17.32, 0.7000000000000001, 0.5507963267948955
ODOM 17.34, 0.72, 0.5507963267948955
ODOM 17.36, 0.72, 0.5507963267948955
ODOM 17.36, 0.74, 0.5507963267948955
ODOM 17.38, 0.74, 0.5507963267948955
ODOM 17.400000000000002, 0.76, 0.5507963267948955
ODOM 17.42, 0.78, 0.5507963267948955
ODOM 17.44, 0.78, 0.5507963267948955
ODOM 17.46, 0.8, 0.5507963267948955
ODOM 17.46, 0.8, 0.5507963267948955
ODOM 17.48, 0.8200000000000001, 0.5507963267948955
ODOM 17.5, 0.8200000000000001, 0.5507963267948955
ODOM 17.52, 0.84, 0.5507963267948955
ODOM 17.54, 0.84, 0.5707963267948956
ODOM 17.56, 0.86, 0.5907963267948956
ODOM 17.580000000000002, 0.86, 0.6107963267948956
ODOM 17.580000000000002, 0.88, 0.6307963267948956
ODOM 17.6, 0.88, 0.6507963267948956
ODOM 17.62, 0.9, 0.6707963267948956
ODOM 17.64, 0.92, 0.6907963267948957
ODOM 17.66, 0.92, 0.7107963267948957
ODOM 17.66, 0.9400000000000001, 0.7307963267948957
ODOM 17.68, 0.96, 0.7507963267948957
ODOM 17.7, 0.96, 0.7707963267948957
ODOM 17.7, 0.98, 0.7907963267948958
ODOM 17.72, 1.0, 0.8107963267948958
ODOM 17.740000000000002, 1.02, 0.8307963267948958
ODOM 17.740000000000002, 1.02, 0.8507963267948958
ODOM 17.76, 1.04, 0.8707963267948958
ODOM 17.78, 1.06, 0.8907963267948958
ODOM 17.78, 1.08, 0.9107963267948959
ODOM 17.8, 1.08, 0.9307963267948959
ODOM 17.82, 1.1, 0.9507963267948959
ODOM 17.82, 1.12, 0.9707963267948959
ODOM 17.84, 1.1400000000000001, 0.9907963267948959
ODOM 17.84, 1.16, 1.0107963267948958
ODOM 17.86, 1.18, 1.0307963267948959
ODOM 17.86, 1.18, 1.0507963267948959
ODOM 17.88, 1.2, 1.070796326794896
ODOM 17.88, 1.22, 1.090796326794896
ODOM 17.900000000000002, 1.24, 1.110796326794896
ODOM 17.900000000000002, 1.26, 1.130796326794896
ODOM 17.92, 1.28, 1.150796326794896
ODOM 17.92, 1.3, 1.170796326794896
ODOM 17.92, 1.32, 1.190796326794896
ODOM 17.94, 1.34, 1.210796326794896
ODOM 17.94, 1.36, 1.230796326794896
ODOM 17.94, 1.3800000000000001, 1.250796326794896
ODOM 17.96, 1.3800000000000001, 1.270796326794896
ODOM 17.96, 1.4000000000000001, 1.290796326794896
ODOM 17.96, 1.42, 1.310796326794896
ODOM 17.96, 1.44, 1.3307963267948961
ODOM 17.98, 1.46, 1.3507963267948961
ODOM 17.98, 1.48, 1.3707963267948962
ODOM 17.98, 1.5, 1.3907963267948962
ODOM 17.98, 1.52, 1.4107963267948962
ODOM 17.98, 1.54, 1.4307963267948962
ODOM 18.0, 1.56, 1.4507963267948962
ODOM 18.0, 1.58, 1.4707963267948962
ODOM 18.0, 1.6, 1.4907963267948963
ODOM 18.0, 1.62, 1.5107963267948963
ODOM 18.0, 1.6400000000000001, 1.5307963267948963
ODOM 18.0, 1.6600000000000001, 1.5507963267948963
ODOM 18.0, 1.68, 1.5707963267948963
ODOM 18.0, 1.7, 1.5907963267948964
ODOM 18.0, 1.72, 1.6107963267948964
ODOM 18.0, 1.74, 1.6307963267948964
ODOM 18.0, 1.76, 1.6507963267948964
ODOM 18.0, 1.78, 1.6707963267948964
ODOM 18.0, 1.8, 1.6907963267948964
ODOM 17.98, 1.82, 1.7107963267948965
ODOM 17.98, 1.84, 1.7307963267948965
ODOM 17.98, 1.86, 1.7507963267948965
ODOM 17.98, 1.8800000000000001, 1.7707963267948965
ODOM 17.98, 1.9000000000000001, 1.7907963267948965
ODOM 17.96, 1.92, 1.8107963267948965
ODOM 17.96, 1.94, 1.8307963267948966
ODOM 17.96, 1.96, 1.8507963267948966
ODOM 17.96, 1.98, 1.8707963267948966
ODOM 17.94, 2.0, 1.8907963267948966
ODOM 17.94, 2.02, 1.9107963267948966
ODOM 17.94, 2.04, 1.9307963267948967
ODOM 17.92, 2.06, 1.9507963267948967
ODOM 17.92, 2.08, 1.9707963267948967
ODOM 17.92, 2.1, 1.9907963267948967
ODOM 17.900000000000002, 2.12, 2.0107963267948965
ODOM 17.900000000000002, 2.12, 2.0307963267948965
ODOM 17.88, 2.14, 2.0507963267948965
ODOM 17.88, 2.16, 2.0707963267948966
ODOM 17.86, 2.18, 2.0907963267948966
ODOM 17.86, 2.2, 2.1107963267948966
ODOM 17.84, 2.22, 2.1307963267948966
ODOM 17.84, 2.24, 2.1507963267948966
ODOM 17.82, 2.24, 2.1707963267948966
ODOM 17.82, 2.2600000000000002, 2.1907963267948967
ODOM 17.8, 2.2800000000000002, 2.2107963267948967
ODOM 17.78, 2.3000000000000003, 2.2307963267948967
ODOM 17.78, 2.32, 2.2507963267948967
ODOM 17.76, 2.32, 2.2707963267948967
ODOM 17.740000000000002, 2.34, 2.2907963267948968
ODOM 17.740000000000002, 2.36, 2.3107963267948968
ODOM 17.72, 2.38, 2.330796326794897
ODOM 17.7, 2.38, 2.350796326794897
ODOM 17.7, 2.4, 2.370796326794897
ODOM 17.68, 2.42, 2.390796326794897
ODOM 17.66, 2.42, 2.410796326794897
ODOM 17.66, 2.44, 2.430796326794897
ODOM 17.64, 2.46, 2.450796326794897
ODOM 17.62, 2.46, 2.470796326794897
ODOM 17.6, 2.48, 2.490796326794897
ODOM 17.580000000000002, 2.5, 2.510796326794897
ODOM 17.580000000000002, 2.5, 2.530796326794897
ODOM 17.56, 2.52, 2.550796326794897
ODOM 17.54, 2.52, 2.570796326794897
ODOM 17.52, 2.54, 2.590796326794897
ODOM 17.5, 2.54, 2.610796326794897
ODOM 17.48, 2.56, 2.630796326794897
ODOM 17.46, 2.56, 2.650796326794897
ODOM 17.46, 2.58, 2.670796326794897
ODOM 17.44, 2.58, 2.690796326794897
ODOM 17.42, 2.6, 2.710796326794897
ODOM 17.400000000000002, 2.6, 2.730796326794897
ODOM 17.38, 2.6, 2.750796326794897
ODOM 17.36, 2.62, 2.770796326794897
ODOM 17.34, 2.62, 2.790796326794897
ODOM 17.32, 2.64, 2.810796326794897
ODOM 17.3, 2.64, 2.8307963267948972
ODOM 17.28, 2.64, 2.8507963267948973
ODOM 17.26, 2.64, 2.8707963267948973
ODOM 17.240000000000002, 2.66, 2.8907963267948973
ODOM 17.22, 2.66, 2.9107963267948973
ODOM 17.2, 2.66, 2.9307963267948973
ODOM 17.18, 2.66, 2.9507963267948973
ODOM 17.16, 2.68, 2.9707963267948974
ODOM 17.14, 2.68, 2.9907963267948974
ODOM 17.12, 2.68, 3.0107963267948974
ODOM 17.1, 2.68, 3.0307963267948974
ODOM 17.080000000000002, 2.68, 3.0507963267948974
ODOM 17.06, 2.68, 3.0707963267948974
ODOM 17.04, 2.68, 3.0907963267948975
ODOM 17.02, 2.68, 3.1107963267948975
ODOM 17.0, 2.68, 3.1307963267948975
ODOM 16.98, 2.68, -3.132388980384689
ODOM 16.96, 2.68, -3.112388980384689
ODOM 16.94, 2.68, -3.092388980384689
ODOM 16.92, 2.68, -3.072388980384689
ODOM 16.9, 2.68, -3.052388980384689
ODOM 16.88, 2.68, -3.032388980384689
ODOM 16.86, 2.68, -3.012388980384689
ODOM 16.84, 2.68, -2.992388980384689
ODOM 16.82, 2.68, -2.972388980384689
ODOM 16.8, 2.66, -2.952388980384689
ODOM 16.8, 2.66, -2.932388980384689
ODOM 16.78, 2.66, -2.912388980384689
ODOM 16.76, 2.66, -2.892388980384689
ODOM 16.740000000000002, 2.64, -2.872388980384689
ODOM 16.72, 2.64, -2.852388980384689
ODOM 16.7, 2.64, -2.832388980384689
ODOM 16.68, 2.64, -2.812388980384689
ODOM 16.66, 2.62, -2.792388980384689
ODOM 16.64, 2.62, -2.772388980384689
ODOM 16.62, 2.62, -2.752388980384689
ODOM 16.6, 2.6, -2.732388980384689
ODOM 16.580000000000002, 2.6, -2.712388980384689
ODOM 16.56, 2.58, -2.6923889803846888
ODOM 16.54, 2.58, -2.6723889803846888
ODOM 16.52, 2.56, -2.6523889803846887
ODOM 16.52, 2.56, -2.6323889803846887
ODOM 16.5, 2.54, -2.6123889803846887
ODOM 16.48, 2.54, -2.5923889803846887
ODOM 16.46, 2.52, -2.5723889803846887
ODOM 16.44, 2.52, -2.5523889803846886
ODOM 16.42, 2.5, -2.5323889803846886
ODOM 16.4, 2.5, -2.5123889803846886
ODOM 16.4, 2.48, -2.4923889803846886
ODOM 16.38, 2.46, -2.4723889803846886
ODOM 16.36, 2.46, -2.4523889803846886
ODOM 16.34, 2.44, -2.4323889803846885
ODOM 16.34, 2.44, -2.4123889803846885
ODOM 16.32, 2.42, -2.3923889803846885
ODOM 16.3, 2.4, -2.3723889803846885
ODOM 16.28, 2.38, -2.3523889803846885
ODOM 16.28, 2.38, -2.3323889803846884
ODOM 16.26, 2.36, -2.3123889803846884
ODOM 16.240000000000002, 2.34, -2.2923889803846884
ODOM 16.240000000000002, 2.34, -2.2723889803846884
ODOM 16.22, 2.32, -2.2523889803846884
ODOM 16.2, 2.3000000000000003, -2.2523889803846884
ODOM 16.2, 2.2800000000000002, -2.2523889803846884
ODOM 16.18, 2.2600000000000002, -2.2523889803846884
ODOM 16.18, 2.2600000000000002, -2.2523889803846884
ODOM 16.16, 2.24, -2.2523889803846884
ODOM 16.14, 2.22, -2.2523889803846884
ODOM 16.14, 2.2, -2.2523889803846884
ODOM 16.12, 2.2, -2.2523889803846884
ODOM 16.1, 2.18, -2.2523889803846884
ODOM 16.1, 2.16, -2.2523889803846884
ODOM 16.080000000000002, 2.14, -2.2523889803846884
ODOM 16.06, 2.12, -2.2523889803846884
ODOM 16.06, 2.12, -2.2523889803846884
ODOM 16.04, 2.1, -2.2523889803846884
ODOM 16.04, 2.08, -2.2523889803846884
ODOM 16.02, 2.06, -2.2523889803846884
ODOM 16.0, 2.06, -2.2523889803846884
ODOM 16.0, 2.04, -2.2523889803846884
ODOM 15.98, 2.02, -2.2723889803846884
ODOM 15.96, 2.0, -2.2923889803846884
ODOM 15.96, 1.98, -2.3123889803846884
ODOM 15.94, 1.98, -2.3323889803846884
ODOM 15.92, 1.96, -2.3523889803846885
ODOM 15.92, 1.94, -2.3723889803846885
ODOM 15.9, 1.94, -2.3923889803846885
ODOM 15.88, 1.92, -2.4123889803846885
ODOM 15.860000000000001, 1.9000000000000001, -2.4323889803846885
ODOM 15.860000000000001, 1.9000000000000001, -2.4523889803846886
ODOM 15.84, 1.8800000000000001, -2.4723889803846886
ODOM 15.82, 1.86, -2.4923889803846886
ODOM 15.8, 1.86, -2.5123889803846886
ODOM 15.780000000000001, 1.84, -2.5323889803846886
ODOM 15.780000000000001, 1.84, -2.5523889803846886
ODOM 15.76, 1.82, -2.5723889803846887
ODOM 15.74, 1.82, -2.5923889803846887
ODOM 15.72, 1.8, -2.6123889803846887
ODOM 15.700000000000001, 1.8, -2.6323889803846887
ODOM 15.68, 1.78, -2.6323889803846887
ODOM 15.68, 1.78, -2.6323889803846887
ODOM 15.66, 1.76, -2.6323889803846887
ODOM 15.64, 1.76, -2.6323889803846887
ODOM 15.620000000000001, 1.74, -2.6323889803846887
ODOM 15.6, 1.74, -2.6323889803846887
ODOM 15.58, 1.72, -2.6323889803846887
ODOM 15.56, 1.72, -2.6323889803846887
ODOM 15.540000000000001, 1.7, -2.6323889803846887
ODOM 15.540000000000001, 1.7, -2.6323889803846887
ODOM 15.52, 1.68, -2.6323889803846887
ODOM 15.5, 1.68, -2.6323889803846887
ODOM 15.48, 1.6600000000000001, -2.6323889803846887
ODOM 15.46, 1.6600000000000001, -2.6323889803846887
ODOM 15.44, 1.6400000000000001, -2.6323889803846887
ODOM 15.42, 1.6400000000000001, -2.6323889803846887
ODOM 15.4, 1.62, -2.6323889803846887
ODOM 15.4, 1.62, -2.6323889803846887
ODOM 15.38, 1.6, -2.6323889803846887
ODOM 15.36, 1.6, -2.6323889803846887
ODOM 15.34, 1.58, -2.6323889803846887
ODOM 15.32, 1.58, -2.6323889803846887
ODOM 15.3, 1.56, -2.6323889803846887
ODOM 15.280000000000001, 1.56, -2.6323889803846887
ODOM 15.26, 1.54, -2.6323889803846887
ODOM 15.26, 1.54, -2.6323889803846887
ODOM 15.24, 1.52, -2.6323889803846887
ODOM 15.22, 1.52, -2.6323889803846887
ODOM 15.200000000000001, 1.5, -2.6323889803846887
ODOM 15.18, 1.5, -2.6323889803846887
ODOM 15.16, 1.5, -2.6323889803846887
ODOM 15.14, 1.48, -2.6323889803846887
ODOM 15.120000000000001, 1.48, -2.6323889803846887
ODOM 15.120000000000001, 1.46, -2.6323889803846887
ODOM 15.1, 1.46, -2.6323889803846887
ODOM 15.08, 1.44, -2.6323889803846887
ODOM 15.06, 1.44, -2.6323889803846887
ODOM 15.040000000000001, 1.42, -2.6323889803846887
ODOM 15.02, 1.42, -2.6323889803846887
ODOM 15.0, 1.4000000000000001, -2.6323889803846887
ODOM 14.98, 1.4000000000000001, -2.6323889803846887
ODOM 14.98, 1.3800000000000001, -2.6323889803846887
ODOM 14.96, 1.3800000000000001, -2.6323889803846887
ODOM 14.94, 1.36, -2.6323889803846887
ODOM 14.92, 1.36, -2.6323889803846887
ODOM 14.9, 1.34, -2.6323889803846887
ODOM 14.88, 1.34, -2.6323889803846887
ODOM 14.86, 1.32, -2.6323889803846887
ODOM 14.84, 1.32, -2.6523889803846887
ODOM 14.84, 1.3, -2.6723889803846888
ODOM 14.82, 1.3, -2.6923889803846888
ODOM 14.8, 1.28, -2.712388980384689
ODOM 14.780000000000001, 1.28, -2.732388980384689
ODOM 14.76, 1.28, -2.752388980384689
ODOM 14.74, 1.26, -2.772388980384689
ODOM 14.72, 1.26, -2.792388980384689
ODOM 14.700000000000001, 1.26, -2.812388980384689
ODOM 14.68, 1.24, -2.832388980384689
ODOM 14.66, 1.24, -2.852388980384689
ODOM 14.64, 1.24, -2.872388980384689
ODOM 14.620000000000001, 1.22, -2.892388980384689
ODOM 14.6, 1.22, -2.912388980384689
ODOM 14.58, 1.22, -2.932388980384689
ODOM 14.56, 1.22, -2.952388980384689
ODOM 14.540000000000001, 1.22, -2.972388980384689
ODOM 14.52, 1.2, -2.992388980384689
ODOM 14.5, 1.2, -3.012388980384689
ODOM 14.48, 1.2, -3.032388980384689
ODOM 14.46, 1.2, -3.052388980384689
ODOM 14.44, 1.2, -3.072388980384689
ODOM 14.42, 1.2, -3.092388980384689
ODOM 14.4, 1.2, -3.112388980384689
ODOM 14.38, 1.2, -3.132388980384689
ODOM 14.36, 1.2, 3.1307963267948975
ODOM 14.34, 1.2, 3.1107963267948975
ODOM 14.32, 1.2, 3.0907963267948975
ODOM 14.3, 1.2, 3.0707963267948974
ODOM 14.280000000000001, 1.2, 3.0507963267948974
ODOM 14.26, 1.2, 3.0307963267948974
ODOM 14.24, 1.2, 3.0107963267948974
ODOM 14.22, 1.2, 2.9907963267948974
ODOM 14.200000000000001, 1.22, 2.9907963267948974
ODOM 14.18, 1.22, 2.9907963267948974
ODOM 14.16, 1.22, 2.9907963267948974
ODOM 14.16, 1.22, 2.9907963267948974
ODOM 14.14, 1.22, 2.9907963267948974
ODOM 14.120000000000001, 1.22, 2.9907963267948974
ODOM 14.1, 1.22, 2.9907963267948974
ODOM 14.08, 1.24, 2.9907963267948974
ODOM 14.06, 1.24, 2.9707963267948974
ODOM 14.040000000000001, 1.24, 2.9507963267948973
ODOM 14.02, 1.24, 2.9307963267948973
ODOM 14.0, 1.24, 2.9107963267948973
ODOM 13.98, 1.26, 2.8907963267948973
ODOM 13.96, 1.26, 2.8707963267948973
ODOM 13.94, 1.26, 2.8507963267948973
ODOM 13.92, 1.26, 2.8307963267948972
ODOM 13.9, 1.28, 2.810796326794897
ODOM 13.88, 1.28, 2.790796326794897
ODOM 13.86, 1.28, 2.770796326794897
ODOM 13.84, 1.3, 2.750796326794897
ODOM 13.82, 1.3, 2.730796326794897
ODOM 13.8, 1.32, 2.710796326794897
ODOM 13.780000000000001, 1.32, 2.690796326794897
ODOM 13.76, 1.34, 2.670796326794897
ODOM 13.76, 1.34, 2.650796326794897
ODOM 13.74, 1.34, 2.630796326794897
ODOM 13.72, 1.36, 2.610796326794897
ODOM 13.700000000000001, 1.36, 2.590796326794897
ODOM 13.68, 1.3800000000000001, 2.570796326794897
ODOM 13.66, 1.4000000000000001, 2.550796326794897
ODOM 13.64, 1.4000000000000001, 2.530796326794897
ODOM 13.64, 1.42, 2.510796326794897
ODOM 13.620000000000001, 1.42, 2.490796326794897
ODOM 13.6, 1.44, 2.470796326794897
ODOM 13.58, 1.46, 2.450796326794897
ODOM 13.56, 1.46, 2.430796326794897
ODOM 13.56, 1.48, 2.410796326794897
ODOM 13.540000000000001, 1.5, 2.390796326794897
ODOM 13.52, 1.5, 2.370796326794897
ODOM 13.52, 1.52, 2.350796326794897
ODOM 13.5, 1.54, 2.330796326794897
ODOM 13.48, 1.54, 2.3107963267948968
ODOM 13.46, 1.56, 2.2907963267948968
ODOM 13.46, 1.58, 2.2707963267948967
ODOM 13.44, 1.6, 2.2507963267948967
ODOM 13.44, 1.6, 2.2307963267948967
ODOM 13.42, 1.62, 2.2107963267948967
ODOM 13.4, 1.6400000000000001, 2.1907963267948967
ODOM 13.4, 1.6600000000000001, 2.1707963267948966
ODOM 13.38, 1.68, 2.1507963267948966
ODOM 13.38, 1.7, 2.1307963267948966
ODOM 13.36, 1.7, 2.1107963267948966
ODOM 13.36, 1.72, 2.0907963267948966
ODOM 13.34, 1.74, 2.0707963267948966
ODOM 13.34, 1.76, 2.0507963267948965
ODOM 13.32, 1.78, 2.0307963267948965
ODOM 13.32, 1.8, 2.0107963267948965
ODOM 13.3, 1.82, 1.9907963267948965
ODOM 13.3, 1.84, 1.9707963267948965
ODOM 13.3, 1.86, 1.9507963267948965
ODOM 13.280000000000001, 1.86, 1.9307963267948964
ODOM 13.280000000000001, 1.8800000000000001, 1.9107963267948964
ODOM 13.280000000000001, 1.9000000000000001, 1.8907963267948964
ODOM 13.26, 1.92, 1.8707963267948964
ODOM 13.26, 1.94, 1.8507963267948964
ODOM 13.26, 1.96, 1.8307963267948963
ODOM 13.26, 1.98, 1.8107963267948963
ODOM 13.24, 2.0, 1.7907963267948963
ODOM 13.24, 2.02, 1.7707963267948963
ODOM 13.24, 2.04, 1.7507963267948963
ODOM 13.24, 2.06, 1.7307963267948963
ODOM 13.24, 2.08, 1.7107963267948962
ODOM 13.22, 2.1, 1.6907963267948962
ODOM 13.22, 2.12, 1.6707963267948962
ODOM 13.22, 2.14, 1.6507963267948962
ODOM 13.22, 2.16, 1.6307963267948962
ODOM 13.22, 2.18, 1.6107963267948961
ODOM 13.22, 2.2, 1.5907963267948961
ODOM 13.22, 2.22, 1.5707963267948961
ODOM 13.22, 2.24, 1.550796326794896
ODOM 13.22, 2.2600000000000002, 1.530796326794896
ODOM 13.22, 2.2800000000000002, 1.510796326794896
ODOM 13.22, 2.3000000000000003, 1.490796326794896
ODOM 13.22, 2.32, 1.470796326794896
ODOM 13.22, 2.34, 1.450796326794896
ODOM 13.24, 2.36, 1.430796326794896
ODOM 13.24, 2.38, 1.410796326794896
ODOM 13.24, 2.4, 1.390796326794896
ODOM 13.24, 2.42, 1.390796326794896
ODOM 13.24, 2.44, 1.390796326794896
ODOM 13.24, 2.46, 1.390796326794896
ODOM 13.26, 2.48, 1.390796326794896
ODOM 13.26, 2.5, 1.390796326794896
ODOM 13.26, 2.52, 1.390796326794896
ODOM 13.26, 2.54, 1.390796326794896
ODOM 13.26, 2.56, 1.390796326794896
ODOM 13.26, 2.58, 1.390796326794896
ODOM 13.280000000000001, 2.6, 1.390796326794896
ODOM 13.280000000000001, 2.62, 1.390796326794896
ODOM 13.280000000000001, 2.64, 1.390796326794896
ODOM 13.280000000000001, 2.66, 1.390796326794896
ODOM 13.280000000000001, 2.68, 1.390796326794896
ODOM 13.3, 2.7, 1.390796326794896
ODOM 13.3, 2.72, 1.390796326794896
ODOM 13.3, 2.74, 1.390796326794896
ODOM 13.3, 2.7600000000000002, 1.390796326794896
ODOM 13.3, 2.7800000000000002, 1.390796326794896
ODOM 13.3, 2.8000000000000003, 1.390796326794896
ODOM 13.32, 2.82, 1.390796326794896
ODOM 13.32, 2.84, 1.390796326794896
ODOM 13.32, 2.86, 1.390796326794896
ODOM 13.32, 2.88, 1.390796326794896
ODOM 13.32, 2.9, 1.390796326794896
ODOM 13.34, 2.92, 1.390796326794896
ODOM 13.34, 2.94, 1.390796326794896
ODOM 13.34, 2.96, 1.390796326794896
ODOM 13.34, 2.98, 1.390796326794896
ODOM 13.34, 3.0, 1.390796326794896
ODOM 13.34, 3.02, 1.390796326794896
ODOM 13.36, 3.04, 1.390796326794896
ODOM 13.36, 3.04, 1.390796326794896
ODOM 13.36, 3.06, 1.390796326794896
ODOM 13.36, 3.08, 1.390796326794896
ODOM 13.36, 3.1, 1.390796326794896
ODOM 13.36, 3.12, 1.390796326794896
ODOM 13.38, 3.14, 1.390796326794896
ODOM 13.38, 3.16, 1.390796326794896
ODOM 13.38, 3.18, 1.390796326794896
ODOM 13.38, 3.2, 1.390796326794896
ODOM 13.38, 3.22, 1.390796326794896
ODOM 13.4, 3.24, 1.390796326794896
ODOM 13.4, 3.2600000000000002, 1.390796326794896
ODOM 13.4, 3.2800000000000002, 1.390796326794896
ODOM 13.4, 3.3000000000000003, 1.390796326794896
ODOM 13.4, 3.3200000000000003, 1.390796326794896
ODOM 13.4, 3.34, 1.390796326794896
ODOM 13.42, 3.36, 1.390796326794896
ODOM 13.42, 3.38, 1.390796326794896
ODOM 13.42, 3.4, 1.390796326794896
ODOM 13.42, 3.42, 1.390796326794896
ODOM 13.42, 3.44, 1.390796326794896
ODOM 13.44, 3.46, 1.390796326794896
ODOM 13.44, 3.48, 1.390796326794896
ODOM 13.44, 3.5, 1.390796326794896
ODOM 13.44, 3.52, 1.390796326794896
ODOM 13.44, 3.54, 1.390796326794896
ODOM 13.44, 3.56, 1.390796326794896
ODOM 13.46, 3.58, 1.390796326794896
ODOM 13.46, 3.6, 1.390796326794896
ODOM 13.46, 3.62, 1.390796326794896
ODOM 13.46, 3.64, 1.390796326794896
ODOM 13.46, 3.66, 1.390796326794896
ODOM 13.48, 3.68, 1.390796326794896
ODOM 13.48, 3.7, 1.390796326794896
ODOM 13.48, 3.72, 1.390796326794896
ODOM 13.48, 3.74, 1.390796326794896
ODOM 13.48, 3.7600000000000002, 1.390796326794896
ODOM 13.48, 3.7800000000000002, 1.390796326794896
ODOM 13.5, 3.8000000000000003, 1.390796326794896
ODOM 13.5, 3.8200000000000003, 1.390796326794896
ODOM 13.5, 3.84, 1.390796326794896
ODOM 13.5, 3.86, 1.390796326794896
ODOM 13.5, 3.88, 1.390796326794896
ODOM 13.5, 3.9, 1.390796326794896
ODOM 13.52, 3.92, 1.390796326794896
ODOM 13.52, 3.94, 1.390796326794896
ODOM 13.52, 3.96, 1.390796326794896
ODOM 13.52, 3.98, 1.370796326794896
ODOM 13.52, 4.0, 1.350796326794896
ODOM 13.540000000000001, 4.0200000000000005, 1.330796326794896
ODOM 13.540000000000001, 4.04, 1.3107963267948959
ODOM 13.540000000000001, 4.0600000000000005, 1.2907963267948959
ODOM 13.540000000000001, 4.08, 1.2707963267948958
ODOM 13.56, 4.1, 1.2507963267948958
ODOM 13.56, 4.1, 1.2307963267948958
ODOM 13.56, 4.12, 1.2107963267948958
