ODOM 7.016 4.980 1.570796 0.221 0.100 0 1031745824.958 iB21 0.000
FLASER 180 2.063 1.936 1.966 2.068 1.859 1.952 1.962 2.115 2.011 2.037 1.965 2.064 1.965 1.949 2.039 1.996 2.050 1.965 2.050 1.987 1.903 1.970 1.963 2.061 1.891 1.999 2.000 1.916 1.951 1.960 1.907 1.898 1.952 1.919 2.004 1.882 1.858 1.895 1.848 1.866 1.898 1.874 1.876 1.859 1.838 1.769 1.869 1.813 1.799 1.785 1.811 1.843 1.766 1.836 1.777 1.738 1.842 1.806 1.807 1.834 1.821 1.759 1.786 1.724 1.837 1.728 1.757 1.685 1.736 1.621 1.650 1.638 1.673 1.686 1.518 1.593 1.691 1.568 1.624 1.614 1.530 1.579 1.565 1.564 1.467 1.533 1.440 1.516 1.569 1.438 1.530 1.457 1.505 1.494 1.414 1.457 1.544 1.456 1.363 1.403 1.431 1.351 1.429 1.395 1.356 1.353 1.374 1.430 1.292 1.327 1.363 1.370 1.344 1.323 1.263 1.371 1.314 1.266 1.301 1.318 1.209 1.226 1.166 1.227 1.201 1.146 1.264 1.226 1.207 1.190 1.100 1.266 1.173 1.130 1.162 1.103 1.169 1.073 1.084 1.129 1.239 1.268 1.107 1.104 1.114 0.973 1.127 1.152 1.046 1.081 1.103 1.085 1.038 1.010 1.033 1.101 0.995 1.040 1.071 1.060 0.991 0.990 0.948 1.098 1.014 0.997 1.029 0.931 1.007 1.060 1.024 1.023 1.031 1.012 1.049 0.979 0.983 0.992 0.987 0.990 7.016 4.980 1.570796 7.016 4.980 1.570796 1031745824.978 iB21 0.020
ODOM 7.004 5.018 1.580796 0.204 0.100 0 1031745825.058 iB21 0.100
FLASER 180 1.989 2.054 1.945 1.970 2.015 1.984 2.077 1.985 1.993 1.996 1.969 1.966 1.995 1.945 1.986 2.011 1.983 1.875 1.958 2.001 1.921 1.961 2.070 1.920 1.961 1.937 1.906 1.915 1.939 2.045 1.857 1.898 1.984 2.003 1.945 1.872 1.895 1.884 1.851 1.866 1.824 1.908 1.880 1.842 1.872 1.813 1.873 1.893 1.936 1.804 1.763 1.793 1.839 1.821 1.818 1.817 1.802 1.884 1.752 1.757 1.779 1.797 1.653 1.743 1.704 1.671 1.746 1.607 1.582 1.592 1.676 1.687 1.699 1.708 1.657 1.676 1.587 1.616 1.747 1.606 1.568 1.609 1.561 1.401 1.441 1.520 1.537 1.474 1.551 1.513 1.467 1.439 1.467 1.504 1.447 1.466 1.426 1.572 1.411 1.394 1.407 1.419 1.336 1.292 1.379 1.346 1.371 1.334 1.372 1.424 1.368 1.276 1.313 1.345 1.242 1.318 1.281 1.261 1.184 1.213 1.243 1.264 1.214 1.185 1.157 1.139 1.229 1.175 1.156 1.266 1.171 1.159 1.289 1.192 1.138 1.104 1.088 1.222 1.220 1.139 1.120 1.056 1.116 1.092 1.109 1.168 1.117 1.073 1.153 1.000 0.986 1.039 1.003 1.042 1.074 1.062 1.033 0.964 1.103 1.002 1.109 0.974 1.006 1.023 1.025 1.059 1.025 1.076 1.056 0.946 0.993 1.011 0.891 1.110 0.919 1.076 1.013 0.930 0.987 0.987 7.004 5.018 1.580796 7.004 5.018 1.580796 1031745825.078 iB21 0.120
ODOM 7.006 5.044 1.590796 0.204 0.100 0 1031745825.158 iB21 0.200
FLASER 180 2.030 2.056 2.028 1.979 1.975 1.921 2.015 1.998 1.996 1.952 2.080 2.081 2.015 2.007 2.010 2.074 2.004 1.927 1.991 1.962 1.996 1.879 1.970 1.924 1.904 1.963 1.854 1.960 1.930 1.875 1.984 1.989 1.871 2.042 1.925 1.939 1.877 1.898 1.953 1.867 1.892 1.999 1.821 1.943 1.976 1.827 1.816 1.847 1.821 1.821 1.867 1.726 1.767 1.759 1.827 1.850 1.752 1.731 1.756 1.837 1.798 1.808 1.793 1.660 1.718 1.744 1.719 1.669 1.667 1.626 1.660 1.746 1.608 1.605 1.608 1.631 1.598 1.626 1.593 1.488 1.534 1.583 1.564 1.638 1.525 1.519 1.499 1.521 1.475 1.517 1.515 1.441 1.390 1.474 1.489 1.438 1.400 1.404 1.466 1.400 1.377 1.391 1.358 1.467 1.260 1.418 1.412 1.373 1.504 1.347 1.343 1.354 1.254 1.259 1.327 1.295 1.303 1.228 1.140 1.240 1.221 1.240 1.226 1.261 1.214 1.222 1.327 1.151 1.229 1.152 1.276 1.142 1.109 1.133 1.180 1.076 1.196 1.094 1.174 1.118 1.049 1.008 1.083 1.048 1.038 1.066 1.138 1.161 1.141 1.122 1.193 1.066 1.127 1.034 1.066 1.008 1.149 1.072 0.966 1.011 1.109 1.043 1.070 0.991 1.098 1.033 1.092 0.939 1.001 0.958 0.965 0.977 0.997 0.981 0.918 1.037 1.063 1.070 1.020 0.992 7.006 5.044 1.590796 7.006 5.044 1.590796 1031745825.178 iB21 0.220
ODOM 7.028 5.061 1.600796 0.200 0.100 0 1031745825.258 iB21 0.300
FLASER 180 1.949 1.917 1.963 2.055 1.995 2.076 1.938 1.998 1.987 2.015 1.950 1.981 1.987 1.992 1.979 2.005 2.025 2.073 1.972 1.946 2.036 1.997 2.012 1.889 2.025 1.916 1.902 1.949 1.953 1.990 1.932 1.960 1.833 1.914 1.893 1.900 1.898 1.872 1.855 1.878 1.879 1.756 1.838 1.827 1.853 1.953 1.848 1.829 1.818 1.765 1.722 1.804 1.745 1.850 1.803 1.848 1.756 1.704 1.839 1.758 1.705 1.667 1.718 1.695 1.725 1.728 1.688 1.640 1.680 1.708 1.692 1.572 1.608 1.604 1.721 1.616 1.710 1.589 1.624 1.624 1.612 1.631 1.518 1.522 1.510 1.494 1.568 1.506 1.548 1.517 1.518 1.558 1.493 1.553 1.535 1.463 1.472 1.446 1.380 1.434 1.361 1.406 1.335 1.366 1.292 1.367 1.299 1.408 1.334 1.310 1.303 1.314 1.292 1.250 1.376 1.198 1.293 1.339 1.338 1.313 1.265 1.306 1.303 1.217 1.265 1.315 1.172 1.125 1.236 1.154 1.263 1.105 1.118 1.215 1.145 1.145 1.166 1.119 1.073 1.130 1.071 1.102 1.116 1.084 1.050 1.125 1.180 1.117 1.106 1.125 1.113 1.018 1.006 1.051 1.050 1.076 1.108 1.101 1.070 1.042 1.002 1.049 1.069 1.066 0.923 1.096 0.948 1.008 0.997 1.049 1.071 1.017 1.006 1.012 0.973 1.033 1.027 0.947 1.000 1.016 7.028 5.061 1.600796 7.028 5.061 1.600796 1031745825.278 iB21 0.320
ODOM 7.000 5.068 1.610796 0.196 0.100 0 1031745825.358 iB21 0.400
FLASER 180 2.038 1.994 2.039 2.046 2.018 1.972 1.949 1.946 1.959 2.048 2.006 1.918 1.974 1.977 2.046 2.095 1.977 2.032 1.984 1.937 1.969 1.970 1.957 1.974 1.867 1.917 1.957 1.976 1.941 1.887 1.863 2.034 1.936 1.944 1.838 1.904 1.942 1.910 1.783 1.839 1.879 1.863 1.884 1.848 1.827 1.877 1.895 1.776 1.869 1.803 1.840 1.809 1.797 1.827 1.843 1.819 1.807 1.743 1.857 1.754 1.819 1.765 1.775 1.769 1.704 1.640 1.758 1.683 1.636 1.685 1.694 1.580 1.691 1.659 1.600 1.681 1.658 1.590 1.570 1.569 1.538 1.591 1.505 1.567 1.626 1.485 1.589 1.440 1.496 1.490 1.537 1.588 1.451 1.459 1.503 1.505 1.459 1.427 1.505 1.449 1.472 1.357 1.313 1.420 1.404 1.319 1.294 1.426 1.409 1.390 1.321 1.279 1.312 1.338 1.275 1.303 1.266 1.282 1.204 1.281 1.198 1.205 1.246 1.310 1.300 1.279 1.240 1.209 1.145 1.195 1.263 1.111 1.240 1.103 1.122 1.144 1.159 1.168 1.146 1.227 1.176 1.101 1.086 1.169 1.099 1.121 1.048 1.028 1.025 1.114 1.012 1.161 1.018 1.148 1.094 1.065 1.109 1.007 1.041 1.014 1.037 0.999 1.059 0.997 0.966 0.958 1.112 1.018 1.073 0.970 0.989 0.935 1.028 0.954 0.905 1.074 0.999 1.043 0.902 1.030 7.000 5.068 1.610796 7.000 5.068 1.610796 1031745825.378 iB21 0.420
ODOM 6.964 5.078 1.620796 0.185 0.100 0 1031745825.458 iB21 0.500
FLASER 180 1.927 2.022 1.947 2.135 2.002 2.012 1.997 2.046 1.971 1.905 1.950 1.986 2.022 2.041 2.033 1.997 2.021 2.078 1.947 1.943 1.998 1.984 2.005 1.930 1.986 1.965 1.982 1.965 1.949 2.006 1.944 1.962 1.898 1.882 1.886 1.993 1.811 1.896 1.897 1.891 1.888 1.821 1.871 1.874 1.845 1.818 1.884 1.785 1.773 1.904 1.817 1.724 1.893 1.847 1.785 1.771 1.733 1.690 1.712 1.786 1.784 1.769 1.821 1.749 1.722 1.769 1.713 1.718 1.727 1.668 1.716 1.671 1.746 1.533 1.584 1.519 1.547 1.652 1.652 1.571 1.606 1.552 1.539 1.488 1.503 1.575 1.547 1.417 1.467 1.514 1.401 1.565 1.504 1.465 1.433 1.449 1.497 1.423 1.311 1.308 1.444 1.438 1.414 1.379 1.433 1.408 1.316 1.305 1.396 1.349 1.334 1.425 1.313 1.419 1.335 1.282 1.243 1.310 1.229 1.312 1.253 1.171 1.220 1.250 1.179 1.131 1.223 1.203 1.151 1.121 1.169 1.181 1.239 1.201 1.144 1.177 1.205 1.101 1.106 1.090 1.093 1.122 1.086 1.136 1.042 1.111 1.064 1.135 1.094 1.038 1.024 1.045 1.073 1.128 0.918 1.043 0.995 1.065 0.899 1.014 1.012 1.011 1.007 1.042 0.956 0.969 1.084 1.064 1.002 0.921 0.913 1.006 0.988 0.994 0.995 0.993 1.042 1.042 1.040 0.988 6.964 5.078 1.620796 6.964 5.078 1.620796 1031745825.478 iB21 0.520
ODOM 6.998 5.118 1.630796 0.207 0.100 0 1031745825.558 iB21 0.600
FLASER 180 2.076 2.091 2.017 2.092 1.985 2.093 1.898 1.919 2.062 2.008 2.039 2.006 2.001 2.064 2.038 2.043 2.018 1.951 2.026 2.038 1.991 2.019 1.938 1.946 1.981 1.943 1.925 1.979 1.856 1.912 1.893 1.900 1.939 1.893 1.973 1.967 1.937 1.942 1.851 1.983 1.939 1.973 1.898 1.948 1.831 1.869 1.862 1.869 1.846 1.813 1.771 1.858 1.837 1.857 1.794 1.759 1.745 1.838 1.852 1.810 1.775 1.786 1.796 1.696 1.759 1.763 1.644 1.684 1.722 1.645 1.610 1.665 1.606 1.631 1.620 1.691 1.576 1.576 1.571 1.704 1.628 1.666 1.577 1.526 1.539 1.572 1.518 1.523 1.554 1.504 1.475 1.468 1.457 1.489 1.505 1.362 1.501 1.428 1.397 1.437 1.412 1.417 1.325 1.380 1.341 1.294 1.279 1.369 1.304 1.343 1.276 1.365 1.444 1.405 1.353 1.310 1.168 1.314 1.225 1.269 1.190 1.169 1.254 1.213 1.206 1.304 1.149 1.172 1.193 1.163 1.187 1.182 1.136 1.149 1.171 1.157 1.089 1.178 1.039 1.133 1.114 1.152 1.144 1.127 1.076 1.100 1.167 0.999 1.129 0.980 1.067 1.052 1.060 0.998 1.155 1.154 1.084 1.042 1.034 1.047 1.053 0.956 0.982 1.007 0.969 0.983 1.031 0.992 1.049 1.022 1.081 0.939 1.042 1.030 0.906 0.916 1.024 0.964 0.922 1.042 6.998 5.118 1.630796 6.998 5.118 1.630796 1031745825.578 iB21 0.620
ODOM 6.980 5.155 1.640796 0.203 0.100 0 1031745825.658 iB21 0.700
FLASER 180 2.004 1.991 2.040 2.014 1.926 2.077 2.016 1.992 1.986 2.000 1.919 1.939 1.988 1.982 1.990 1.985 1.996 1.914 1.901 1.967 1.943 1.919 1.960 2.058 1.875 1.957 1.932 1.905 1.999 1.934 1.910 1.914 1.913 2.085 1.871 1.979 1.902 1.945 1.794 1.876 1.995 1.844 1.938 1.864 1.866 1.823 1.840 1.877 1.839 1.815 1.773 1.767 1.827 1.869 1.760 1.794 1.731 1.717 1.701 1.714 1.745 1.704 1.790 1.764 1.673 1.730 1.766 1.696 1.695 1.720 1.674 1.691 1.560 1.611 1.584 1.710 1.650 1.551 1.621 1.701 1.658 1.545 1.603 1.446 1.605 1.617 1.524 1.568 1.545 1.490 1.550 1.467 1.413 1.476 1.439 1.533 1.426 1.342 1.328 1.483 1.459 1.408 1.435 1.446 1.397 1.344 1.335 1.502 1.380 1.418 1.294 1.223 1.345 1.298 1.343 1.350 1.254 1.244 1.246 1.301 1.227 1.229 1.263 1.171 1.287 1.170 1.163 1.201 1.266 1.203 1.141 1.197 1.109 1.118 1.130 1.224 1.093 1.148 1.111 1.088 1.085 1.113 1.054 1.108 1.075 1.092 1.042 1.027 1.120 1.042 1.100 1.027 1.005 0.982 1.048 1.095 1.000 1.037 1.002 1.056 0.980 0.952 1.024 1.016 1.067 1.013 0.976 0.965 1.039 1.040 1.040 0.983 1.014 1.039 0.984 0.969 1.001 1.056 1.075 0.881 6.980 5.155 1.640796 6.980 5.155 1.640796 1031745825.678 iB21 0.720
ODOM 6.973 5.150 1.650796 0.191 0.100 0 1031745825.758 iB21 0.800
FLASER 180 1.970 2.087 1.976 1.963 1.994 2.013 2.001 1.979 2.027 1.966 2.062 1.917 2.001 1.936 2.003 2.038 1.941 1.902 1.930 2.036 1.965 1.963 1.945 1.917 1.922 1.997 1.812 2.028 1.847 2.034 1.929 1.971 1.924 1.908 1.936 1.975 1.913 1.893 1.873 1.926 1.834 1.743 1.918 1.860 1.811 1.923 1.849 1.849 1.769 1.787 1.836 1.764 1.771 1.844 1.773 1.827 1.764 1.771 1.712 1.738 1.736 1.700 1.711 1.757 1.723 1.753 1.663 1.674 1.740 1.649 1.641 1.665 1.717 1.664 1.650 1.563 1.630 1.706 1.615 1.594 1.551 1.619 1.593 1.640 1.619 1.537 1.509 1.481 1.469 1.503 1.528 1.453 1.388 1.410 1.424 1.450 1.479 1.358 1.408 1.350 1.376 1.470 1.446 1.480 1.355 1.409 1.341 1.339 1.359 1.338 1.386 1.394 1.290 1.274 1.339 1.302 1.326 1.347 1.298 1.179 1.309 1.313 1.299 1.184 1.239 1.299 1.196 1.258 1.214 1.155 1.176 1.241 1.184 1.153 1.271 1.173 1.221 1.077 1.155 1.124 1.157 1.096 1.055 1.095 1.014 1.058 1.045 1.100 1.088 1.086 0.987 1.000 0.937 0.935 1.009 1.008 1.080 1.047 1.025 1.072 1.078 0.950 1.036 1.084 1.039 1.065 1.033 0.942 0.978 1.006 1.100 0.940 0.981 1.139 1.051 1.011 1.047 0.950 0.949 1.050 6.973 5.150 1.650796 6.973 5.150 1.650796 1031745825.778 iB21 0.820
ODOM 7.006 5.169 1.660796 0.203 0.100 0 1031745825.858 iB21 0.900
FLASER 180 1.974 1.983 1.935 1.930 1.931 1.924 2.018 1.959 2.040 1.984 1.966 1.897 2.024 2.036 2.012 2.019 1.954 2.042 1.999 1.987 2.021 1.926 1.946 2.003 1.980 1.984 1.922 1.938 1.950 1.934 1.871 2.000 2.035 1.930 1.892 1.907 1.744 1.803 1.829 1.803 1.858 1.892 1.829 1.878 1.937 1.857 1.787 1.881 1.823 1.819 1.824 1.798 1.812 1.736 1.737 1.779 1.781 1.741 1.771 1.784 1.768 1.780 1.632 1.734 1.709 1.653 1.640 1.571 1.710 1.634 1.715 1.667 1.653 1.597 1.691 1.614 1.685 1.637 1.619 1.630 1.603 1.618 1.641 1.502 1.553 1.532 1.446 1.447 1.553 1.526 1.478 1.412 1.462 1.428 1.463 1.475 1.364 1.427 1.499 1.448 1.451 1.397 1.349 1.413 1.472 1.409 1.309 1.332 1.339 1.320 1.308 1.302 1.284 1.270 1.351 1.345 1.210 1.243 1.346 1.312 1.274 1.244 1.241 1.175 1.289 1.295 1.221 1.148 1.203 1.178 1.220 1.098 1.160 1.202 1.242 1.124 1.207 1.087 1.108 1.123 1.105 1.143 1.133 1.052 1.068 1.090 1.158 1.098 0.985 1.053 1.048 1.079 1.025 1.077 1.066 1.124 1.034 1.016 1.118 1.010 0.987 1.009 1.081 1.052 1.035 1.059 1.005 1.052 1.096 0.950 1.085 0.990 1.066 1.014 1.042 1.053 1.036 1.096 1.104 1.057 7.006 5.169 1.660796 7.006 5.169 1.660796 1031745825.878 iB21 0.920
ODOM 6.971 5.231 1.670796 0.205 0.100 0 1031745825.958 iB21 1.000
FLASER 180 1.976 2.064 1.932 1.961 1.930 1.938 2.001 2.029 2.007 1.978 2.028 1.956 2.039 1.979 1.972 1.994 2.033 1.950 1.991 1.938 1.908 1.945 1.865 2.017 1.994 1.876 1.941 1.963 1.898 2.045 1.907 1.902 1.973 1.901 1.987 1.908 1.971 1.875 1.895 1.921 1.835 1.830 1.864 1.717 1.925 1.808 1.972 1.789 1.838 1.885 1.877 1.807 1.774 1.826 1.865 1.799 1.776 1.843 1.760 1.769 1.793 1.668 1.659 1.793 1.752 1.738 1.786 1.659 1.686 1.792 1.744 1.644 1.618 1.634 1.643 1.640 1.678 1.630 1.571 1.597 1.557 1.600 1.573 1.501 1.531 1.567 1.506 1.587 1.525 1.509 1.481 1.407 1.463 1.412 1.497 1.543 1.386 1.465 1.394 1.404 1.432 1.317 1.418 1.442 1.317 1.374 1.314 1.402 1.370 1.332 1.360 1.206 1.342 1.281 1.272 1.300 1.329 1.292 1.304 1.288 1.179 1.155 1.295 1.319 1.205 1.119 1.149 1.272 1.258 1.152 1.269 1.155 1.128 1.111 1.131 1.191 1.130 1.159 1.005 1.229 1.042 1.172 1.144 1.026 1.062 1.091 1.119 1.132 1.034 1.088 1.060 0.989 1.081 1.001 0.963 1.023 1.057 1.007 0.978 1.078 1.042 0.944 0.991 0.997 0.936 0.980 0.971 1.046 1.026 0.998 0.962 0.957 0.902 0.899 1.059 1.136 1.011 0.919 0.939 1.093 6.971 5.231 1.670796 6.971 5.231 1.670796 1031745825.978 iB21 1.020
ODOM 7.007 5.193 1.680796 0.208 0.100 0 1031745826.058 iB21 1.100
FLASER 180 2.061 2.076 1.949 1.981 1.995 1.844 2.065 1.980 1.955 2.004 1.982 1.905 2.012 1.986 1.955 2.021 1.979 1.992 1.970 1.915 1.898 1.958 1.838 1.923 1.992 2.069 1.947 1.897 2.025 1.842 1.851 1.930 2.018 1.937 1.938 1.874 1.881 1.980 1.888 1.902 1.865 1.854 1.798 1.920 1.878 1.826 1.803 1.794 1.759 1.862 1.850 1.832 1.853 1.769 1.781 1.712 1.795 1.830 1.639 1.765 1.744 1.764 1.719 1.741 1.728 1.787 1.686 1.690 1.658 1.699 1.727 1.603 1.691 1.579 1.641 1.651 1.630 1.627 1.561 1.501 1.571 1.564 1.568 1.580 1.496 1.606 1.570 1.665 1.513 1.489 1.469 1.532 1.610 1.489 1.473 1.425 1.415 1.504 1.393 1.489 1.421 1.355 1.354 1.388 1.393 1.342 1.345 1.344 1.274 1.207 1.342 1.364 1.348 1.274 1.332 1.289 1.218 1.315 1.243 1.272 1.197 1.265 1.280 1.153 1.232 1.198 1.208 1.232 1.259 1.182 1.191 1.225 1.150 1.080 1.145 1.078 1.208 1.243 1.124 1.136 1.128 1.146 1.120 1.044 1.096 1.132 1.053 1.176 1.121 1.050 1.089 0.995 0.998 1.186 1.167 1.106 1.080 1.060 1.119 1.015 0.965 1.053 1.001 0.974 0.985 1.028 1.042 0.984 1.098 0.955 0.973 0.983 1.050 1.018 0.983 1.013 1.068 1.087 1.004 1.050 7.007 5.193 1.680796 7.007 5.193 1.680796 1031745826.078 iB21 1.120
ODOM 7.002 5.201 1.690796 0.205 0.100 0 1031745826.158 iB21 1.200
FLASER 180 1.973 1.936 1.976 2.030 2.007 1.979 1.977 2.025 2.030 2.020 2.061 1.997 2.031 1.950 1.948 2.001 2.040 1.989 1.935 1.986 1.953 2.000 1.977 1.983 1.948 1.826 2.026 1.963 1.971 1.974 1.932 2.007 1.837 1.926 1.950 1.957 1.915 1.946 1.914 1.886 1.876 1.763 1.839 1.854 1.914 1.806 1.878 1.796 1.827 1.825 1.861 1.789 1.839 1.734 1.808 1.705 1.774 1.815 1.706 1.784 1.751 1.769 1.779 1.783 1.661 1.706 1.586 1.733 1.677 1.605 1.588 1.625 1.616 1.677 1.653 1.650 1.561 1.563 1.650 1.552 1.444 1.582 1.640 1.544 1.637 1.600 1.504 1.449 1.550 1.417 1.473 1.494 1.510 1.480 1.443 1.513 1.424 1.493 1.510 1.408 1.504 1.439 1.431 1.426 1.362 1.385 1.341 1.309 1.366 1.331 1.299 1.332 1.256 1.297 1.249 1.285 1.299 1.316 1.247 1.223 1.206 1.289 1.237 1.247 1.278 1.154 1.137 1.246 1.247 1.148 1.142 1.149 1.174 1.216 1.237 1.106 1.141 1.062 1.096 1.182 1.166 1.184 1.075 1.105 1.047 1.151 1.106 1.048 1.053 1.042 1.030 1.061 1.067 1.004 1.002 0.991 1.017 1.042 1.043 0.985 1.099 1.090 0.931 1.051 0.996 1.011 1.027 1.064 0.969 1.040 1.066 0.962 1.014 1.023 0.964 1.026 0.965 0.937 0.997 0.923 7.002 5.201 1.690796 7.002 5.201 1.690796 1031745826.178 iB21 1.220
ODOM 7.018 5.294 1.700796 0.211 0.100 0 1031745826.258 iB21 1.300
FLASER 180 2.021 2.003 1.941 2.109 2.026 1.962 1.963 2.063 2.000 1.940 2.011 1.976 1.950 1.966 1.926 2.038 1.929 1.999 1.985 1.986 1.932 1.827 2.029 1.920 1.990 2.008 1.983 1.980 1.942 1.992 1.998 1.891 2.014 1.886 1.949 1.850 1.897 1.901 1.834 1.843 1.831 1.885 1.854 1.825 1.916 1.824 1.778 1.940 1.834 1.868 1.833 1.811 1.841 1.794 1.798 1.864 1.737 1.821 1.750 1.780 1.756 1.774 1.744 1.709 1.789 1.581 1.618 1.672 1.697 1.706 1.782 1.670 1.645 1.608 1.633 1.566 1.634 1.533 1.601 1.606 1.660 1.631 1.595 1.555 1.478 1.572 1.493 1.597 1.548 1.466 1.547 1.486 1.475 1.482 1.456 1.454 1.472 1.471 1.361 1.393 1.393 1.330 1.359 1.331 1.454 1.450 1.288 1.334 1.361 1.321 1.396 1.217 1.257 1.331 1.255 1.358 1.308 1.229 1.309 1.268 1.238 1.310 1.280 1.204 1.144 1.216 1.221 1.267 1.251 1.200 1.186 1.162 1.206 1.279 1.224 1.187 1.105 1.028 1.064 1.171 1.098 1.026 1.168 1.097 1.022 0.990 1.059 1.104 1.124 1.065 1.110 0.985 1.061 0.969 1.004 1.077 1.116 0.976 1.058 0.996 1.020 1.018 1.122 1.040 1.055 1.019 0.999 1.070 1.009 1.074 0.994 1.080 1.056 0.999 1.027 1.014 1.002 0.937 0.988 0.974 7.018 5.294 1.700796 7.018 5.294 1.700796 1031745826.278 iB21 1.320
ODOM 6.998 5.268 1.710796 0.198 0.100 0 1031745826.358 iB21 1.400
FLASER 180 1.990 1.971 2.047 1.976 1.945 1.939 2.102 1.943 2.090 1.952 1.924 2.006 1.797 1.972 1.905 1.905 2.022 1.965 1.950 1.864 1.964 2.026 2.005 1.954 2.038 1.906 1.918 2.039 1.911 1.952 1.931 1.975 1.969 1.980 1.953 1.814 1.913 2.072 1.854 1.892 1.976 1.866 1.852 1.925 1.899 1.842 1.843 1.799 1.819 1.740 1.774 1.775 1.776 1.776 1.796 1.811 1.747 1.765 1.712 1.741 1.811 1.753 1.765 1.730 1.692 1.712 1.618 1.716 1.709 1.653 1.563 1.713 1.709 1.558 1.650 1.660 1.573 1.562 1.662 1.549 1.560 1.567 1.566 1.517 1.492 1.635 1.614 1.468 1.506 1.496 1.463 1.372 1.453 1.604 1.526 1.434 1.481 1.406 1.452 1.417 1.362 1.425 1.405 1.367 1.396 1.372 1.375 1.367 1.349 1.286 1.362 1.410 1.290 1.353 1.432 1.308 1.347 1.246 1.260 1.318 1.294 1.205 1.190 1.204 1.296 1.213 1.247 1.273 1.222 1.280 1.255 1.286 1.181 1.292 1.224 1.136 1.131 1.139 1.091 1.085 1.181 1.102 1.159 0.997 1.088 1.112 1.063 1.111 1.131 1.079 1.046 0.956 1.022 1.040 0.956 1.118 1.021 1.039 1.092 1.038 1.072 0.997 1.020 1.044 0.962 1.015 1.014 1.092 1.040 0.946 0.978 1.058 1.044 1.063 1.045 0.925 0.885 0.966 0.950 0.919 6.998 5.268 1.710796 6.998 5.268 1.710796 1031745826.378 iB21 1.420
ODOM 6.992 5.290 1.720796 0.199 0.100 0 1031745826.458 iB21 1.500
FLASER 180 1.968 2.038 2.023 1.945 2.043 1.925 2.029 2.022 1.966 2.058 2.086 1.942 1.952 2.012 1.977 1.969 1.977 1.961 1.980 2.017 1.914 1.976 1.874 1.900 1.929 1.971 1.873 1.978 1.910 1.913 1.912 1.974 1.937 1.817 1.982 1.851 1.904 1.935 1.853 1.859 1.932 1.801 1.843 1.844 1.848 1.907 1.873 1.828 1.871 1.739 1.780 1.762 1.870 1.791 1.789 1.831 1.898 1.818 1.709 1.788 1.794 1.729 1.793 1.688 1.720 1.774 1.680 1.626 1.626 1.702 1.660 1.659 1.725 1.602 1.647 1.595 1.572 1.600 1.493 1.585 1.639 1.525 1.529 1.608 1.545 1.518 1.599 1.543 1.548 1.529 1.427 1.497 1.483 1.498 1.503 1.400 1.534 1.402 1.422 1.371 1.443 1.449 1.453 1.484 1.374 1.373 1.453 1.379 1.266 1.373 1.251 1.333 1.331 1.220 1.362 1.297 1.235 1.291 1.236 1.285 1.179 1.287 1.269 1.162 1.132 1.257 1.270 1.167 1.182 1.188 1.206 1.209 1.141 1.132 1.155 1.044 1.199 1.060 1.137 1.108 1.083 1.085 1.095 1.195 1.082 1.025 1.108 1.111 1.082 1.040 1.161 1.121 1.004 1.046 1.025 0.999 1.122 0.966 1.080 1.053 0.963 1.029 0.996 1.074 1.026 1.019 1.005 0.966 0.980 0.975 0.972 0.916 0.983 1.046 0.986 0.954 0.967 1.069 1.074 1.055 6.992 5.290 1.720796 6.992 5.290 1.720796 1031745826.478 iB21 1.520
ODOM 7.000 5.322 1.730796 0.198 0.100 0 1031745826.558 iB21 1.600
FLASER 180 1.990 2.010 2.033 1.968 1.999 2.078 1.946 1.988 1.931 1.951 1.974 1.895 2.006 1.953 1.990 1.991 1.855 2.053 2.005 1.973 1.821 2.083 2.013 1.965 1.941 1.960 1.925 1.923 1.863 1.940 1.924 1.879 1.881 1.973 2.003 1.891 1.942 1.947 1.814 1.848 1.866 1.959 1.826 1.866 1.953 1.869 1.863 1.891 1.869 1.825 1.790 1.839 1.824 1.806 1.816 1.804 1.805 1.674 1.769 1.742 1.769 1.742 1.708 1.681 1.753 1.635 1.763 1.705 1.680 1.668 1.663 1.668 1.710 1.569 1.689 1.617 1.686 1.635 1.560 1.682 1.552 1.581 1.632 1.560 1.511 1.575 1.585 1.499 1.507 1.538 1.417 1.480 1.474 1.504 1.568 1.429 1.423 1.465 1.416 1.443 1.361 1.400 1.416 1.434 1.328 1.357 1.269 1.354 1.462 1.380 1.366 1.310 1.304 1.354 1.294 1.315 1.240 1.265 1.315 1.271 1.306 1.231 1.190 1.251 1.213 1.190 1.180 1.127 1.268 1.176 1.181 1.139 1.092 1.033 1.150 1.142 1.149 1.126 1.203 1.165 1.160 1.132 1.119 1.156 1.025 1.137 1.054 1.037 1.055 1.006 1.037 1.115 1.118 1.084 0.994 0.964 1.071 1.033 1.057 1.084 1.038 1.132 1.015 0.961 0.968 0.954 1.068 0.937 0.955 1.025 1.039 1.045 1.076 1.052 1.016 0.983 1.021 0.985 1.084 0.980 7.000 5.322 1.730796 7.000 5.322 1.730796 1031745826.578 iB21 1.620
ODOM 6.949 5.316 1.740796 0.201 0.100 0 1031745826.658 iB21 1.700
FLASER 180 1.982 1.959 1.999 2.085 2.017 1.976 2.013 2.040 1.978 1.938 1.941 1.978 2.002 1.991 2.024 1.975 2.002 1.948 2.014 1.945 2.021 1.998 1.980 2.035 1.912 1.931 1.975 1.871 1.839 1.957 1.885 1.921 1.934 1.951 1.943 1.903 1.953 1.865 1.867 1.896 1.833 1.974 1.874 1.810 1.831 1.863 1.821 1.781 1.791 1.890 1.726 1.874 1.792 1.804 1.733 1.806 1.762 1.817 1.750 1.810 1.718 1.753 1.719 1.699 1.794 1.672 1.679 1.695 1.685 1.751 1.720 1.657 1.553 1.672 1.659 1.624 1.574 1.588 1.532 1.635 1.606 1.617 1.591 1.525 1.562 1.538 1.589 1.526 1.646 1.538 1.476 1.446 1.467 1.524 1.552 1.442 1.455 1.501 1.370 1.471 1.397 1.420 1.378 1.344 1.361 1.346 1.412 1.372 1.361 1.373 1.250 1.414 1.371 1.398 1.283 1.281 1.312 1.252 1.266 1.242 1.262 1.242 1.195 1.236 1.270 1.222 1.189 1.127 1.184 1.180 1.182 1.150 1.173 1.113 1.058 1.215 1.132 1.182 1.151 1.148 1.230 1.119 1.155 1.073 1.030 1.073 1.017 1.144 0.964 1.148 1.117 0.977 1.037 1.070 1.112 1.046 1.000 1.065 1.042 1.054 0.991 1.124 1.049 0.924 1.056 0.987 1.053 0.974 1.013 1.108 1.009 0.980 1.052 1.071 0.988 0.987 1.017 1.054 0.990 0.974 6.949 5.316 1.740796 6.949 5.316 1.740796 1031745826.678 iB21 1.720
ODOM 6.976 5.360 1.750796 0.198 0.100 0 1031745826.758 iB21 1.800
FLASER 180 1.998 2.001 1.973 1.980 2.003 2.031 1.982 1.998 2.022 1.952 1.937 2.038 1.979 1.956 2.032 2.022 2.040 2.000 2.076 2.018 1.938 2.057 2.081 1.907 1.915 1.957 1.943 1.954 1.862 1.928 1.958 1.914 1.891 1.950 1.795 1.999 1.925 1.906 1.843 1.859 1.846 1.838 1.964 1.857 1.810 1.895 1.809 1.804 1.890 1.823 1.717 1.896 1.687 1.796 1.905 1.809 1.709 1.813 1.677 1.739 1.748 1.662 1.622 1.784 1.682 1.662 1.834 1.729 1.763 1.660 1.628 1.692 1.703 1.629 1.594 1.600 1.689 1.643 1.549 1.610 1.556 1.558 1.544 1.537 1.563 1.532 1.557 1.516 1.442 1.539 1.550 1.513 1.581 1.422 1.482 1.460 1.516 1.494 1.516 1.387 1.395 1.395 1.439 1.431 1.401 1.350 1.416 1.348 1.330 1.288 1.320 1.366 1.320 1.307 1.391 1.287 1.349 1.227 1.162 1.235 1.165 1.288 1.331 1.255 1.156 1.171 1.218 1.259 1.128 1.242 1.156 1.255 1.149 1.240 1.074 1.145 1.111 1.187 1.112 1.112 1.094 1.140 1.048 1.076 1.061 1.056 1.125 1.100 1.085 0.997 1.065 1.061 1.070 1.135 1.049 1.144 1.062 1.017 1.037 1.006 0.963 1.010 1.062 1.039 0.994 0.972 1.072 1.048 0.996 1.058 0.947 0.947 1.023 0.991 1.015 1.090 0.941 0.961 0.949 1.052 6.976 5.360 1.750796 6.976 5.360 1.750796 1031745826.778 iB21 1.820
ODOM 6.997 5.394 1.760796 0.195 0.100 0 1031745826.858 iB21 1.900
FLASER 180 2.002 2.083 1.967 2.049 1.963 2.045 1.961 1.982 1.959 2.024 2.042 2.008 2.082 1.909 1.931 1.987 1.939 1.931 1.948 1.978 1.936 1.941 1.960 1.992 1.964 1.882 1.961 1.910 1.890 2.006 1.970 1.952 1.934 1.975 1.960 1.840 1.928 1.878 1.873 1.837 1.913 1.913 1.897 1.851 1.842 1.827 1.837 1.876 1.812 1.750 1.794 1.754 1.750 1.820 1.727 1.751 1.766 1.763 1.761 1.749 1.796 1.694 1.808 1.640 1.669 1.725 1.672 1.715 1.673 1.698 1.640 1.760 1.644 1.675 1.679 1.676 1.572 1.628 1.573 1.551 1.651 1.575 1.582 1.695 1.534 1.549 1.485 1.474 1.485 1.457 1.585 1.501 1.420 1.585 1.466 1.415 1.350 1.360 1.359 1.419 1.423 1.393 1.471 1.345 1.382 1.341 1.361 1.286 1.394 1.290 1.297 1.323 1.287 1.316 1.265 1.278 1.316 1.259 1.158 1.307 1.249 1.235 1.248 1.189 1.251 1.152 1.254 1.193 1.160 1.242 1.187 1.219 1.103 1.169 1.160 1.067 1.192 1.147 1.163 1.040 1.169 1.165 1.054 1.135 0.989 1.146 1.117 1.007 1.058 1.082 1.057 1.017 1.066 1.164 1.059 1.006 0.961 1.048 1.058 1.013 1.024 1.004 1.053 1.021 0.996 1.030 0.956 1.037 0.944 1.054 1.078 0.922 0.971 0.962 1.040 0.972 0.973 0.971 1.002 1.035 6.997 5.394 1.760796 6.997 5.394 1.760796 1031745826.878 iB21 1.920
ODOM 6.959 5.357 1.770796 0.195 0.100 0 1031745826.958 iB21 2.000
FLASER 180 1.988 2.034 1.978 1.990 2.003 1.937 1.942 2.048 1.959 1.901 1.946 1.906 1.976 1.957 2.000 1.951 2.002 2.031 2.013 1.953 2.039 1.952 1.914 1.949 1.923 1.939 1.827 1.956 1.954 1.939 1.851 1.890 1.998 1.927 1.777 1.859 1.815 1.862 1.880 1.811 1.828 1.817 1.885 1.865 1.831 1.791 1.886 1.740 1.819 1.843 1.742 1.859 1.868 1.795 1.695 1.731 1.744 1.684 1.736 1.811 1.800 1.703 1.832 1.705 1.794 1.658 1.680 1.720 1.776 1.639 1.629 1.635 1.657 1.612 1.596 1.627 1.579 1.568 1.627 1.585 1.579 1.524 1.673 1.497 1.566 1.615 1.493 1.565 1.523 1.476 1.520 1.506 1.466 1.461 1.406 1.427 1.442 1.371 1.472 1.417 1.385 1.435 1.340 1.458 1.352 1.355 1.340 1.344 1.368 1.320 1.299 1.355 1.262 1.406 1.303 1.315 1.257 1.212 1.289 1.224 1.321 1.142 1.278 1.142 1.327 1.267 1.208 1.244 1.199 1.147 1.206 1.151 1.111 1.166 1.178 1.119 1.063 1.116 1.131 1.111 1.192 1.136 1.147 1.117 1.064 1.052 1.043 1.156 1.112 1.090 1.087 1.093 1.042 0.991 1.033 1.103 1.091 1.046 1.044 1.127 1.017 1.037 1.095 0.978 0.992 0.898 0.989 1.055 1.040 1.072 1.036 1.031 0.929 1.056 0.968 0.927 0.923 0.976 1.038 1.139 6.959 5.357 1.770796 6.959 5.357 1.770796 1031745826.978 iB21 2.020
ODOM 6.955 5.374 1.780796 0.208 0.100 0 1031745827.058 iB21 2.100
FLASER 180 2.060 2.007 2.001 1.958 1.959 1.973 1.949 2.065 2.003 2.033 1.985 2.034 1.969 1.970 2.009 2.008 2.028 1.894 1.954 1.919 1.985 1.943 1.960 2.019 1.978 1.927 2.022 1.914 1.988 1.907 1.818 1.966 1.938 1.944 1.904 1.917 1.868 1.912 1.844 1.956 1.754 1.799 1.829 1.871 1.828 1.782 1.872 1.831 1.872 1.771 1.863 1.786 1.776 1.775 1.755 1.874 1.819 1.626 1.863 1.740 1.679 1.874 1.874 1.749 1.783 1.639 1.736 1.641 1.771 1.634 1.713 1.685 1.634 1.621 1.572 1.719 1.609 1.615 1.531 1.601 1.636 1.592 1.537 1.524 1.513 1.606 1.498 1.578 1.440 1.373 1.489 1.436 1.458 1.407 1.484 1.362 1.473 1.466 1.473 1.357 1.519 1.439 1.345 1.485 1.311 1.385 1.433 1.325 1.351 1.402 1.277 1.354 1.329 1.239 1.305 1.328 1.241 1.315 1.302 1.204 1.331 1.237 1.180 1.287 1.235 1.331 1.140 1.155 1.246 1.303 1.192 1.218 1.127 1.221 1.176 1.164 1.092 1.128 1.183 1.176 1.078 1.158 1.030 1.076 0.999 1.177 1.118 1.139 1.021 1.085 1.115 1.105 1.054 1.018 1.054 1.032 1.075 1.020 1.108 1.034 1.129 1.044 0.988 0.985 0.954 1.091 1.039 0.944 0.982 1.050 0.999 0.997 0.987 0.951 0.983 0.972 1.024 0.945 1.031 0.898 6.955 5.374 1.780796 6.955 5.374 1.780796 1031745827.078 iB21 2.120
ODOM 6.952 5.439 1.790796 0.194 0.100 0 1031745827.158 iB21 2.200
FLASER 180 1.912 2.000 1.919 2.061 1.992 2.022 1.995 1.999 1.982 2.040 1.941 2.037 1.998 2.044 1.948 2.026 1.915 2.038 1.925 1.943 1.881 2.019 1.980 1.943 2.024 1.969 1.936 1.882 1.926 2.064 1.894 1.973 1.858 2.001 1.897 1.902 1.986 1.886 1.892 1.880 1.869 1.870 1.839 1.850 1.901 1.872 1.876 1.926 1.863 1.813 1.770 1.824 1.851 1.762 1.739 1.843 1.760 1.815 1.762 1.669 1.790 1.751 1.694 1.671 1.666 1.756 1.671 1.588 1.763 1.652 1.653 1.700 1.667 1.713 1.753 1.730 1.567 1.528 1.595 1.637 1.575 1.569 1.648 1.505 1.539 1.526 1.562 1.525 1.479 1.486 1.439 1.588 1.481 1.467 1.472 1.487 1.444 1.369 1.525 1.384 1.346 1.417 1.352 1.331 1.391 1.391 1.381 1.397 1.328 1.421 1.309 1.363 1.291 1.332 1.345 1.280 1.384 1.295 1.278 1.266 1.244 1.181 1.243 1.304 1.242 1.192 1.249 1.197 1.149 1.191 1.186 1.207 1.173 1.150 1.211 1.178 1.182 1.057 1.092 1.096 1.172 0.990 1.165 1.170 1.129 1.145 1.078 1.132 1.123 1.133 1.138 1.103 0.992 1.085 1.056 1.054 1.022 1.083 1.006 0.991 1.042 1.088 1.118 0.995 1.079 1.049 1.030 1.024 0.989 1.018 1.070 1.044 1.085 1.052 1.029 0.985 0.995 1.061 0.966 0.967 6.952 5.439 1.790796 6.952 5.439 1.790796 1031745827.178 iB21 2.220
ODOM 6.959 5.438 1.800796 0.184 0.100 0 1031745827.258 iB21 2.300
FLASER 180 1.989 1.947 2.066 2.009 1.988 1.953 1.977 1.933 1.972 2.090 1.891 2.019 2.070 1.958 1.933 2.024 2.021 2.005 1.943 1.937 1.942 1.942 1.979 1.927 1.934 1.826 1.977 1.906 2.061 1.938 1.928 1.944 1.902 1.909 1.933 1.897 1.844 1.871 1.901 1.975 1.911 1.917 1.821 1.916 1.861 1.882 1.787 1.834 1.825 1.846 1.920 1.782 1.772 1.805 1.834 1.740 1.838 1.800 1.796 1.687 1.702 1.752 1.717 1.730 1.752 1.698 1.692 1.702 1.718 1.651 1.709 1.694 1.570 1.692 1.657 1.570 1.574 1.636 1.601 1.509 1.592 1.550 1.543 1.642 1.542 1.527 1.460 1.493 1.575 1.549 1.455 1.374 1.468 1.455 1.409 1.440 1.452 1.469 1.440 1.475 1.460 1.409 1.414 1.521 1.293 1.387 1.305 1.228 1.285 1.275 1.343 1.293 1.223 1.207 1.223 1.233 1.302 1.340 1.215 1.201 1.301 1.336 1.165 1.220 1.255 1.229 1.240 1.206 1.249 1.201 1.169 1.117 1.156 1.165 1.182 1.239 1.074 1.130 1.150 1.158 1.095 1.140 1.117 1.092 1.096 1.097 1.085 1.086 1.043 1.030 1.088 1.059 0.997 1.074 0.990 1.132 0.975 0.973 0.865 0.955 1.012 1.055 1.148 1.043 1.123 1.044 0.876 1.022 1.018 1.021 0.953 1.054 1.009 0.996 1.041 0.956 1.016 0.994 0.920 1.035 6.959 5.438 1.800796 6.959 5.438 1.800796 1031745827.278 iB21 2.320
ODOM 6.962 5.468 1.810796 0.205 0.100 0 1031745827.358 iB21 2.400
FLASER 180 1.898 2.079 1.964 1.946 2.062 1.973 2.012 2.081 2.011 2.083 2.013 1.998 2.056 1.947 1.948 2.048 2.050 2.002 2.030 1.977 2.026 1.979 1.923 2.002 1.916 1.983 2.009 2.020 1.986 1.835 1.834 1.842 1.926 1.890 1.916 1.884 1.994 1.875 1.877 1.920 1.946 1.845 1.946 1.855 1.881 1.823 1.953 1.845 1.937 1.809 1.816 1.821 1.837 1.858 1.769 1.741 1.732 1.883 1.806 1.792 1.711 1.665 1.759 1.705 1.705 1.646 1.775 1.710 1.728 1.676 1.756 1.709 1.724 1.573 1.490 1.667 1.704 1.573 1.558 1.568 1.504 1.564 1.631 1.551 1.643 1.527 1.514 1.512 1.495 1.495 1.444 1.506 1.543 1.497 1.455 1.514 1.472 1.480 1.465 1.399 1.398 1.420 1.427 1.358 1.385 1.466 1.317 1.293 1.437 1.396 1.324 1.413 1.226 1.444 1.278 1.312 1.274 1.258 1.287 1.236 1.331 1.233 1.203 1.233 1.215 1.137 1.098 1.137 1.230 1.137 1.175 1.157 1.142 1.122 1.165 1.263 1.024 1.085 1.044 1.122 1.144 1.131 1.125 1.175 1.025 1.178 1.064 1.135 1.074 0.978 1.037 0.974 1.068 1.102 1.096 1.004 0.918 1.065 1.121 0.985 0.988 0.997 0.995 1.089 0.987 1.099 0.887 0.999 1.043 1.025 0.911 1.064 1.091 1.039 1.095 1.014 0.952 0.988 0.995 1.019 6.962 5.468 1.810796 6.962 5.468 1.810796 1031745827.378 iB21 2.420
ODOM 6.905 5.513 1.820796 0.206 0.100 0 1031745827.458 iB21 2.500
FLASER 180 2.000 2.042 1.969 1.934 2.054 2.010 1.951 2.079 2.042 1.992 1.959 1.892 1.938 2.003 1.984 2.001 1.962 1.975 1.993 2.038 1.991 2.020 2.048 1.996 1.924 1.994 1.926 1.887 1.904 1.860 1.958 1.918 1.774 1.866 1.832 1.924 1.936 1.833 1.838 1.853 1.861 1.852 1.806 1.816 1.849 1.884 1.820 1.925 1.868 1.823 1.852 1.843 1.775 1.826 1.728 1.739 1.736 1.775 1.773 1.791 1.759 1.830 1.792 1.673 1.614 1.712 1.718 1.797 1.701 1.730 1.731 1.703 1.668 1.689 1.707 1.562 1.626 1.594 1.663 1.722 1.715 1.632 1.579 1.600 1.555 1.639 1.508 1.466 1.513 1.631 1.495 1.474 1.436 1.514 1.528 1.352 1.483 1.371 1.360 1.387 1.404 1.475 1.401 1.343 1.463 1.375 1.360 1.351 1.414 1.336 1.267 1.296 1.293 1.334 1.462 1.249 1.252 1.359 1.224 1.279 1.241 1.192 1.141 1.271 1.170 1.146 1.208 1.234 1.233 1.255 1.181 1.100 1.193 1.173 1.279 1.113 1.185 1.080 1.117 1.150 0.997 1.060 1.107 1.164 1.113 1.108 1.085 1.156 1.070 1.031 1.077 1.092 1.046 1.054 0.991 1.018 1.058 1.079 1.024 0.995 1.030 0.993 1.039 1.008 1.030 1.022 1.006 1.006 1.003 1.066 0.893 0.995 1.054 0.981 1.004 0.962 0.952 0.993 1.076 1.062 6.905 5.513 1.820796 6.905 5.513 1.820796 1031745827.478 iB21 2.520
ODOM 6.944 5.498 1.830796 0.201 0.100 0 1031745827.558 iB21 2.600
FLASER 180 1.986 2.013 2.006 2.015 2.035 2.002 1.997 1.985 1.887 1.947 1.953 1.990 1.994 1.930 1.960 1.973 1.982 1.978 1.988 2.053 2.109 2.004 1.938 2.008 1.885 1.921 1.909 1.958 1.953 1.854 1.880 2.007 1.826 1.983 1.914 1.861 1.894 1.833 1.962 1.941 1.960 1.808 1.958 1.761 1.760 1.868 1.897 1.872 1.866 1.837 1.846 1.743 1.829 1.766 1.754 1.781 1.784 1.725 1.813 1.670 1.714 1.763 1.875 1.659 1.649 1.599 1.630 1.713 1.669 1.674 1.654 1.677 1.709 1.646 1.693 1.651 1.531 1.556 1.588 1.594 1.593 1.613 1.591 1.573 1.607 1.470 1.496 1.560 1.523 1.482 1.570 1.496 1.502 1.452 1.523 1.502 1.427 1.424 1.329 1.468 1.405 1.367 1.364 1.309 1.425 1.376 1.305 1.274 1.451 1.291 1.318 1.349 1.240 1.293 1.255 1.277 1.234 1.372 1.243 1.226 1.271 1.288 1.356 1.246 1.227 1.243 1.088 1.259 1.129 1.178 1.165 1.109 1.166 1.169 1.109 1.184 1.119 1.166 1.137 1.094 1.165 1.115 1.093 1.128 1.142 1.120 1.122 1.037 1.056 1.103 1.049 1.024 1.014 0.999 1.068 1.083 0.966 1.081 1.013 1.067 1.096 1.024 1.034 0.996 1.041 0.971 1.080 1.002 1.007 0.946 0.987 0.993 1.032 0.923 1.010 1.027 0.966 1.067 1.109 1.092 6.944 5.498 1.830796 6.944 5.498 1.830796 1031745827.578 iB21 2.620
ODOM 6.896 5.499 1.840796 0.170 0.100 0 1031745827.658 iB21 2.700
FLASER 180 2.045 1.981 2.086 1.971 2.005 1.989 2.042 2.033 1.990 2.032 2.039 2.054 1.915 2.001 2.018 2.020 1.996 2.062 1.957 1.959 1.919 1.866 1.996 1.915 1.954 1.980 1.979 1.914 1.899 1.976 1.984 1.913 1.959 1.996 1.910 2.008 1.884 1.954 1.931 1.920 1.924 1.897 1.937 1.911 1.913 1.719 1.799 1.843 1.805 1.771 1.809 1.812 1.833 1.776 1.721 1.818 1.784 1.693 1.777 1.703 1.744 1.834 1.677 1.683 1.704 1.775 1.686 1.682 1.688 1.717 1.687 1.646 1.768 1.606 1.651 1.622 1.629 1.593 1.612 1.621 1.601 1.473 1.495 1.670 1.521 1.514 1.513 1.589 1.475 1.534 1.448 1.400 1.495 1.500 1.516 1.424 1.452 1.499 1.396 1.446 1.392 1.425 1.472 1.380 1.401 1.363 1.366 1.311 1.361 1.390 1.361 1.327 1.263 1.298 1.297 1.265 1.322 1.212 1.276 1.315 1.303 1.211 1.252 1.269 1.193 1.306 1.215 1.124 1.109 1.264 1.185 1.166 1.197 1.124 1.111 1.239 1.150 1.088 1.147 1.064 1.142 1.096 1.075 1.106 1.074 1.064 1.061 1.100 1.069 0.944 1.051 1.103 1.071 1.052 1.099 0.985 1.029 1.066 1.094 1.066 0.951 0.933 1.005 1.018 1.056 0.989 1.000 0.991 0.947 0.968 1.069 0.990 0.951 1.008 1.030 0.970 1.085 1.034 1.052 1.014 6.896 5.499 1.840796 6.896 5.499 1.840796 1031745827.678 iB21 2.720
ODOM 6.925 5.544 1.850796 0.208 0.100 0 1031745827.758 iB21 2.800
FLASER 180 2.005 1.912 1.992 2.017 2.099 1.998 2.036 2.017 2.018 1.976 1.991 2.075 1.989 2.024 2.081 1.935 1.922 1.962 1.924 1.994 1.904 2.028 1.934 2.043 1.962 1.887 1.912 2.007 1.947 1.894 1.930 1.901 1.845 2.006 1.817 1.892 1.909 1.893 1.833 1.902 1.922 1.803 1.881 1.966 1.851 1.837 1.810 1.766 1.812 1.818 1.842 1.751 1.780 1.760 1.819 1.760 1.762 1.782 1.761 1.759 1.779 1.750 1.693 1.778 1.698 1.735 1.746 1.654 1.661 1.737 1.671 1.736 1.605 1.628 1.652 1.687 1.643 1.644 1.650 1.642 1.601 1.573 1.517 1.546 1.558 1.498 1.499 1.501 1.517 1.558 1.442 1.526 1.434 1.430 1.525 1.437 1.478 1.463 1.361 1.451 1.488 1.450 1.408 1.319 1.361 1.420 1.273 1.288 1.384 1.327 1.309 1.347 1.359 1.355 1.302 1.331 1.182 1.233 1.230 1.234 1.288 1.244 1.279 1.200 1.198 1.210 1.219 1.195 1.115 1.160 1.199 1.087 1.190 1.144 1.151 1.205 1.127 1.055 1.161 1.090 1.052 1.143 1.106 1.109 1.043 1.095 1.097 1.147 1.092 1.081 1.157 1.017 1.004 1.087 1.059 1.089 1.117 0.998 0.972 1.044 1.009 1.063 1.039 0.963 0.977 0.977 0.966 1.068 1.017 0.964 1.037 0.947 0.950 1.024 0.873 0.853 1.025 1.047 1.018 0.936 6.925 5.544 1.850796 6.925 5.544 1.850796 1031745827.778 iB21 2.820
ODOM 6.892 5.551 1.860796 0.209 0.100 0 1031745827.858 iB21 2.900
FLASER 180 1.982 2.030 1.998 2.015 2.075 1.978 1.989 2.065 1.956 2.046 1.951 1.934 1.882 2.044 1.990 2.025 1.948 1.958 2.028 2.011 1.970 1.929 2.010 1.981 1.967 1.940 1.858 1.966 1.927 1.911 1.914 1.881 1.942 1.978 1.934 1.825 1.930 1.933 1.868 1.882 1.880 1.912 1.893 1.845 1.816 1.998 1.799 1.935 1.784 1.796 1.800 1.822 1.768 1.691 1.826 1.791 1.747 1.752 1.797 1.774 1.851 1.754 1.764 1.745 1.658 1.688 1.670 1.620 1.580 1.664 1.612 1.679 1.628 1.658 1.641 1.646 1.625 1.631 1.594 1.555 1.632 1.595 1.640 1.510 1.486 1.684 1.535 1.441 1.500 1.557 1.369 1.446 1.427 1.519 1.388 1.535 1.469 1.471 1.491 1.461 1.360 1.522 1.419 1.314 1.460 1.359 1.370 1.374 1.387 1.286 1.278 1.203 1.315 1.257 1.326 1.348 1.218 1.240 1.287 1.210 1.264 1.255 1.231 1.194 1.247 1.215 1.307 1.186 1.150 1.183 1.188 1.241 1.177 1.165 1.142 1.243 1.132 1.127 1.159 1.074 1.159 1.089 1.198 1.118 1.043 1.143 1.024 1.030 1.146 1.048 1.039 1.110 1.104 1.071 1.156 1.018 1.027 1.095 1.140 1.072 1.023 1.066 1.029 1.035 1.058 1.034 1.113 0.973 1.026 1.035 0.971 1.078 1.110 1.070 1.116 0.999 0.922 1.037 1.016 0.990 6.892 5.551 1.860796 6.892 5.551 1.860796 1031745827.878 iB21 2.920
ODOM 6.899 5.590 1.870796 0.195 0.100 0 1031745827.958 iB21 3.000
FLASER 180 2.006 1.959 1.981 2.000 2.013 1.929 2.011 2.035 1.971 1.997 1.991 2.006 2.001 1.976 2.014 2.006 2.036 2.014 1.964 2.004 1.980 2.046 1.930 1.951 1.904 1.938 1.955 1.960 2.035 1.972 1.963 1.965 1.934 1.919 1.813 1.881 1.976 1.961 1.850 1.878 1.866 1.904 1.857 1.789 1.899 1.858 1.840 1.930 1.845 1.782 1.861 1.788 1.833 1.799 1.805 1.749 1.926 1.760 1.747 1.773 1.720 1.716 1.687 1.698 1.738 1.677 1.672 1.765 1.665 1.669 1.754 1.728 1.625 1.657 1.646 1.634 1.552 1.643 1.545 1.546 1.583 1.528 1.561 1.521 1.534 1.479 1.404 1.566 1.494 1.539 1.540 1.482 1.463 1.456 1.592 1.507 1.438 1.434 1.425 1.479 1.354 1.299 1.355 1.330 1.355 1.359 1.322 1.379 1.359 1.380 1.388 1.401 1.356 1.212 1.311 1.220 1.347 1.255 1.214 1.333 1.336 1.212 1.253 1.300 1.248 1.229 1.305 1.253 1.254 1.150 1.213 1.204 1.169 1.181 1.147 1.223 1.110 1.089 1.118 1.203 1.163 1.076 1.108 1.139 1.094 1.071 1.091 1.076 1.078 1.019 1.099 1.059 1.034 0.958 1.074 1.141 1.083 0.985 1.024 1.024 0.987 1.066 0.964 1.095 0.982 1.099 0.976 1.020 1.043 1.009 1.032 1.001 0.998 0.907 1.063 0.972 1.009 1.077 0.992 0.940 6.899 5.590 1.870796 6.899 5.590 1.870796 1031745827.978 iB21 3.020
ODOM 6.888 5.633 1.880796 0.188 0.100 0 1031745828.058 iB21 3.100
FLASER 180 2.038 1.936 2.027 2.020 2.008 1.977 1.969 2.032 2.058 1.999 1.967 1.974 2.000 2.040 1.988 2.049 1.848 1.949 1.934 1.985 1.941 1.912 1.945 1.925 1.943 1.940 1.942 1.921 1.957 1.997 1.999 1.935 1.893 1.941 1.927 1.835 1.879 1.866 1.877 1.864 1.861 1.867 1.909 1.865 1.873 1.816 1.807 1.878 1.824 1.871 1.800 1.889 1.869 1.811 1.768 1.837 1.757 1.815 1.713 1.716 1.804 1.725 1.738 1.644 1.755 1.690 1.621 1.576 1.723 1.768 1.754 1.676 1.654 1.641 1.585 1.691 1.657 1.675 1.574 1.657 1.507 1.591 1.603 1.575 1.542 1.510 1.581 1.531 1.473 1.537 1.520 1.455 1.468 1.551 1.469 1.483 1.572 1.353 1.475 1.361 1.324 1.384 1.396 1.344 1.278 1.348 1.289 1.387 1.404 1.363 1.182 1.299 1.259 1.279 1.243 1.286 1.323 1.280 1.282 1.226 1.275 1.271 1.207 1.140 1.261 1.163 1.245 1.251 1.139 1.216 1.158 1.157 1.168 1.219 1.128 1.161 1.233 1.111 1.191 1.111 1.054 1.127 1.078 1.132 1.094 1.029 1.095 1.045 1.019 1.082 1.064 0.954 1.096 1.067 1.187 0.996 1.056 1.044 1.022 0.951 0.973 0.964 1.009 1.005 0.929 0.951 0.979 0.918 1.081 0.929 1.015 1.023 0.946 0.968 1.002 0.964 0.990 0.948 1.037 0.959 6.888 5.633 1.880796 6.888 5.633 1.880796 1031745828.078 iB21 3.120
ODOM 6.904 5.617 1.890796 0.210 0.100 0 1031745828.158 iB21 3.200
FLASER 180 2.045 2.057 1.991 1.964 1.968 1.947 1.948 1.981 1.953 1.995 1.981 1.997 1.953 2.065 1.959 1.977 2.029 1.917 2.031 1.912 1.983 2.019 1.951 2.018 1.898 2.029 2.006 1.917 1.946 1.946 1.929 1.969 1.941 1.956 1.951 1.911 1.957 1.989 1.932 1.985 1.843 1.930 1.934 1.859 1.780 1.888 1.852 1.832 1.963 1.798 1.877 1.830 1.827 1.769 1.835 1.717 1.802 1.784 1.733 1.850 1.744 1.788 1.743 1.712 1.785 1.720 1.878 1.687 1.694 1.643 1.677 1.700 1.615 1.658 1.671 1.642 1.707 1.584 1.584 1.545 1.511 1.618 1.582 1.539 1.603 1.505 1.558 1.576 1.589 1.472 1.479 1.486 1.527 1.416 1.487 1.473 1.387 1.465 1.452 1.351 1.466 1.338 1.425 1.354 1.510 1.349 1.352 1.363 1.434 1.340 1.335 1.330 1.306 1.285 1.298 1.290 1.299 1.286 1.216 1.240 1.402 1.235 1.300 1.217 1.223 1.178 1.191 1.132 1.230 1.164 1.244 1.224 1.129 1.161 1.136 1.113 1.104 1.122 1.170 1.134 1.140 1.019 1.095 1.061 1.041 1.083 1.035 0.991 1.053 1.053 1.005 0.952 1.005 1.034 1.154 0.990 1.055 1.103 1.010 0.949 1.052 1.023 1.001 1.050 0.945 0.993 0.914 1.037 0.997 0.947 1.052 1.076 1.065 1.008 1.013 1.103 0.992 1.024 1.005 0.949 6.904 5.617 1.890796 6.904 5.617 1.890796 1031745828.178 iB21 3.220
ODOM 6.866 5.662 1.900796 0.189 0.100 0 1031745828.258 iB21 3.300
FLASER 180 1.997 1.945 1.978 2.047 1.971 1.946 2.034 1.953 2.056 1.976 2.000 1.990 1.997 1.956 1.976 1.997 1.993 2.014 1.947 2.012 1.975 1.975 1.942 2.002 1.960 1.870 1.999 1.939 1.895 1.960 1.965 1.910 1.973 1.905 1.951 1.953 1.911 1.886 1.828 1.860 1.939 1.910 1.911 1.735 1.841 1.831 1.914 1.909 1.899 1.770 1.908 1.798 1.862 1.826 1.857 1.782 1.795 1.774 1.731 1.728 1.750 1.725 1.741 1.744 1.708 1.712 1.712 1.725 1.761 1.721 1.694 1.758 1.610 1.602 1.688 1.676 1.640 1.680 1.592 1.545 1.717 1.618 1.568 1.452 1.607 1.620 1.653 1.539 1.518 1.570 1.564 1.477 1.501 1.511 1.490 1.483 1.502 1.425 1.473 1.491 1.342 1.386 1.397 1.422 1.419 1.343 1.319 1.290 1.391 1.467 1.217 1.394 1.336 1.253 1.302 1.288 1.227 1.352 1.286 1.272 1.243 1.266 1.231 1.182 1.176 1.239 1.214 1.209 1.206 1.134 1.189 1.215 1.140 1.103 1.155 1.139 1.155 1.218 1.162 1.073 1.144 1.076 1.043 1.048 1.143 1.079 1.104 1.086 1.091 1.029 1.043 1.053 1.087 1.083 1.085 1.018 1.050 1.158 1.088 1.024 1.052 0.969 1.060 1.060 1.002 1.018 1.054 0.987 1.005 1.138 0.992 1.041 1.046 1.037 0.956 1.039 0.989 0.964 1.010 1.007 6.866 5.662 1.900796 6.866 5.662 1.900796 1031745828.278 iB21 3.320
ODOM 6.872 5.662 1.910796 0.205 0.100 0 1031745828.358 iB21 3.400
FLASER 180 2.021 2.042 1.935 1.996 1.957 2.011 2.093 1.942 2.107 1.925 1.947 2.020 1.996 2.043 1.931 1.951 1.876 1.976 1.934 1.943 1.948 1.988 1.993 1.957 1.994 2.010 1.961 2.015 1.939 1.982 1.988 1.901 1.942 1.801 1.861 1.923 1.919 1.866 1.856 1.760 1.824 1.865 1.891 1.758 1.803 1.784 1.879 1.767 1.848 1.776 1.854 1.869 1.828 1.806 1.786 1.822 1.724 1.769 1.760 1.772 1.757 1.726 1.826 1.601 1.719 1.736 1.723 1.661 1.665 1.671 1.709 1.659 1.699 1.682 1.649 1.627 1.706 1.596 1.650 1.620 1.645 1.509 1.575 1.510 1.501 1.655 1.548 1.541 1.550 1.558 1.533 1.599 1.486 1.560 1.522 1.466 1.418 1.378 1.479 1.411 1.373 1.280 1.423 1.345 1.352 1.399 1.260 1.308 1.391 1.325 1.301 1.337 1.303 1.299 1.344 1.321 1.354 1.251 1.248 1.259 1.247 1.222 1.135 1.260 1.175 1.215 1.308 1.229 1.186 1.124 1.245 1.154 1.249 1.205 1.141 1.047 1.117 1.128 1.067 1.066 1.138 1.045 1.050 1.133 1.045 1.123 1.044 1.107 1.147 1.062 1.059 1.116 1.051 1.102 1.053 0.968 1.061 1.079 0.999 0.969 0.997 1.060 0.962 0.974 0.987 0.984 1.050 1.038 1.004 1.041 1.115 1.073 1.079 1.013 0.958 1.005 0.931 0.947 0.983 1.039 6.872 5.662 1.910796 6.872 5.662 1.910796 1031745828.378 iB21 3.420
ODOM 6.882 5.659 1.920796 0.197 0.100 0 1031745828.458 iB21 3.500
FLASER 180 2.092 2.017 2.024 1.989 2.023 2.060 2.022 2.009 2.059 1.933 2.007 2.087 2.003 1.868 1.997 1.857 2.007 2.055 1.994 1.981 1.935 1.934 1.965 1.984 2.012 1.917 1.990 1.900 1.920 1.918 1.852 1.953 1.892 1.999 1.958 1.983 1.915 1.884 1.970 1.933 1.901 1.830 1.878 1.827 1.868 1.859 1.867 1.823 1.836 1.854 1.756 1.808 1.785 1.776 1.710 1.699 1.851 1.776 1.743 1.766 1.820 1.713 1.780 1.819 1.698 1.686 1.737 1.760 1.702 1.673 1.736 1.679 1.765 1.678 1.586 1.638 1.624 1.613 1.664 1.611 1.532 1.461 1.587 1.497 1.473 1.519 1.482 1.611 1.509 1.444 1.525 1.487 1.510 1.539 1.506 1.363 1.457 1.360 1.380 1.346 1.412 1.505 1.460 1.439 1.347 1.292 1.340 1.391 1.354 1.329 1.387 1.210 1.220 1.345 1.321 1.399 1.284 1.227 1.268 1.362 1.273 1.177 1.260 1.154 1.291 1.193 1.179 1.142 1.166 1.219 1.246 1.182 1.171 1.065 1.023 1.135 1.148 1.106 1.078 1.048 1.220 1.069 1.074 1.114 1.068 1.069 1.153 1.002 0.999 1.112 1.078 1.081 1.045 1.008 1.002 1.027 1.031 1.065 1.057 1.001 1.111 1.016 1.022 1.029 0.944 1.085 0.994 1.051 0.990 0.990 1.033 1.003 1.010 0.958 1.032 1.032 0.911 0.996 1.016 0.989 6.882 5.659 1.920796 6.882 5.659 1.920796 1031745828.478 iB21 3.520
ODOM 6.890 5.707 1.930796 0.202 0.100 0 1031745828.558 iB21 3.600
FLASER 180 1.973 2.065 2.006 2.052 1.997 1.948 2.038 2.016 1.989 2.012 1.926 2.047 1.946 2.001 1.977 1.973 2.003 1.981 1.991 1.953 1.974 1.964 1.983 1.952 1.925 1.966 1.959 1.999 1.887 1.974 1.968 1.951 1.954 1.892 1.872 1.977 1.833 1.875 1.866 1.978 1.984 1.916 1.884 1.911 1.851 1.882 1.801 1.841 1.834 1.765 1.851 1.810 1.797 1.769 1.821 1.753 1.664 1.889 1.730 1.741 1.799 1.747 1.684 1.729 1.673 1.652 1.707 1.702 1.676 1.653 1.669 1.672 1.668 1.640 1.695 1.663 1.553 1.582 1.630 1.698 1.593 1.539 1.580 1.537 1.553 1.497 1.499 1.466 1.498 1.570 1.495 1.499 1.435 1.483 1.379 1.438 1.519 1.311 1.611 1.377 1.446 1.459 1.387 1.389 1.383 1.293 1.443 1.362 1.252 1.387 1.300 1.307 1.334 1.291 1.267 1.332 1.255 1.179 1.285 1.257 1.176 1.183 1.202 1.168 1.232 1.233 1.235 1.195 1.104 1.152 1.223 1.151 1.119 1.153 1.143 1.103 1.169 1.139 1.118 1.048 1.143 1.117 1.075 1.029 1.064 1.086 1.091 1.101 1.050 1.066 1.067 1.162 1.055 1.030 0.999 1.073 1.022 1.084 1.053 0.993 0.945 1.033 1.055 0.978 1.061 1.048 0.960 1.043 1.008 0.944 0.954 1.038 0.977 1.063 1.064 0.981 0.995 1.031 1.018 0.992 6.890 5.707 1.930796 6.890 5.707 1.930796 1031745828.578 iB21 3.620
ODOM 6.872 5.718 1.940796 0.202 0.100 0 1031745828.658 iB21 3.700
FLASER 180 2.039 2.039 1.987 1.917 1.973 1.963 2.007 1.957 1.942 2.031 1.947 1.966 1.995 2.049 1.989 2.066 2.022 2.019 2.038 1.934 1.913 1.928 1.969 1.983 1.990 1.966 2.049 1.877 1.991 1.974 1.936 1.922 2.022 1.975 1.947 1.824 1.908 1.905 1.928 1.920 1.841 1.900 1.904 1.859 1.864 1.911 1.784 1.803 1.849 1.898 1.874 1.781 1.787 1.749 1.859 1.854 1.677 1.788 1.781 1.787 1.784 1.694 1.672 1.758 1.697 1.679 1.606 1.762 1.682 1.646 1.757 1.610 1.600 1.625 1.659 1.639 1.530 1.603 1.565 1.608 1.628 1.591 1.501 1.619 1.562 1.514 1.581 1.570 1.520 1.494 1.491 1.565 1.524 1.413 1.413 1.440 1.351 1.453 1.439 1.443 1.352 1.381 1.329 1.356 1.357 1.398 1.294 1.458 1.371 1.289 1.309 1.311 1.344 1.301 1.202 1.258 1.154 1.367 1.294 1.248 1.226 1.280 1.301 1.181 1.291 1.182 1.256 1.251 1.261 1.142 1.201 1.149 1.217 1.133 1.140 1.174 1.140 1.155 1.226 1.085 1.070 1.077 1.134 1.155 1.123 1.143 1.061 1.028 0.994 1.113 1.097 1.022 0.991 1.133 1.011 1.166 1.069 1.065 1.086 1.027 1.017 0.982 1.012 1.003 0.927 1.032 1.014 1.002 1.027 1.015 1.030 1.003 0.906 0.924 1.065 0.994 1.061 1.045 1.012 1.068 6.872 5.718 1.940796 6.872 5.718 1.940796 1031745828.678 iB21 3.720
ODOM 6.849 5.738 1.950796 0.199 0.100 0 1031745828.758 iB21 3.800
FLASER 180 2.029 2.032 2.027 1.942 1.959 1.989 1.977 1.999 1.977 1.983 2.001 2.017 2.013 1.943 2.022 2.038 1.960 2.001 1.971 2.026 2.069 2.002 1.940 1.839 1.952 1.894 1.868 1.912 1.963 1.928 1.809 1.867 1.937 1.860 1.985 1.856 1.934 1.857 1.884 1.911 1.792 1.794 1.898 1.785 1.832 1.917 1.798 1.770 1.818 1.810 1.858 1.820 1.841 1.855 1.829 1.816 1.802 1.786 1.659 1.786 1.714 1.775 1.654 1.734 1.694 1.765 1.712 1.671 1.683 1.708 1.698 1.704 1.616 1.590 1.551 1.681 1.619 1.609 1.626 1.699 1.525 1.560 1.592 1.535 1.597 1.533 1.547 1.587 1.515 1.510 1.440 1.468 1.383 1.466 1.472 1.466 1.491 1.409 1.405 1.398 1.382 1.409 1.393 1.451 1.364 1.387 1.396 1.315 1.373 1.318 1.303 1.307 1.352 1.275 1.299 1.250 1.311 1.269 1.199 1.261 1.324 1.377 1.202 1.169 1.146 1.297 1.232 1.232 1.202 1.250 1.154 1.172 1.171 1.152 1.150 1.189 1.169 1.134 1.142 1.136 1.130 1.104 1.095 1.041 1.114 1.060 1.060 1.124 1.102 1.093 1.040 1.124 1.127 1.088 1.031 1.110 1.022 0.966 1.108 1.027 1.068 1.006 0.932 1.005 1.009 1.004 0.996 1.024 1.063 0.963 1.025 0.986 0.985 0.937 1.023 0.906 1.055 0.967 0.995 0.985 6.849 5.738 1.950796 6.849 5.738 1.950796 1031745828.778 iB21 3.820
ODOM 6.848 5.729 1.960796 0.211 0.100 0 1031745828.858 iB21 3.900
FLASER 180 2.030 2.031 1.959 1.939 2.011 1.969 2.045 2.082 1.999 1.963 1.944 1.927 1.942 1.974 2.090 1.958 1.987 1.996 1.996 1.962 1.948 2.027 1.931 1.883 1.878 1.901 1.973 1.906 1.965 1.944 1.939 1.864 2.016 1.924 1.895 1.988 1.836 1.904 1.913 1.930 1.953 1.950 1.859 1.831 1.832 1.826 1.850 1.922 1.844 1.860 1.797 1.737 1.785 1.775 1.795 1.883 1.716 1.761 1.804 1.772 1.756 1.734 1.673 1.679 1.774 1.789 1.720 1.680 1.737 1.657 1.631 1.723 1.653 1.641 1.609 1.686 1.591 1.603 1.580 1.613 1.541 1.594 1.558 1.501 1.551 1.605 1.540 1.546 1.519 1.594 1.555 1.560 1.388 1.448 1.501 1.520 1.376 1.445 1.417 1.442 1.471 1.465 1.407 1.322 1.414 1.448 1.381 1.329 1.211 1.372 1.368 1.368 1.343 1.291 1.351 1.282 1.309 1.204 1.273 1.206 1.250 1.214 1.235 1.272 1.221 1.284 1.280 1.161 1.150 1.283 1.069 1.172 1.172 1.146 1.104 1.203 1.079 1.141 1.107 1.134 1.125 1.115 1.113 1.059 1.135 1.063 1.102 1.157 0.907 1.163 1.142 1.026 1.065 1.121 1.058 1.118 1.048 1.004 1.004 0.975 0.998 1.071 0.972 1.010 1.025 1.037 1.074 1.002 1.032 0.952 1.041 0.998 1.090 1.038 0.886 0.911 0.955 1.032 1.074 1.062 6.848 5.729 1.960796 6.848 5.729 1.960796 1031745828.878 iB21 3.920
ODOM 6.825 5.808 1.970796 0.214 0.100 0 1031745828.958 iB21 4.000
FLASER 180 2.070 1.965 2.063 2.027 1.956 1.934 1.940 2.033 2.020 2.048 1.980 2.038 1.935 1.887 1.991 1.951 2.046 1.947 2.045 1.926 1.958 2.020 1.949 2.087 1.927 1.910 1.968 1.909 1.937 1.959 1.908 1.895 1.993 1.976 2.008 1.850 1.897 1.909 1.913 1.893 1.979 1.994 1.962 1.867 1.888 1.750 1.908 1.822 1.840 1.811 1.759 1.786 1.730 1.781 1.838 1.873 1.840 1.685 1.822 1.708 1.791 1.779 1.782 1.771 1.697 1.725 1.697 1.696 1.623 1.564 1.661 1.619 1.682 1.678 1.614 1.617 1.593 1.610 1.598 1.568 1.568 1.564 1.518 1.591 1.554 1.550 1.507 1.557 1.427 1.472 1.547 1.534 1.519 1.532 1.518 1.526 1.422 1.384 1.361 1.356 1.398 1.476 1.458 1.405 1.370 1.418 1.366 1.308 1.251 1.436 1.335 1.274 1.258 1.258 1.343 1.293 1.283 1.386 1.347 1.240 1.274 1.248 1.164 1.157 1.189 1.270 1.131 1.236 1.156 1.196 1.170 1.225 1.082 1.152 1.227 1.198 1.145 1.140 1.169 1.117 1.073 1.107 1.019 1.077 1.116 1.190 1.184 1.009 1.103 0.996 0.993 1.096 1.023 1.071 0.975 1.088 1.044 1.080 1.050 1.030 1.122 1.002 1.073 0.885 0.962 1.099 1.042 1.012 1.000 1.027 0.926 1.141 0.964 1.062 0.989 0.973 0.969 1.079 0.874 0.998 6.825 5.808 1.970796 6.825 5.808 1.970796 1031745828.978 iB21 4.020
ODOM 6.824 5.768 1.980796 0.209 0.100 0 1031745829.058 iB21 4.100
FLASER 180 2.003 1.963 2.005 1.993 2.060 1.964 2.026 2.017 1.931 1.946 1.981 1.971 1.844 2.004 1.986 1.968 2.008 2.074 2.032 1.969 1.939 2.064 2.010 1.926 1.954 1.954 1.954 2.037 1.916 1.900 1.824 1.943 1.929 1.912 1.931 1.945 2.002 1.879 1.876 1.867 1.921 1.826 1.960 1.841 1.837 1.846 1.933 1.786 1.846 1.719 1.886 1.809 1.801 1.773 1.701 1.772 1.727 1.811 1.729 1.743 1.700 1.664 1.739 1.718 1.710 1.689 1.689 1.650 1.670 1.656 1.758 1.646 1.656 1.653 1.666 1.666 1.691 1.542 1.647 1.639 1.620 1.511 1.537 1.611 1.513 1.582 1.555 1.545 1.512 1.571 1.480 1.463 1.478 1.513 1.469 1.409 1.469 1.390 1.338 1.295 1.358 1.494 1.486 1.525 1.292 1.407 1.439 1.357 1.319 1.334 1.357 1.301 1.293 1.210 1.370 1.310 1.343 1.205 1.302 1.298 1.213 1.210 1.199 1.242 1.214 1.195 1.193 1.205 1.235 1.283 1.182 1.116 1.077 1.075 1.100 1.113 1.126 1.137 1.148 1.153 1.074 1.130 1.114 1.169 1.116 1.155 1.046 1.137 1.101 1.018 1.026 1.055 1.082 1.080 1.075 0.979 1.066 1.038 0.981 0.973 1.065 0.968 1.011 1.038 0.983 1.124 1.040 0.963 1.002 0.939 1.021 1.073 0.938 1.014 1.014 0.924 0.998 1.025 0.947 0.961 6.824 5.768 1.980796 6.824 5.768 1.980796 1031745829.078 iB21 4.120
ODOM 6.824 5.800 1.990796 0.189 0.100 0 1031745829.158 iB21 4.200
FLASER 180 2.060 1.986 1.964 2.111 2.023 2.078 1.934 2.070 2.055 2.101 1.986 1.904 2.010 1.958 1.972 1.891 2.002 1.882 1.891 2.091 2.027 2.001 1.997 2.014 1.964 1.995 1.932 1.909 1.966 2.027 1.907 1.895 1.874 1.802 1.876 1.955 1.960 1.913 1.939 1.860 1.835 1.831 1.887 1.793 1.853 1.862 1.794 1.841 1.791 1.736 1.894 1.822 1.825 1.755 1.831 1.728 1.809 1.818 1.765 1.718 1.672 1.734 1.731 1.738 1.750 1.782 1.755 1.663 1.685 1.661 1.596 1.544 1.707 1.631 1.629 1.550 1.659 1.630 1.607 1.586 1.583 1.625 1.606 1.579 1.535 1.535 1.477 1.512 1.564 1.479 1.498 1.525 1.427 1.476 1.483 1.465 1.464 1.408 1.474 1.500 1.314 1.418 1.370 1.368 1.373 1.379 1.373 1.309 1.387 1.348 1.351 1.309 1.285 1.327 1.263 1.323 1.289 1.229 1.302 1.224 1.272 1.186 1.307 1.217 1.235 1.222 1.198 1.175 1.199 1.232 1.184 1.182 1.108 1.102 1.109 1.119 1.145 1.200 1.092 1.160 1.098 1.088 1.110 1.160 1.029 1.084 1.081 1.116 1.107 1.127 1.092 1.084 1.051 1.095 1.115 0.995 1.095 0.989 0.978 1.069 1.126 0.992 1.006 1.083 1.025 1.013 1.016 1.049 1.010 1.062 0.949 0.938 0.974 1.109 0.980 0.996 0.981 0.937 0.997 0.980 6.824 5.800 1.990796 6.824 5.800 1.990796 1031745829.178 iB21 4.220
ODOM 6.836 5.827 2.000796 0.204 0.100 0 1031745829.258 iB21 4.300
FLASER 180 1.980 2.085 1.989 2.069 1.990 1.919 2.062 2.043 2.046 2.089 2.005 1.941 1.985 2.003 1.993 1.966 1.925 1.930 2.007 1.905 1.997 2.011 1.936 2.031 1.889 2.006 1.955 2.049 1.936 1.960 1.852 1.865 1.869 1.912 1.955 1.943 1.811 1.928 1.979 1.826 1.864 1.892 1.927 1.886 1.845 1.835 1.851 1.827 1.872 1.866 1.839 1.856 1.856 1.883 1.673 1.734 1.835 1.797 1.806 1.836 1.819 1.756 1.715 1.763 1.715 1.713 1.702 1.686 1.613 1.703 1.639 1.603 1.689 1.646 1.692 1.671 1.600 1.624 1.627 1.620 1.546 1.591 1.605 1.576 1.586 1.581 1.562 1.542 1.569 1.458 1.545 1.489 1.521 1.558 1.516 1.441 1.460 1.451 1.380 1.445 1.463 1.362 1.338 1.454 1.365 1.391 1.334 1.361 1.339 1.459 1.294 1.338 1.393 1.314 1.344 1.251 1.268 1.281 1.217 1.302 1.245 1.287 1.150 1.251 1.202 1.278 1.174 1.218 1.198 1.194 1.230 1.128 1.175 1.126 1.105 1.136 1.124 1.159 1.039 1.045 1.072 1.183 1.218 1.204 1.133 1.070 1.023 1.048 1.073 1.035 1.115 1.023 1.040 1.069 1.018 1.114 0.978 1.020 0.990 1.010 1.061 1.078 1.099 1.025 1.035 1.105 0.967 1.109 1.041 0.982 1.009 0.988 1.064 1.019 0.957 0.975 1.032 1.002 1.030 0.986 6.836 5.827 2.000796 6.836 5.827 2.000796 1031745829.278 iB21 4.320
ODOM 6.799 5.845 2.010796 0.199 0.100 0 1031745829.358 iB21 4.400
FLASER 180 1.998 1.924 1.958 1.983 2.033 2.060 1.962 1.939 2.059 2.039 2.005 2.034 2.080 1.946 1.972 1.998 1.974 1.974 1.998 1.987 1.910 1.886 1.975 1.994 1.971 1.868 2.020 1.944 1.969 1.961 1.859 1.931 1.938 1.833 1.983 1.915 1.905 1.994 1.776 1.811 1.922 1.858 1.935 1.924 1.917 1.953 1.789 1.808 1.794 1.800 1.845 1.818 1.832 1.889 1.841 1.777 1.774 1.805 1.832 1.724 1.723 1.783 1.747 1.603 1.773 1.757 1.748 1.779 1.661 1.666 1.720 1.680 1.693 1.627 1.675 1.619 1.579 1.608 1.687 1.612 1.520 1.573 1.597 1.603 1.520 1.584 1.484 1.522 1.455 1.553 1.463 1.456 1.474 1.453 1.558 1.523 1.423 1.461 1.446 1.500 1.389 1.368 1.345 1.309 1.333 1.348 1.433 1.341 1.304 1.395 1.370 1.330 1.315 1.231 1.212 1.302 1.229 1.230 1.288 1.138 1.196 1.314 1.290 1.238 1.208 1.267 1.250 1.231 1.161 1.165 1.199 1.135 1.239 1.086 1.226 1.142 1.048 1.055 1.120 1.124 1.071 1.060 1.075 0.992 1.180 1.085 1.045 1.126 1.085 1.018 1.113 1.060 1.129 1.070 1.143 1.010 1.115 0.973 1.016 1.059 1.063 0.989 1.013 1.050 0.977 1.051 1.054 1.025 1.040 1.042 0.963 0.939 0.967 0.962 1.059 0.998 0.984 1.012 0.964 1.013 6.799 5.845 2.010796 6.799 5.845 2.010796 1031745829.378 iB21 4.420
ODOM 6.771 5.876 2.020796 0.191 0.100 0 1031745829.458 iB21 4.500
FLASER 180 1.985 2.121 1.985 2.059 2.001 1.989 1.938 1.983 1.942 2.024 2.020 1.979 2.006 1.994 1.909 2.042 1.977 2.033 1.993 1.947 1.945 2.026 1.970 1.919 2.097 2.030 1.880 1.893 1.989 1.957 1.877 1.918 1.809 1.885 1.907 1.960 1.819 1.846 1.969 1.956 1.898 1.937 1.794 1.871 1.811 1.806 1.870 1.847 1.850 1.813 1.856 1.907 1.845 1.816 1.813 1.731 1.795 1.732 1.673 1.887 1.702 1.741 1.736 1.768 1.702 1.706 1.727 1.692 1.657 1.748 1.716 1.652 1.646 1.675 1.601 1.666 1.724 1.608 1.543 1.630 1.541 1.654 1.583 1.556 1.510 1.518 1.577 1.492 1.457 1.550 1.531 1.469 1.537 1.496 1.459 1.457 1.450 1.503 1.461 1.469 1.342 1.367 1.397 1.345 1.417 1.417 1.352 1.310 1.350 1.374 1.291 1.331 1.293 1.288 1.273 1.269 1.244 1.304 1.354 1.270 1.183 1.225 1.239 1.367 1.164 1.287 1.226 1.154 1.141 1.148 1.152 1.157 1.187 1.134 1.119 1.152 1.157 1.232 1.169 1.178 1.203 1.134 1.036 1.154 1.112 1.130 1.010 1.022 1.037 1.128 1.083 1.074 1.017 1.061 1.054 1.015 0.998 1.023 1.046 1.138 1.012 0.951 0.968 1.017 1.064 1.058 1.034 0.966 0.916 1.028 1.056 1.045 1.108 1.029 1.125 0.878 1.042 1.040 0.979 1.002 6.771 5.876 2.020796 6.771 5.876 2.020796 1031745829.478 iB21 4.520
ODOM 6.779 5.864 2.030796 0.199 0.100 0 1031745829.558 iB21 4.600
FLASER 180 2.007 1.937 1.942 1.902 1.948 1.996 2.022 1.986 1.991 2.100 1.977 2.022 1.881 1.916 2.086 1.988 1.929 1.924 2.020 1.972 1.949 1.955 1.997 2.061 1.968 1.932 1.969 1.957 1.946 1.928 1.926 1.965 1.946 1.991 1.892 1.969 1.838 1.887 1.900 1.888 1.924 1.871 1.881 1.878 1.890 1.871 1.802 1.890 1.807 1.845 1.667 1.886 1.836 1.817 1.789 1.767 1.687 1.797 1.767 1.805 1.702 1.700 1.813 1.719 1.702 1.708 1.725 1.703 1.668 1.717 1.659 1.674 1.649 1.553 1.659 1.597 1.622 1.545 1.545 1.634 1.615 1.549 1.610 1.556 1.587 1.561 1.538 1.561 1.498 1.496 1.483 1.452 1.446 1.465 1.417 1.444 1.452 1.473 1.309 1.375 1.372 1.384 1.392 1.356 1.353 1.394 1.291 1.345 1.324 1.356 1.348 1.275 1.344 1.414 1.393 1.217 1.360 1.224 1.266 1.169 1.298 1.188 1.218 1.327 1.164 1.210 1.217 1.101 1.180 1.148 1.137 1.154 1.318 1.154 1.138 1.147 1.188 1.101 1.186 1.125 1.177 1.105 1.185 1.144 1.156 1.004 1.061 1.036 1.066 1.102 1.066 0.956 1.037 1.150 1.126 1.090 0.971 1.050 1.003 1.050 1.060 1.116 0.963 1.015 0.963 0.962 0.974 1.071 0.953 1.074 1.014 1.057 1.112 0.974 0.960 1.038 0.995 0.977 0.934 1.002 6.779 5.864 2.030796 6.779 5.864 2.030796 1031745829.578 iB21 4.620
ODOM 6.827 5.889 2.040796 0.193 0.100 0 1031745829.658 iB21 4.700
FLASER 180 1.953 1.996 2.088 1.953 1.971 1.983 2.011 1.965 2.079 2.079 1.955 1.902 1.930 1.941 1.974 2.023 2.073 1.965 1.882 1.955 2.079 1.962 1.974 2.010 1.963 1.979 1.947 1.966 1.988 1.929 1.925 1.948 1.951 1.903 1.904 1.936 1.880 1.937 1.874 1.874 1.899 1.880 1.876 1.770 1.768 1.839 1.877 1.857 1.867 1.921 1.864 1.806 1.708 1.746 1.773 1.853 1.814 1.836 1.800 1.756 1.765 1.702 1.753 1.781 1.680 1.735 1.650 1.600 1.734 1.667 1.725 1.644 1.689 1.667 1.630 1.627 1.624 1.665 1.488 1.691 1.648 1.563 1.610 1.576 1.562 1.541 1.521 1.555 1.524 1.442 1.494 1.457 1.458 1.498 1.475 1.485 1.382 1.452 1.450 1.480 1.458 1.460 1.406 1.511 1.284 1.386 1.343 1.328 1.434 1.307 1.403 1.272 1.287 1.324 1.250 1.298 1.316 1.328 1.175 1.213 1.261 1.322 1.225 1.258 1.185 1.157 1.258 1.263 1.252 1.130 1.251 1.177 1.101 1.133 1.163 1.168 1.129 1.199 1.159 1.086 1.081 1.057 1.149 1.097 1.114 1.092 1.189 1.093 1.093 1.017 0.945 1.094 1.004 1.038 0.981 1.078 0.994 1.099 1.129 1.047 1.052 0.989 0.950 1.018 0.969 1.028 1.019 1.035 1.091 1.027 0.901 1.008 0.934 1.037 0.920 0.947 1.046 0.987 1.025 1.059 6.827 5.889 2.040796 6.827 5.889 2.040796 1031745829.678 iB21 4.720
ODOM 6.783 5.917 2.050796 0.193 0.100 0 1031745829.758 iB21 4.800
