ODOM 1.000 1.020 1.571 2.000 0.000 0 1031745825.058 iRoC 0.1
ODOM 1.000 1.040 1.571 2.000 0.000 0 1031745825.158 iRoC 0.2
ODOM 1.000 1.060 1.571 2.000 0.000 0 1031745825.258 iRoC 0.3
ODOM 1.000 1.080 1.571 2.000 0.000 0 1031745825.358 iRoC 0.4
ODOM 1.000 1.100 1.571 2.000 0.000 0 1031745825.458 iRoC 0.5
ODOM 1.000 1.120 1.571 2.000 0.000 0 1031745825.558 iRoC 0.6
ODOM 1.000 1.140 1.571 2.000 0.000 0 1031745825.658 iRoC 0.7
ODOM 1.000 1.160 1.571 2.000 0.000 0 1031745825.758 iRoC 0.8
ODOM 1.000 1.180 1.571 2.000 0.000 0 1031745825.858 iRoC 0.9
ODOM 1.000 1.200 1.571 2.000 0.000 0 1031745825.958 iRoC 1.0
ODOM 1.000 1.220 1.571 2.000 0.000 0 1031745826.058 iRoC 1.1
ODOM 1.000 1.240 1.571 2.000 0.000 0 1031745826.158 iRoC 1.2
ODOM 1.000 1.260 1.571 2.000 0.000 0 1031745826.258 iRoC 1.3
ODOM 1.000 1.280 1.571 2.000 0.000 0 1031745826.358 iRoC 1.4
ODOM 1.000 1.300 1.571 2.000 0.000 0 1031745826.458 iRoC 1.5
ODOM 1.000 1.320 1.571 2.000 0.000 0 1031745826.558 iRoC 1.6
ODOM 1.000 1.340 1.571 2.000 0.000 0 1031745826.658 iRoC 1.7
ODOM 1.000 1.360 1.571 2.000 0.000 0 1031745826.758 iRoC 1.8
ODOM 1.000 1.380 1.571 2.000 0.000 0 1031745826.858 iRoC 1.9
ODOM 1.000 1.400 1.571 2.000 0.000 0 1031745826.958 iRoC 2.0
ODOM 1.000 1.420 1.571 2.000 0.000 0 1031745827.058 iRoC 2.1
ODOM 1.000 1.440 1.571 2.000 0.000 0 1031745827.158 iRoC 2.2
ODOM 1.000 1.460 1.571 2.000 0.000 0 1031745827.258 iRoC 2.3
ODOM 1.000 1.480 1.571 2.000 0.000 0 1031745827.358 iRoC 2.4
ODOM 1.000 1.500 1.571 2.000 0.000 0 1031745827.458 iRoC 2.5
ODOM 1.000 1.520 1.571 2.000 0.000 0 1031745827.558 iRoC 2.6
ODOM 1.000 1.540 1.571 2.000 0.000 0 1031745827.658 iRoC 2.7
ODOM 1.000 1.560 1.571 2.000 0.000 0 1031745827.758 iRoC 2.8
ODOM 1.000 1.580 1.571 2.000 0.000 0 1031745827.858 iRoC 2.9
ODOM 1.000 1.600 1.571 2.000 0.000 0 1031745827.958 iRoC 3.0
ODOM 1.000 1.620 1.571 2.000 0.000 0 1031745828.058 iRoC 3.1
ODOM 1.000 1.640 1.571 2.000 0.000 0 1031745828.158 iRoC 3.2
ODOM 1.000 1.660 1.571 2.000 0.000 0 1031745828.258 iRoC 3.3
ODOM 1.000 1.680 1.571 2.000 0.000 0 1031745828.358 iRoC 3.4
ODOM 1.000 1.700 1.571 2.000 0.000 0 1031745828.458 iRoC 3.5
ODOM 1.000 1.720 1.571 2.000 0.000 0 1031745828.558 iRoC 3.6
ODOM 1.000 1.740 1.571 2.000 0.000 0 1031745828.658 iRoC 3.7
ODOM 1.000 1.760 1.571 2.000 0.000 0 1031745828.758 iRoC 3.8
ODOM 1.000 1.780 1.571 2.000 0.000 0 1031745828.858 iRoC 3.9
ODOM 1.000 1.800 1.571 2.000 0.000 0 1031745828.958 iRoC 4.0
ODOM 1.000 1.820 1.571 2.000 0.000 0 1031745829.058 iRoC 4.1
ODOM 1.000 1.840 1.571 2.000 0.000 0 1031745829.158 iRoC 4.2
ODOM 1.000 1.860 1.571 2.000 0.000 0 1031745829.258 iRoC 4.3
ODOM 1.000 1.880 1.571 2.000 0.000 0 1031745829.358 iRoC 4.4
ODOM 1.000 1.900 1.571 2.000 0.000 0 1031745829.458 iRoC 4.5
ODOM 1.000 1.920 1.571 2.000 0.000 0 1031745829.558 iRoC 4.6
ODOM 1.000 1.940 1.571 2.000 0.000 0 1031745829.658 iRoC 4.7
ODOM 1.000 1.960 1.571 2.000 0.000 0 1031745829.758 iRoC 4.8
ODOM 1.000 1.980 1.571 2.000 0.000 0 1031745829.858 iRoC 4.9
ODOM 1.000 2.000 1.571 2.000 0.000 0 1031745829.958 iRoC 5.0
ODOM 1.000 2.020 1.571 2.000 0.000 0 1031745830.058 iRoC 5.1
ODOM 1.000 2.040 1.571 2.000 0.000 0 1031745830.158 iRoC 5.2
ODOM 1.000 2.060 1.571 2.000 0.000 0 1031745830.258 iRoC 5.3
ODOM 1.000 2.080 1.571 2.000 0.000 0 1031745830.358 iRoC 5.4
ODOM 1.000 2.100 1.551 2.000 -2.000 0 1031745830.458 iRoC 5.5
ODOM 1.000 2.120 1.531 2.000 -2.000 0 1031745830.558 iRoC 5.6
ODOM 1.000 2.140 1.511 2.000 -2.000 0 1031745830.658 iRoC 5.7
ODOM 1.000 2.160 1.491 2.000 -2.000 0 1031745830.758 iRoC 5.8
ODOM 1.000 2.180 1.471 2.000 -2.000 0 1031745830.858 iRoC 5.9
ODOM 1.000 2.200 1.451 2.000 -2.000 0 1031745830.958 iRoC 6.0
ODOM 1.000 2.220 1.431 2.000 -2.000 0 1031745831.058 iRoC 6.1
ODOM 1.000 2.240 1.411 2.000 -2.000 0 1031745831.158 iRoC 6.2
ODOM 1.000 2.260 1.391 2.000 -2.000 0 1031745831.258 iRoC 6.3
ODOM 1.000 2.280 1.371 2.000 -2.000 0 1031745831.358 iRoC 6.4
ODOM 1.020 2.300 1.351 2.000 -2.000 0 1031745831.458 iRoC 6.5
ODOM 1.020 2.320 1.331 2.000 -2.000 0 1031745831.558 iRoC 6.6
ODOM 1.020 2.340 1.311 2.000 -2.000 0 1031745831.658 iRoC 6.7
ODOM 1.020 2.360 1.291 2.000 -2.000 0 1031745831.758 iRoC 6.8
ODOM 1.040 2.380 1.271 2.000 -2.000 0 1031745831.858 iRoC 6.9
ODOM 1.040 2.400 1.251 2.000 -2.000 0 1031745831.958 iRoC 7.0
ODOM 1.040 2.420 1.231 2.000 -2.000 0 1031745832.058 iRoC 7.1
ODOM 1.060 2.440 1.211 2.000 -2.000 0 1031745832.158 iRoC 7.2
ODOM 1.060 2.460 1.191 2.000 -2.000 0 1031745832.258 iRoC 7.3
ODOM 1.060 2.480 1.171 2.000 -2.000 0 1031745832.358 iRoC 7.4
ODOM 1.080 2.500 1.151 2.000 -2.000 0 1031745832.458 iRoC 7.5
ODOM 1.080 2.520 1.131 2.000 -2.000 0 1031745832.558 iRoC 7.6
ODOM 1.100 2.540 1.111 2.000 -2.000 0 1031745832.658 iRoC 7.7
ODOM 1.100 2.560 1.091 2.000 -2.000 0 1031745832.758 iRoC 7.8
ODOM 1.120 2.560 1.071 2.000 -2.000 0 1031745832.858 iRoC 7.9
ODOM 1.120 2.580 1.051 2.000 -2.000 0 1031745832.958 iRoC 8.0
ODOM 1.140 2.600 1.031 2.000 -2.000 0 1031745833.058 iRoC 8.1
ODOM 1.140 2.620 1.011 2.000 -2.000 0 1031745833.158 iRoC 8.2
ODOM 1.160 2.640 0.991 2.000 -2.000 0 1031745833.258 iRoC 8.3
ODOM 1.160 2.660 0.971 2.000 -2.000 0 1031745833.358 iRoC 8.4
ODOM 1.180 2.680 0.951 2.000 -2.000 0 1031745833.458 iRoC 8.5
ODOM 1.180 2.680 0.931 2.000 -2.000 0 1031745833.558 iRoC 8.6
ODOM 1.200 2.700 0.911 2.000 -2.000 0 1031745833.658 iRoC 8.7
ODOM 1.220 2.720 0.891 2.000 -2.000 0 1031745833.758 iRoC 8.8
ODOM 1.220 2.740 0.871 2.000 -2.000 0 1031745833.858 iRoC 8.9
ODOM 1.240 2.740 0.851 2.000 -2.000 0 1031745833.958 iRoC 9.0
ODOM 1.260 2.760 0.831 2.000 -2.000 0 1031745834.058 iRoC 9.1
ODOM 1.260 2.780 0.811 2.000 -2.000 0 1031745834.158 iRoC 9.2
ODOM 1.280 2.800 0.791 2.000 -2.000 0 1031745834.258 iRoC 9.3
ODOM 1.300 2.800 0.771 2.000 -2.000 0 1031745834.358 iRoC 9.4
ODOM 1.300 2.820 0.751 2.000 -2.000 0 1031745834.458 iRoC 9.5
ODOM 1.320 2.840 0.731 2.000 -2.000 0 1031745834.558 iRoC 9.6
ODOM 1.340 2.840 0.711 2.000 -2.000 0 1031745834.658 iRoC 9.7
ODOM 1.360 2.860 0.691 2.000 -2.000 0 1031745834.758 iRoC 9.8
ODOM 1.360 2.880 0.671 2.000 -2.000 0 1031745834.858 iRoC 9.9
ODOM 1.380 2.880 0.651 2.000 -2.000 0 1031745834.958 iRoC 10.0
ODOM 1.400 2.900 0.631 2.000 -2.000 0 1031745835.058 iRoC 10.1
ODOM 1.420 2.900 0.611 2.000 -2.000 0 1031745835.158 iRoC 10.2
ODOM 1.440 2.920 0.591 2.000 -2.000 0 1031745835.258 iRoC 10.3
ODOM 1.440 2.940 0.571 2.000 -2.000 0 1031745835.358 iRoC 10.4
ODOM 1.460 2.940 0.551 2.000 -2.000 0 1031745835.458 iRoC 10.5
ODOM 1.480 2.960 0.531 2.000 -2.000 0 1031745835.558 iRoC 10.6
ODOM 1.500 2.960 0.511 2.000 -2.000 0 1031745835.658 iRoC 10.7
ODOM 1.520 2.980 0.491 2.000 -2.000 0 1031745835.758 iRoC 10.8
ODOM 1.540 2.980 0.471 2.000 -2.000 0 1031745835.858 iRoC 10.9
ODOM 1.560 3.000 0.451 2.000 -2.000 0 1031745835.958 iRoC 11.0
ODOM 1.580 3.000 0.431 2.000 -2.000 0 1031745836.058 iRoC 11.1
ODOM 1.600 3.000 0.411 2.000 -2.000 0 1031745836.158 iRoC 11.2
ODOM 1.600 3.020 0.391 2.000 -2.000 0 1031745836.258 iRoC 11.3
ODOM 1.620 3.020 0.371 2.000 -2.000 0 1031745836.358 iRoC 11.4
ODOM 1.640 3.020 0.351 2.000 -2.000 0 1031745836.458 iRoC 11.5
ODOM 1.660 3.040 0.331 2.000 -2.000 0 1031745836.558 iRoC 11.6
ODOM 1.680 3.040 0.311 2.000 -2.000 0 1031745836.658 iRoC 11.7
ODOM 1.700 3.040 0.291 2.000 -2.000 0 1031745836.758 iRoC 11.8
ODOM 1.720 3.060 0.271 2.000 -2.000 0 1031745836.858 iRoC 11.9
ODOM 1.740 3.060 0.251 2.000 -2.000 0 1031745836.958 iRoC 12.0
ODOM 1.760 3.060 0.231 2.000 -2.000 0 1031745837.058 iRoC 12.1
ODOM 1.780 3.060 0.211 2.000 -2.000 0 1031745837.158 iRoC 12.2
ODOM 1.800 3.080 0.191 2.000 -2.000 0 1031745837.258 iRoC 12.3
ODOM 1.820 3.080 0.171 2.000 -2.000 0 1031745837.358 iRoC 12.4
ODOM 1.840 3.080 0.151 2.000 -2.000 0 1031745837.458 iRoC 12.5
ODOM 1.860 3.080 0.131 2.000 -2.000 0 1031745837.558 iRoC 12.6
ODOM 1.880 3.080 0.111 2.000 -2.000 0 1031745837.658 iRoC 12.7
ODOM 1.900 3.080 0.091 2.000 -2.000 0 1031745837.758 iRoC 12.8
ODOM 1.920 3.080 0.071 2.000 -2.000 0 1031745837.858 iRoC 12.9
ODOM 1.940 3.080 0.051 2.000 -2.000 0 1031745837.958 iRoC 13.0
ODOM 1.960 3.080 0.031 2.000 -2.000 0 1031745838.058 iRoC 13.1
ODOM 1.980 3.080 0.011 2.000 -2.000 0 1031745838.158 iRoC 13.2
ODOM 2.000 3.100 0.011 2.000 0.000 0 1031745838.258 iRoC 13.3
ODOM 2.020 3.100 0.011 2.000 0.000 0 1031745838.358 iRoC 13.4
ODOM 2.040 3.100 0.011 2.000 0.000 0 1031745838.458 iRoC 13.5
ODOM 2.060 3.100 0.011 2.000 0.000 0 1031745838.558 iRoC 13.6
ODOM 2.080 3.100 0.031 2.000 2.000 0 1031745838.658 iRoC 13.7
ODOM 2.100 3.100 0.051 2.000 2.000 0 1031745838.758 iRoC 13.8
ODOM 2.120 3.100 0.071 2.000 2.000 0 1031745838.858 iRoC 13.9
ODOM 2.140 3.100 0.091 2.000 2.000 0 1031745838.958 iRoC 14.0
ODOM 2.160 3.100 0.111 2.000 2.000 0 1031745839.058 iRoC 14.1
ODOM 2.180 3.100 0.131 2.000 2.000 0 1031745839.158 iRoC 14.2
ODOM 2.200 3.100 0.151 2.000 2.000 0 1031745839.258 iRoC 14.3
ODOM 2.220 3.100 0.171 2.000 2.000 0 1031745839.358 iRoC 14.4
ODOM 2.240 3.100 0.191 2.000 2.000 0 1031745839.458 iRoC 14.5
ODOM 2.260 3.120 0.211 2.000 2.000 0 1031745839.558 iRoC 14.6
ODOM 2.280 3.120 0.231 2.000 2.000 0 1031745839.658 iRoC 14.7
ODOM 2.300 3.120 0.251 2.000 2.000 0 1031745839.758 iRoC 14.8
ODOM 2.320 3.120 0.271 2.000 2.000 0 1031745839.858 iRoC 14.9
ODOM 2.340 3.140 0.291 2.000 2.000 0 1031745839.958 iRoC 15.0
ODOM 2.360 3.140 0.311 2.000 2.000 0 1031745840.058 iRoC 15.1
ODOM 2.380 3.140 0.331 2.000 2.000 0 1031745840.158 iRoC 15.2
ODOM 2.400 3.160 0.351 2.000 2.000 0 1031745840.258 iRoC 15.3
ODOM 2.420 3.160 0.371 2.000 2.000 0 1031745840.358 iRoC 15.4
ODOM 2.420 3.160 0.391 2.000 2.000 0 1031745840.458 iRoC 15.5
ODOM 2.440 3.180 0.411 2.000 2.000 0 1031745840.558 iRoC 15.6
ODOM 2.460 3.180 0.431 2.000 2.000 0 1031745840.658 iRoC 15.7
ODOM 2.480 3.200 0.451 2.000 2.000 0 1031745840.758 iRoC 15.8
ODOM 2.500 3.200 0.471 2.000 2.000 0 1031745840.858 iRoC 15.9
ODOM 2.520 3.200 0.491 2.000 2.000 0 1031745840.958 iRoC 16.0
ODOM 2.540 3.220 0.511 2.000 2.000 0 1031745841.058 iRoC 16.1
ODOM 2.560 3.220 0.531 2.000 2.000 0 1031745841.158 iRoC 16.2
ODOM 2.580 3.240 0.551 2.000 2.000 0 1031745841.258 iRoC 16.3
ODOM 2.580 3.240 0.571 2.000 2.000 0 1031745841.358 iRoC 16.4
ODOM 2.600 3.260 0.591 2.000 2.000 0 1031745841.458 iRoC 16.5
ODOM 2.620 3.280 0.611 2.000 2.000 0 1031745841.558 iRoC 16.6
ODOM 2.640 3.280 0.631 2.000 2.000 0 1031745841.658 iRoC 16.7
ODOM 2.660 3.300 0.651 2.000 2.000 0 1031745841.758 iRoC 16.8
ODOM 2.680 3.300 0.671 2.000 2.000 0 1031745841.858 iRoC 16.9
ODOM 2.680 3.320 0.691 2.000 2.000 0 1031745841.958 iRoC 17.0
ODOM 2.700 3.340 0.711 2.000 2.000 0 1031745842.058 iRoC 17.1
ODOM 2.720 3.340 0.731 2.000 2.000 0 1031745842.158 iRoC 17.2
ODOM 2.740 3.360 0.751 2.000 2.000 0 1031745842.258 iRoC 17.3
ODOM 2.740 3.380 0.771 2.000 2.000 0 1031745842.358 iRoC 17.4
ODOM 2.760 3.380 0.791 2.000 2.000 0 1031745842.458 iRoC 17.5
ODOM 2.780 3.400 0.811 2.000 2.000 0 1031745842.558 iRoC 17.6
ODOM 2.780 3.420 0.831 2.000 2.000 0 1031745842.658 iRoC 17.7
ODOM 2.800 3.440 0.851 2.000 2.000 0 1031745842.758 iRoC 17.8
ODOM 2.820 3.440 0.871 2.000 2.000 0 1031745842.858 iRoC 17.9
ODOM 2.820 3.460 0.891 2.000 2.000 0 1031745842.958 iRoC 18.0
ODOM 2.840 3.480 0.911 2.000 2.000 0 1031745843.058 iRoC 18.1
ODOM 2.860 3.500 0.931 2.000 2.000 0 1031745843.158 iRoC 18.2
ODOM 2.860 3.500 0.951 2.000 2.000 0 1031745843.258 iRoC 18.3
ODOM 2.880 3.520 0.971 2.000 2.000 0 1031745843.358 iRoC 18.4
ODOM 2.880 3.540 0.991 2.000 2.000 0 1031745843.458 iRoC 18.5
ODOM 2.900 3.560 1.011 2.000 2.000 0 1031745843.558 iRoC 18.6
ODOM 2.900 3.580 1.031 2.000 2.000 0 1031745843.658 iRoC 18.7
ODOM 2.920 3.600 1.051 2.000 2.000 0 1031745843.758 iRoC 18.8
ODOM 2.920 3.620 1.071 2.000 2.000 0 1031745843.858 iRoC 18.9
ODOM 2.940 3.620 1.091 2.000 2.000 0 1031745843.958 iRoC 19.0
ODOM 2.940 3.640 1.111 2.000 2.000 0 1031745844.058 iRoC 19.1
ODOM 2.960 3.660 1.131 2.000 2.000 0 1031745844.158 iRoC 19.2
ODOM 2.960 3.680 1.151 2.000 2.000 0 1031745844.258 iRoC 19.3
ODOM 2.960 3.700 1.171 2.000 2.000 0 1031745844.358 iRoC 19.4
ODOM 2.980 3.720 1.191 2.000 2.000 0 1031745844.458 iRoC 19.5
ODOM 2.980 3.740 1.211 2.000 2.000 0 1031745844.558 iRoC 19.6
ODOM 3.000 3.760 1.231 2.000 2.000 0 1031745844.658 iRoC 19.7
ODOM 3.000 3.780 1.231 2.000 0.000 0 1031745844.758 iRoC 19.8
ODOM 3.000 3.800 1.211 2.000 -2.000 0 1031745844.858 iRoC 19.9
ODOM 3.020 3.820 1.191 2.000 -2.000 0 1031745844.958 iRoC 20.0
ODOM 3.020 3.840 1.171 2.000 -2.000 0 1031745845.058 iRoC 20.1
ODOM 3.020 3.860 1.151 2.000 -2.000 0 1031745845.158 iRoC 20.2
ODOM 3.040 3.860 1.131 2.000 -2.000 0 1031745845.258 iRoC 20.3
ODOM 3.040 3.880 1.111 2.000 -2.000 0 1031745845.358 iRoC 20.4
ODOM 3.060 3.900 1.091 2.000 -2.000 0 1031745845.458 iRoC 20.5
ODOM 3.060 3.920 1.071 2.000 -2.000 0 1031745845.558 iRoC 20.6
ODOM 3.080 3.940 1.051 2.000 -2.000 0 1031745845.658 iRoC 20.7
ODOM 3.080 3.960 1.031 2.000 -2.000 0 1031745845.758 iRoC 20.8
ODOM 3.100 3.980 1.011 2.000 -2.000 0 1031745845.858 iRoC 20.9
ODOM 3.100 4.000 0.991 2.000 -2.000 0 1031745845.958 iRoC 21.0
ODOM 3.120 4.000 0.971 2.000 -2.000 0 1031745846.058 iRoC 21.1
ODOM 3.120 4.020 0.951 2.000 -2.000 0 1031745846.158 iRoC 21.2
ODOM 3.140 4.040 0.931 2.000 -2.000 0 1031745846.258 iRoC 21.3
ODOM 3.160 4.060 0.911 2.000 -2.000 0 1031745846.358 iRoC 21.4
ODOM 3.160 4.080 0.891 2.000 -2.000 0 1031745846.458 iRoC 21.5
ODOM 3.180 4.080 0.871 2.000 -2.000 0 1031745846.558 iRoC 21.6
ODOM 3.180 4.100 0.851 2.000 -2.000 0 1031745846.658 iRoC 21.7
ODOM 3.200 4.120 0.831 2.000 -2.000 0 1031745846.758 iRoC 21.8
ODOM 3.220 4.140 0.811 2.000 -2.000 0 1031745846.858 iRoC 21.9
ODOM 3.220 4.140 0.791 2.000 -2.000 0 1031745846.958 iRoC 22.0
ODOM 3.240 4.160 0.771 2.000 -2.000 0 1031745847.058 iRoC 22.1
ODOM 3.260 4.180 0.751 2.000 -2.000 0 1031745847.158 iRoC 22.2
ODOM 3.280 4.180 0.731 2.000 -2.000 0 1031745847.258 iRoC 22.3
ODOM 3.280 4.200 0.711 2.000 -2.000 0 1031745847.358 iRoC 22.4
ODOM 3.300 4.220 0.691 2.000 -2.000 0 1031745847.458 iRoC 22.5
ODOM 3.320 4.220 0.671 2.000 -2.000 0 1031745847.558 iRoC 22.6
ODOM 3.340 4.240 0.651 2.000 -2.000 0 1031745847.658 iRoC 22.7
ODOM 3.360 4.260 0.631 2.000 -2.000 0 1031745847.758 iRoC 22.8
ODOM 3.360 4.260 0.611 2.000 -2.000 0 1031745847.858 iRoC 22.9
ODOM 3.380 4.280 0.591 2.000 -2.000 0 1031745847.958 iRoC 23.0
ODOM 3.400 4.280 0.571 2.000 -2.000 0 1031745848.058 iRoC 23.1
ODOM 3.420 4.300 0.551 2.000 -2.000 0 1031745848.158 iRoC 23.2
ODOM 3.440 4.300 0.531 2.000 -2.000 0 1031745848.258 iRoC 23.3
ODOM 3.460 4.320 0.511 2.000 -2.000 0 1031745848.358 iRoC 23.4
ODOM 3.460 4.320 0.491 2.000 -2.000 0 1031745848.458 iRoC 23.5
ODOM 3.480 4.340 0.471 2.000 -2.000 0 1031745848.558 iRoC 23.6
ODOM 3.500 4.340 0.451 2.000 -2.000 0 1031745848.658 iRoC 23.7
ODOM 3.520 4.360 0.431 2.000 -2.000 0 1031745848.758 iRoC 23.8
ODOM 3.540 4.360 0.411 2.000 -2.000 0 1031745848.858 iRoC 23.9
ODOM 3.560 4.360 0.391 2.000 -2.000 0 1031745848.958 iRoC 24.0
ODOM 3.580 4.380 0.371 2.000 -2.000 0 1031745849.058 iRoC 24.1
ODOM 3.600 4.380 0.351 2.000 -2.000 0 1031745849.158 iRoC 24.2
ODOM 3.620 4.380 0.331 2.000 -2.000 0 1031745849.258 iRoC 24.3
ODOM 3.640 4.400 0.311 2.000 -2.000 0 1031745849.358 iRoC 24.4
ODOM 3.660 4.400 0.291 2.000 -2.000 0 1031745849.458 iRoC 24.5
ODOM 3.680 4.400 0.271 2.000 -2.000 0 1031745849.558 iRoC 24.6
ODOM 3.700 4.420 0.251 2.000 -2.000 0 1031745849.658 iRoC 24.7
ODOM 3.720 4.420 0.231 2.000 -2.000 0 1031745849.758 iRoC 24.8
ODOM 3.740 4.420 0.211 2.000 -2.000 0 1031745849.858 iRoC 24.9
ODOM 3.760 4.420 0.191 2.000 -2.000 0 1031745849.958 iRoC 25.0
ODOM 3.780 4.420 0.171 2.000 -2.000 0 1031745850.058 iRoC 25.1
ODOM 3.800 4.440 0.151 2.000 -2.000 0 1031745850.158 iRoC 25.2
ODOM 3.820 4.440 0.131 2.000 -2.000 0 1031745850.258 iRoC 25.3
ODOM 3.840 4.440 0.111 2.000 -2.000 0 1031745850.358 iRoC 25.4
ODOM 3.840 4.440 0.091 2.000 -2.000 0 1031745850.458 iRoC 25.5
ODOM 3.860 4.440 0.071 2.000 -2.000 0 1031745850.558 iRoC 25.6
ODOM 3.880 4.440 0.051 2.000 -2.000 0 1031745850.658 iRoC 25.7
ODOM 3.900 4.440 0.031 2.000 -2.000 0 1031745850.758 iRoC 25.8
ODOM 3.920 4.440 0.011 2.000 -2.000 0 1031745850.858 iRoC 25.9
ODOM 3.940 4.440 -0.009 2.000 -2.000 0 1031745850.958 iRoC 26.0
ODOM 3.960 4.440 -0.029 2.000 -2.000 0 1031745851.058 iRoC 26.1
ODOM 3.980 4.440 -0.049 2.000 -2.000 0 1031745851.158 iRoC 26.2
ODOM 4.000 4.440 -0.069 2.000 -2.000 0 1031745851.258 iRoC 26.3
ODOM 4.020 4.440 -0.089 2.000 -2.000 0 1031745851.358 iRoC 26.4
ODOM 4.040 4.440 -0.109 2.000 -2.000 0 1031745851.458 iRoC 26.5
ODOM 4.060 4.440 -0.129 2.000 -2.000 0 1031745851.558 iRoC 26.6
ODOM 4.080 4.440 -0.149 2.000 -2.000 0 1031745851.658 iRoC 26.7
ODOM 4.100 4.420 -0.169 2.000 -2.000 0 1031745851.758 iRoC 26.8
ODOM 4.120 4.420 -0.189 2.000 -2.000 0 1031745851.858 iRoC 26.9
ODOM 4.140 4.420 -0.169 2.000 2.000 0 1031745851.958 iRoC 27.0
ODOM 4.160 4.420 -0.149 2.000 2.000 0 1031745852.058 iRoC 27.1
ODOM 4.180 4.420 -0.129 2.000 2.000 0 1031745852.158 iRoC 27.2
ODOM 4.200 4.420 -0.129 2.000 0.000 0 1031745852.258 iRoC 27.3
ODOM 4.220 4.420 -0.129 2.000 0.000 0 1031745852.358 iRoC 27.4
ODOM 4.240 4.400 -0.129 2.000 0.000 0 1031745852.458 iRoC 27.5
ODOM 4.260 4.400 -0.129 2.000 0.000 0 1031745852.558 iRoC 27.6
ODOM 4.280 4.400 -0.129 2.000 0.000 0 1031745852.658 iRoC 27.7
ODOM 4.300 4.400 -0.129 2.000 0.000 0 1031745852.758 iRoC 27.8
ODOM 4.320 4.400 -0.129 2.000 0.000 0 1031745852.858 iRoC 27.9
ODOM 4.340 4.400 -0.129 2.000 0.000 0 1031745852.958 iRoC 28.0
ODOM 4.360 4.400 -0.129 2.000 0.000 0 1031745853.058 iRoC 28.1
ODOM 4.380 4.380 -0.129 2.000 0.000 0 1031745853.158 iRoC 28.2
ODOM 4.400 4.380 -0.129 2.000 0.000 0 1031745853.258 iRoC 28.3
ODOM 4.420 4.380 -0.129 2.000 0.000 0 1031745853.358 iRoC 28.4
ODOM 4.440 4.380 -0.129 2.000 0.000 0 1031745853.458 iRoC 28.5
ODOM 4.460 4.380 -0.129 2.000 0.000 0 1031745853.558 iRoC 28.6
ODOM 4.480 4.380 -0.129 2.000 0.000 0 1031745853.658 iRoC 28.7
ODOM 4.500 4.380 -0.129 2.000 0.000 0 1031745853.758 iRoC 28.8
ODOM 4.520 4.380 -0.129 2.000 0.000 0 1031745853.858 iRoC 28.9
ODOM 4.540 4.360 -0.129 2.000 0.000 0 1031745853.958 iRoC 29.0
ODOM 4.560 4.360 -0.129 2.000 0.000 0 1031745854.058 iRoC 29.1
ODOM 4.580 4.360 -0.129 2.000 0.000 0 1031745854.158 iRoC 29.2
ODOM 4.600 4.360 -0.129 2.000 0.000 0 1031745854.258 iRoC 29.3
ODOM 4.620 4.360 -0.129 2.000 0.000 0 1031745854.358 iRoC 29.4
ODOM 4.640 4.360 -0.129 2.000 0.000 0 1031745854.458 iRoC 29.5
ODOM 4.660 4.360 -0.129 2.000 0.000 0 1031745854.558 iRoC 29.6
ODOM 4.680 4.360 -0.129 2.000 0.000 0 1031745854.658 iRoC 29.7
ODOM 4.700 4.340 -0.129 2.000 0.000 0 1031745854.758 iRoC 29.8
ODOM 4.720 4.340 -0.129 2.000 0.000 0 1031745854.858 iRoC 29.9
ODOM 4.740 4.340 -0.129 2.000 0.000 0 1031745854.958 iRoC 30.0
ODOM 4.760 4.340 -0.129 2.000 0.000 0 1031745855.058 iRoC 30.1
ODOM 4.780 4.340 -0.129 2.000 0.000 0 1031745855.158 iRoC 30.2
ODOM 4.800 4.340 -0.129 2.000 0.000 0 1031745855.258 iRoC 30.3
ODOM 4.820 4.340 -0.129 2.000 0.000 0 1031745855.358 iRoC 30.4
ODOM 4.840 4.340 -0.129 2.000 0.000 0 1031745855.458 iRoC 30.5
ODOM 4.860 4.320 -0.129 2.000 0.000 0 1031745855.558 iRoC 30.6
ODOM 4.880 4.320 -0.129 2.000 0.000 0 1031745855.658 iRoC 30.7
ODOM 4.900 4.320 -0.129 2.000 0.000 0 1031745855.758 iRoC 30.8
ODOM 4.920 4.320 -0.129 2.000 0.000 0 1031745855.858 iRoC 30.9
ODOM 4.940 4.320 -0.129 2.000 0.000 0 1031745855.958 iRoC 31.0
ODOM 4.960 4.320 -0.129 2.000 0.000 0 1031745856.058 iRoC 31.1
ODOM 4.980 4.320 -0.129 2.000 0.000 0 1031745856.158 iRoC 31.2
ODOM 5.000 4.300 -0.129 2.000 0.000 0 1031745856.258 iRoC 31.3
ODOM 5.020 4.300 -0.129 2.000 0.000 0 1031745856.358 iRoC 31.4
ODOM 5.040 4.300 -0.129 2.000 0.000 0 1031745856.458 iRoC 31.5
ODOM 5.060 4.300 -0.129 2.000 0.000 0 1031745856.558 iRoC 31.6
ODOM 5.080 4.300 -0.129 2.000 0.000 0 1031745856.658 iRoC 31.7
ODOM 5.100 4.300 -0.129 2.000 0.000 0 1031745856.758 iRoC 31.8
ODOM 5.120 4.300 -0.129 2.000 0.000 0 1031745856.858 iRoC 31.9
ODOM 5.140 4.300 -0.129 2.000 0.000 0 1031745856.958 iRoC 32.0
ODOM 5.160 4.280 -0.129 2.000 0.000 0 1031745857.058 iRoC 32.1
ODOM 5.180 4.280 -0.129 2.000 0.000 0 1031745857.158 iRoC 32.2
ODOM 5.200 4.280 -0.129 2.000 0.000 0 1031745857.258 iRoC 32.3
ODOM 5.220 4.280 -0.129 2.000 0.000 0 1031745857.358 iRoC 32.4
ODOM 5.240 4.280 -0.129 2.000 0.000 0 1031745857.458 iRoC 32.5
ODOM 5.260 4.280 -0.129 2.000 0.000 0 1031745857.558 iRoC 32.6
ODOM 5.280 4.280 -0.129 2.000 0.000 0 1031745857.658 iRoC 32.7
ODOM 5.300 4.280 -0.129 2.000 0.000 0 1031745857.758 iRoC 32.8
ODOM 5.320 4.260 -0.129 2.000 0.000 0 1031745857.858 iRoC 32.9
ODOM 5.340 4.260 -0.129 2.000 0.000 0 1031745857.958 iRoC 33.0
ODOM 5.360 4.260 -0.129 2.000 0.000 0 1031745858.058 iRoC 33.1
ODOM 5.380 4.260 -0.129 2.000 0.000 0 1031745858.158 iRoC 33.2
ODOM 5.400 4.260 -0.129 2.000 0.000 0 1031745858.258 iRoC 33.3
ODOM 5.420 4.260 -0.129 2.000 0.000 0 1031745858.358 iRoC 33.4
ODOM 5.440 4.260 -0.129 2.000 0.000 0 1031745858.458 iRoC 33.5
ODOM 5.460 4.260 -0.129 2.000 0.000 0 1031745858.558 iRoC 33.6
ODOM 5.480 4.240 -0.129 2.000 0.000 0 1031745858.658 iRoC 33.7
ODOM 5.500 4.240 -0.129 2.000 0.000 0 1031745858.758 iRoC 33.8
ODOM 5.520 4.240 -0.129 2.000 0.000 0 1031745858.858 iRoC 33.9
ODOM 5.540 4.240 -0.129 2.000 0.000 0 1031745858.958 iRoC 34.0
ODOM 5.560 4.240 -0.129 2.000 0.000 0 1031745859.058 iRoC 34.1
ODOM 5.580 4.240 -0.129 2.000 0.000 0 1031745859.158 iRoC 34.2
ODOM 5.600 4.240 -0.129 2.000 0.000 0 1031745859.258 iRoC 34.3
ODOM 5.620 4.220 -0.129 2.000 0.000 0 1031745859.358 iRoC 34.4
ODOM 5.640 4.220 -0.129 2.000 0.000 0 1031745859.458 iRoC 34.5
ODOM 5.660 4.220 -0.129 2.000 0.000 0 1031745859.558 iRoC 34.6
ODOM 5.680 4.220 -0.129 2.000 0.000 0 1031745859.658 iRoC 34.7
ODOM 5.700 4.220 -0.129 2.000 0.000 0 1031745859.758 iRoC 34.8
ODOM 5.720 4.220 -0.129 2.000 0.000 0 1031745859.858 iRoC 34.9
ODOM 5.740 4.220 -0.129 2.000 0.000 0 1031745859.958 iRoC 35.0
ODOM 5.760 4.220 -0.129 2.000 0.000 0 1031745860.058 iRoC 35.1
ODOM 5.780 4.200 -0.129 2.000 0.000 0 1031745860.158 iRoC 35.2
ODOM 5.800 4.200 -0.129 2.000 0.000 0 1031745860.258 iRoC 35.3
ODOM 5.820 4.200 -0.129 2.000 0.000 0 1031745860.358 iRoC 35.4
ODOM 5.840 4.200 -0.129 2.000 0.000 0 1031745860.458 iRoC 35.5
ODOM 5.860 4.200 -0.129 2.000 0.000 0 1031745860.558 iRoC 35.6
ODOM 5.880 4.200 -0.129 2.000 0.000 0 1031745860.658 iRoC 35.7
ODOM 5.900 4.200 -0.129 2.000 0.000 0 1031745860.758 iRoC 35.8
ODOM 5.920 4.200 -0.129 2.000 0.000 0 1031745860.858 iRoC 35.9
ODOM 5.940 4.180 -0.129 2.000 0.000 0 1031745860.958 iRoC 36.0
ODOM 5.960 4.180 -0.129 2.000 0.000 0 1031745861.058 iRoC 36.1
ODOM 5.980 4.180 -0.129 2.000 0.000 0 1031745861.158 iRoC 36.2
ODOM 6.000 4.180 -0.129 2.000 0.000 0 1031745861.258 iRoC 36.3
ODOM 6.020 4.180 -0.129 2.000 0.000 0 1031745861.358 iRoC 36.4
ODOM 6.040 4.180 -0.129 2.000 0.000 0 1031745861.458 iRoC 36.5
ODOM 6.060 4.180 -0.129 2.000 0.000 0 1031745861.558 iRoC 36.6
ODOM 6.080 4.180 -0.129 2.000 0.000 0 1031745861.658 iRoC 36.7
ODOM 6.100 4.160 -0.129 2.000 0.000 0 1031745861.758 iRoC 36.8
ODOM 6.120 4.160 -0.129 2.000 0.000 0 1031745861.858 iRoC 36.9
ODOM 6.140 4.160 -0.129 2.000 0.000 0 1031745861.958 iRoC 37.0
ODOM 6.160 4.160 -0.129 2.000 0.000 0 1031745862.058 iRoC 37.1
ODOM 6.180 4.160 -0.129 2.000 0.000 0 1031745862.158 iRoC 37.2
ODOM 6.200 4.160 -0.129 2.000 0.000 0 1031745862.258 iRoC 37.3
ODOM 6.220 4.160 -0.129 2.000 0.000 0 1031745862.358 iRoC 37.4
ODOM 6.240 4.140 -0.129 2.000 0.000 0 1031745862.458 iRoC 37.5
ODOM 6.260 4.140 -0.129 2.000 0.000 0 1031745862.558 iRoC 37.6
ODOM 6.280 4.140 -0.129 2.000 0.000 0 1031745862.658 iRoC 37.7
ODOM 6.300 4.140 -0.129 2.000 0.000 0 1031745862.758 iRoC 37.8
ODOM 6.320 4.140 -0.129 2.000 0.000 0 1031745862.858 iRoC 37.9
ODOM 6.320 4.140 -0.129 2.000 0.000 0 1031745862.958 iRoC 38.0
ODOM 6.340 4.140 -0.129 2.000 0.000 0 1031745863.058 iRoC 38.1
ODOM 6.360 4.140 -0.129 2.000 0.000 0 1031745863.158 iRoC 38.2
ODOM 6.380 4.120 -0.129 2.000 0.000 0 1031745863.258 iRoC 38.3
ODOM 6.400 4.120 -0.129 2.000 0.000 0 1031745863.358 iRoC 38.4
ODOM 6.420 4.120 -0.129 2.000 0.000 0 1031745863.458 iRoC 38.5
ODOM 6.440 4.120 -0.129 2.000 0.000 0 1031745863.558 iRoC 38.6
ODOM 6.460 4.120 -0.129 2.000 0.000 0 1031745863.658 iRoC 38.7
ODOM 6.480 4.120 -0.129 2.000 0.000 0 1031745863.758 iRoC 38.8
ODOM 6.500 4.120 -0.129 2.000 0.000 0 1031745863.858 iRoC 38.9
ODOM 6.520 4.120 -0.129 2.000 0.000 0 1031745863.958 iRoC 39.0
ODOM 6.540 4.100 -0.129 2.000 0.000 0 1031745864.058 iRoC 39.1
ODOM 6.560 4.100 -0.129 2.000 0.000 0 1031745864.158 iRoC 39.2
ODOM 6.580 4.100 -0.129 2.000 0.000 0 1031745864.258 iRoC 39.3
ODOM 6.600 4.100 -0.129 2.000 0.000 0 1031745864.358 iRoC 39.4
ODOM 6.620 4.100 -0.129 2.000 0.000 0 1031745864.458 iRoC 39.5
ODOM 6.640 4.100 -0.129 2.000 0.000 0 1031745864.558 iRoC 39.6
ODOM 6.660 4.100 -0.129 2.000 0.000 0 1031745864.658 iRoC 39.7
ODOM 6.680 4.100 -0.129 2.000 0.000 0 1031745864.758 iRoC 39.8
ODOM 6.700 4.080 -0.129 2.000 0.000 0 1031745864.858 iRoC 39.9
ODOM 6.720 4.080 -0.129 2.000 0.000 0 1031745864.958 iRoC 40.0
ODOM 6.740 4.080 -0.129 2.000 0.000 0 1031745865.058 iRoC 40.1
ODOM 6.760 4.080 -0.129 2.000 0.000 0 1031745865.158 iRoC 40.2
ODOM 6.780 4.080 -0.129 2.000 0.000 0 1031745865.258 iRoC 40.3
ODOM 6.800 4.080 -0.129 2.000 0.000 0 1031745865.358 iRoC 40.4
ODOM 6.820 4.080 -0.129 2.000 0.000 0 1031745865.458 iRoC 40.5
ODOM 6.840 4.060 -0.129 2.000 0.000 0 1031745865.558 iRoC 40.6
ODOM 6.860 4.060 -0.129 2.000 0.000 0 1031745865.658 iRoC 40.7
ODOM 6.880 4.060 -0.109 2.000 2.000 0 1031745865.758 iRoC 40.8
ODOM 6.900 4.060 -0.089 2.000 2.000 0 1031745865.858 iRoC 40.9
ODOM 6.920 4.060 -0.069 2.000 2.000 0 1031745865.958 iRoC 41.0
ODOM 6.940 4.060 -0.049 2.000 2.000 0 1031745866.058 iRoC 41.1
ODOM 6.960 4.060 -0.029 2.000 2.000 0 1031745866.158 iRoC 41.2
ODOM 6.980 4.060 -0.009 2.000 2.000 0 1031745866.258 iRoC 41.3
ODOM 7.000 4.060 0.011 2.000 2.000 0 1031745866.358 iRoC 41.4
ODOM 7.020 4.060 0.031 2.000 2.000 0 1031745866.458 iRoC 41.5
ODOM 7.040 4.060 0.051 2.000 2.000 0 1031745866.558 iRoC 41.6
ODOM 7.060 4.060 0.071 2.000 2.000 0 1031745866.658 iRoC 41.7
ODOM 7.080 4.060 0.091 2.000 2.000 0 1031745866.758 iRoC 41.8
ODOM 7.100 4.060 0.111 2.000 2.000 0 1031745866.858 iRoC 41.9
ODOM 7.120 4.060 0.131 2.000 2.000 0 1031745866.958 iRoC 42.0
ODOM 7.140 4.080 0.151 2.000 2.000 0 1031745867.058 iRoC 42.1
ODOM 7.160 4.080 0.171 2.000 2.000 0 1031745867.158 iRoC 42.2
ODOM 7.180 4.080 0.191 2.000 2.000 0 1031745867.258 iRoC 42.3
ODOM 7.200 4.080 0.211 2.000 2.000 0 1031745867.358 iRoC 42.4
ODOM 7.220 4.080 0.231 2.000 2.000 0 1031745867.458 iRoC 42.5
ODOM 7.240 4.100 0.251 2.000 2.000 0 1031745867.558 iRoC 42.6
ODOM 7.260 4.100 0.271 2.000 2.000 0 1031745867.658 iRoC 42.7
ODOM 7.280 4.100 0.291 2.000 2.000 0 1031745867.758 iRoC 42.8
ODOM 7.300 4.100 0.311 2.000 2.000 0 1031745867.858 iRoC 42.9
ODOM 7.320 4.120 0.331 2.000 2.000 0 1031745867.958 iRoC 43.0
ODOM 7.340 4.120 0.351 2.000 2.000 0 1031745868.058 iRoC 43.1
ODOM 7.360 4.120 0.371 2.000 2.000 0 1031745868.158 iRoC 43.2
ODOM 7.380 4.140 0.391 2.000 2.000 0 1031745868.258 iRoC 43.3
ODOM 7.400 4.140 0.411 2.000 2.000 0 1031745868.358 iRoC 43.4
ODOM 7.420 4.160 0.431 2.000 2.000 0 1031745868.458 iRoC 43.5
ODOM 7.420 4.160 0.451 2.000 2.000 0 1031745868.558 iRoC 43.6
ODOM 7.440 4.160 0.471 2.000 2.000 0 1031745868.658 iRoC 43.7
ODOM 7.460 4.180 0.491 2.000 2.000 0 1031745868.758 iRoC 43.8
ODOM 7.480 4.180 0.511 2.000 2.000 0 1031745868.858 iRoC 43.9
ODOM 7.500 4.200 0.531 2.000 2.000 0 1031745868.958 iRoC 44.0
ODOM 7.520 4.200 0.551 2.000 2.000 0 1031745869.058 iRoC 44.1
ODOM 7.540 4.220 0.571 2.000 2.000 0 1031745869.158 iRoC 44.2
ODOM 7.560 4.220 0.591 2.000 2.000 0 1031745869.258 iRoC 44.3
ODOM 7.560 4.240 0.611 2.000 2.000 0 1031745869.358 iRoC 44.4
ODOM 7.580 4.260 0.631 2.000 2.000 0 1031745869.458 iRoC 44.5
ODOM 7.600 4.260 0.651 2.000 2.000 0 1031745869.558 iRoC 44.6
ODOM 7.620 4.280 0.671 2.000 2.000 0 1031745869.658 iRoC 44.7
ODOM 7.640 4.280 0.691 2.000 2.000 0 1031745869.758 iRoC 44.8
ODOM 7.640 4.300 0.711 2.000 2.000 0 1031745869.858 iRoC 44.9
ODOM 7.660 4.320 0.731 2.000 2.000 0 1031745869.958 iRoC 45.0
ODOM 7.680 4.320 0.751 2.000 2.000 0 1031745870.058 iRoC 45.1
ODOM 7.700 4.340 0.771 2.000 2.000 0 1031745870.158 iRoC 45.2
ODOM 7.700 4.360 0.771 2.000 0.000 0 1031745870.258 iRoC 45.3
ODOM 7.720 4.360 0.771 2.000 0.000 0 1031745870.358 iRoC 45.4
ODOM 7.740 4.380 0.771 2.000 0.000 0 1031745870.458 iRoC 45.5
ODOM 7.740 4.400 0.771 2.000 0.000 0 1031745870.558 iRoC 45.6
ODOM 7.760 4.420 0.771 2.000 0.000 0 1031745870.658 iRoC 45.7
ODOM 7.780 4.420 0.771 2.000 0.000 0 1031745870.758 iRoC 45.8
ODOM 7.800 4.440 0.771 2.000 0.000 0 1031745870.858 iRoC 45.9
ODOM 7.800 4.460 0.771 2.000 0.000 0 1031745870.958 iRoC 46.0
ODOM 7.820 4.460 0.771 2.000 0.000 0 1031745871.058 iRoC 46.1
ODOM 7.840 4.480 0.771 2.000 0.000 0 1031745871.158 iRoC 46.2
ODOM 7.840 4.500 0.771 2.000 0.000 0 1031745871.258 iRoC 46.3
ODOM 7.860 4.500 0.771 2.000 0.000 0 1031745871.358 iRoC 46.4
ODOM 7.880 4.520 0.771 2.000 0.000 0 1031745871.458 iRoC 46.5
ODOM 7.900 4.540 0.771 2.000 0.000 0 1031745871.558 iRoC 46.6
ODOM 7.900 4.560 0.771 2.000 0.000 0 1031745871.658 iRoC 46.7
ODOM 7.920 4.560 0.771 2.000 0.000 0 1031745871.758 iRoC 46.8
ODOM 7.940 4.580 0.771 2.000 0.000 0 1031745871.858 iRoC 46.9
ODOM 7.940 4.600 0.771 2.000 0.000 0 1031745871.958 iRoC 47.0
ODOM 7.960 4.600 0.771 2.000 0.000 0 1031745872.058 iRoC 47.1
ODOM 7.980 4.620 0.771 2.000 0.000 0 1031745872.158 iRoC 47.2
ODOM 8.000 4.640 0.771 2.000 0.000 0 1031745872.258 iRoC 47.3
ODOM 8.000 4.640 0.771 2.000 0.000 0 1031745872.358 iRoC 47.4
ODOM 8.020 4.660 0.771 2.000 0.000 0 1031745872.458 iRoC 47.5
ODOM 8.040 4.680 0.771 2.000 0.000 0 1031745872.558 iRoC 47.6
ODOM 8.040 4.700 0.771 2.000 0.000 0 1031745872.658 iRoC 47.7
ODOM 8.060 4.700 0.771 2.000 0.000 0 1031745872.758 iRoC 47.8
ODOM 8.080 4.720 0.771 2.000 0.000 0 1031745872.858 iRoC 47.9
ODOM 8.100 4.740 0.771 2.000 0.000 0 1031745872.958 iRoC 48.0
ODOM 8.100 4.740 0.771 2.000 0.000 0 1031745873.058 iRoC 48.1
ODOM 8.120 4.760 0.771 2.000 0.000 0 1031745873.158 iRoC 48.2
ODOM 8.140 4.780 0.771 2.000 0.000 0 1031745873.258 iRoC 48.3
ODOM 8.160 4.780 0.771 2.000 0.000 0 1031745873.358 iRoC 48.4
ODOM 8.160 4.800 0.771 2.000 0.000 0 1031745873.458 iRoC 48.5
ODOM 8.180 4.820 0.771 2.000 0.000 0 1031745873.558 iRoC 48.6
ODOM 8.200 4.820 0.771 2.000 0.000 0 1031745873.658 iRoC 48.7
ODOM 8.200 4.840 0.771 2.000 0.000 0 1031745873.758 iRoC 48.8
ODOM 8.220 4.860 0.771 2.000 0.000 0 1031745873.858 iRoC 48.9
ODOM 8.240 4.880 0.771 2.000 0.000 0 1031745873.958 iRoC 49.0
ODOM 8.260 4.880 0.771 2.000 0.000 0 1031745874.058 iRoC 49.1
ODOM 8.260 4.900 0.771 2.000 0.000 0 1031745874.158 iRoC 49.2
ODOM 8.280 4.920 0.771 2.000 0.000 0 1031745874.258 iRoC 49.3
ODOM 8.300 4.920 0.771 2.000 0.000 0 1031745874.358 iRoC 49.4
ODOM 8.300 4.940 0.771 2.000 0.000 0 1031745874.458 iRoC 49.5
ODOM 8.320 4.960 0.771 2.000 0.000 0 1031745874.558 iRoC 49.6
ODOM 8.340 4.960 0.771 2.000 0.000 0 1031745874.658 iRoC 49.7
ODOM 8.360 4.980 0.771 2.000 0.000 0 1031745874.758 iRoC 49.8
ODOM 8.360 5.000 0.771 2.000 0.000 0 1031745874.858 iRoC 49.9
ODOM 8.380 5.020 0.771 2.000 0.000 0 1031745874.958 iRoC 50.0
ODOM 8.400 5.020 0.771 2.000 0.000 0 1031745875.058 iRoC 50.1
ODOM 8.400 5.040 0.771 2.000 0.000 0 1031745875.158 iRoC 50.2
ODOM 8.420 5.060 0.771 2.000 0.000 0 1031745875.258 iRoC 50.3
ODOM 8.440 5.060 0.771 2.000 0.000 0 1031745875.358 iRoC 50.4
ODOM 8.460 5.080 0.771 2.000 0.000 0 1031745875.458 iRoC 50.5
ODOM 8.460 5.100 0.771 2.000 0.000 0 1031745875.558 iRoC 50.6
ODOM 8.480 5.100 0.771 2.000 0.000 0 1031745875.658 iRoC 50.7
ODOM 8.500 5.120 0.771 2.000 0.000 0 1031745875.758 iRoC 50.8
ODOM 8.500 5.140 0.771 2.000 0.000 0 1031745875.858 iRoC 50.9
ODOM 8.520 5.140 0.771 2.000 0.000 0 1031745875.958 iRoC 51.0
ODOM 8.540 5.160 0.771 2.000 0.000 0 1031745876.058 iRoC 51.1
ODOM 8.560 5.180 0.771 2.000 0.000 0 1031745876.158 iRoC 51.2
ODOM 8.560 5.200 0.771 2.000 0.000 0 1031745876.258 iRoC 51.3
ODOM 8.580 5.200 0.771 2.000 0.000 0 1031745876.358 iRoC 51.4
ODOM 8.600 5.220 0.771 2.000 0.000 0 1031745876.458 iRoC 51.5
ODOM 8.600 5.240 0.771 2.000 0.000 0 1031745876.558 iRoC 51.6
ODOM 8.620 5.240 0.771 2.000 0.000 0 1031745876.658 iRoC 51.7
ODOM 8.640 5.260 0.771 2.000 0.000 0 1031745876.758 iRoC 51.8
ODOM 8.660 5.280 0.771 2.000 0.000 0 1031745876.858 iRoC 51.9
ODOM 8.660 5.280 0.771 2.000 0.000 0 1031745876.958 iRoC 52.0
ODOM 8.680 5.300 0.771 2.000 0.000 0 1031745877.058 iRoC 52.1
ODOM 8.700 5.320 0.771 2.000 0.000 0 1031745877.158 iRoC 52.2
ODOM 8.700 5.340 0.771 2.000 0.000 0 1031745877.258 iRoC 52.3
ODOM 8.720 5.340 0.771 2.000 0.000 0 1031745877.358 iRoC 52.4
ODOM 8.740 5.360 0.771 2.000 0.000 0 1031745877.458 iRoC 52.5
ODOM 8.760 5.380 0.771 2.000 0.000 0 1031745877.558 iRoC 52.6
ODOM 8.760 5.380 0.771 2.000 0.000 0 1031745877.658 iRoC 52.7
ODOM 8.780 5.400 0.771 2.000 0.000 0 1031745877.758 iRoC 52.8
ODOM 8.800 5.420 0.771 2.000 0.000 0 1031745877.858 iRoC 52.9
ODOM 8.820 5.420 0.771 2.000 0.000 0 1031745877.958 iRoC 53.0
ODOM 8.820 5.440 0.771 2.000 0.000 0 1031745878.058 iRoC 53.1
ODOM 8.840 5.460 0.771 2.000 0.000 0 1031745878.158 iRoC 53.2
ODOM 8.860 5.480 0.751 2.000 -2.000 0 1031745878.258 iRoC 53.3
ODOM 8.860 5.480 0.731 2.000 -2.000 0 1031745878.358 iRoC 53.4
ODOM 8.880 5.500 0.711 2.000 -2.000 0 1031745878.458 iRoC 53.5
ODOM 8.900 5.500 0.691 2.000 -2.000 0 1031745878.558 iRoC 53.6
ODOM 8.920 5.520 0.671 2.000 -2.000 0 1031745878.658 iRoC 53.7
ODOM 8.920 5.540 0.651 2.000 -2.000 0 1031745878.758 iRoC 53.8
ODOM 8.940 5.540 0.631 2.000 -2.000 0 1031745878.858 iRoC 53.9
ODOM 8.960 5.560 0.611 2.000 -2.000 0 1031745878.958 iRoC 54.0
ODOM 8.980 5.560 0.591 2.000 -2.000 0 1031745879.058 iRoC 54.1
ODOM 9.000 5.580 0.571 2.000 -2.000 0 1031745879.158 iRoC 54.2
ODOM 9.020 5.600 0.551 2.000 -2.000 0 1031745879.258 iRoC 54.3
ODOM 9.020 5.600 0.551 2.000 0.000 0 1031745879.358 iRoC 54.4
ODOM 9.040 5.620 0.551 2.000 0.000 0 1031745879.458 iRoC 54.5
ODOM 9.060 5.620 0.551 2.000 0.000 0 1031745879.558 iRoC 54.6
ODOM 9.080 5.640 0.551 2.000 0.000 0 1031745879.658 iRoC 54.7
ODOM 9.100 5.640 0.551 2.000 0.000 0 1031745879.758 iRoC 54.8
ODOM 9.120 5.660 0.551 2.000 0.000 0 1031745879.858 iRoC 54.9
ODOM 9.140 5.660 0.551 2.000 0.000 0 1031745879.958 iRoC 55.0
ODOM 9.140 5.680 0.551 2.000 0.000 0 1031745880.058 iRoC 55.1
ODOM 9.160 5.680 0.551 2.000 0.000 0 1031745880.158 iRoC 55.2
ODOM 9.180 5.700 0.551 2.000 0.000 0 1031745880.258 iRoC 55.3
ODOM 9.200 5.700 0.551 2.000 0.000 0 1031745880.358 iRoC 55.4
ODOM 9.220 5.720 0.551 2.000 0.000 0 1031745880.458 iRoC 55.5
ODOM 9.240 5.720 0.551 2.000 0.000 0 1031745880.558 iRoC 55.6
ODOM 9.260 5.740 0.551 2.000 0.000 0 1031745880.658 iRoC 55.7
ODOM 9.260 5.740 0.551 2.000 0.000 0 1031745880.758 iRoC 55.8
ODOM 9.280 5.760 0.551 2.000 0.000 0 1031745880.858 iRoC 55.9
ODOM 9.300 5.760 0.551 2.000 0.000 0 1031745880.958 iRoC 56.0
ODOM 9.320 5.780 0.551 2.000 0.000 0 1031745881.058 iRoC 56.1
ODOM 9.340 5.800 0.551 2.000 0.000 0 1031745881.158 iRoC 56.2
ODOM 9.360 5.800 0.551 2.000 0.000 0 1031745881.258 iRoC 56.3
ODOM 9.360 5.820 0.551 2.000 0.000 0 1031745881.358 iRoC 56.4
ODOM 9.380 5.820 0.531 2.000 -2.000 0 1031745881.458 iRoC 56.5
ODOM 9.400 5.840 0.511 2.000 -2.000 0 1031745881.558 iRoC 56.6
ODOM 9.420 5.840 0.491 2.000 -2.000 0 1031745881.658 iRoC 56.7
ODOM 9.440 5.860 0.471 2.000 -2.000 0 1031745881.758 iRoC 56.8
ODOM 9.460 5.860 0.451 2.000 -2.000 0 1031745881.858 iRoC 56.9
ODOM 9.480 5.860 0.431 2.000 -2.000 0 1031745881.958 iRoC 57.0
ODOM 9.500 5.880 0.411 2.000 -2.000 0 1031745882.058 iRoC 57.1
ODOM 9.520 5.880 0.391 2.000 -2.000 0 1031745882.158 iRoC 57.2
ODOM 9.540 5.900 0.371 2.000 -2.000 0 1031745882.258 iRoC 57.3
ODOM 9.540 5.900 0.351 2.000 -2.000 0 1031745882.358 iRoC 57.4
ODOM 9.560 5.900 0.351 2.000 0.000 0 1031745882.458 iRoC 57.5
ODOM 9.580 5.920 0.351 2.000 0.000 0 1031745882.558 iRoC 57.6
ODOM 9.600 5.920 0.351 2.000 0.000 0 1031745882.658 iRoC 57.7
ODOM 9.620 5.920 0.351 2.000 0.000 0 1031745882.758 iRoC 57.8
ODOM 9.640 5.940 0.351 2.000 0.000 0 1031745882.858 iRoC 57.9
ODOM 9.660 5.940 0.351 2.000 0.000 0 1031745882.958 iRoC 58.0
ODOM 9.680 5.940 0.351 2.000 0.000 0 1031745883.058 iRoC 58.1
ODOM 9.700 5.960 0.351 2.000 0.000 0 1031745883.158 iRoC 58.2
ODOM 9.720 5.960 0.351 2.000 0.000 0 1031745883.258 iRoC 58.3
ODOM 9.740 5.960 0.351 2.000 0.000 0 1031745883.358 iRoC 58.4
ODOM 9.760 5.980 0.351 2.000 0.000 0 1031745883.458 iRoC 58.5
ODOM 9.780 5.980 0.351 2.000 0.000 0 1031745883.558 iRoC 58.6
ODOM 9.800 5.980 0.351 2.000 0.000 0 1031745883.658 iRoC 58.7
ODOM 9.820 6.000 0.351 2.000 0.000 0 1031745883.758 iRoC 58.8
ODOM 9.840 6.000 0.351 2.000 0.000 0 1031745883.858 iRoC 58.9
ODOM 9.860 6.000 0.351 2.000 0.000 0 1031745883.958 iRoC 59.0
ODOM 9.860 6.020 0.351 2.000 0.000 0 1031745884.058 iRoC 59.1
ODOM 9.880 6.020 0.351 2.000 0.000 0 1031745884.158 iRoC 59.2
ODOM 9.900 6.020 0.331 2.000 -2.000 0 1031745884.258 iRoC 59.3
ODOM 9.920 6.040 0.311 2.000 -2.000 0 1031745884.358 iRoC 59.4
ODOM 9.940 6.040 0.291 2.000 -2.000 0 1031745884.458 iRoC 59.5
ODOM 9.960 6.040 0.271 2.000 -2.000 0 1031745884.558 iRoC 59.6
ODOM 9.980 6.060 0.251 2.000 -2.000 0 1031745884.658 iRoC 59.7
ODOM 10.000 6.060 0.231 2.000 -2.000 0 1031745884.758 iRoC 59.8
ODOM 10.020 6.060 0.211 2.000 -2.000 0 1031745884.858 iRoC 59.9
ODOM 10.040 6.060 0.191 2.000 -2.000 0 1031745884.958 iRoC 60.0
ODOM 10.060 6.060 0.171 2.000 -2.000 0 1031745885.058 iRoC 60.1
ODOM 10.080 6.080 0.151 2.000 -2.000 0 1031745885.158 iRoC 60.2
ODOM 10.100 6.080 0.131 2.000 -2.000 0 1031745885.258 iRoC 60.3
ODOM 10.120 6.080 0.111 2.000 -2.000 0 1031745885.358 iRoC 60.4
ODOM 10.140 6.080 0.091 2.000 -2.000 0 1031745885.458 iRoC 60.5
ODOM 10.160 6.080 0.071 2.000 -2.000 0 1031745885.558 iRoC 60.6
ODOM 10.180 6.080 0.051 2.000 -2.000 0 1031745885.658 iRoC 60.7
ODOM 10.200 6.080 0.031 2.000 -2.000 0 1031745885.758 iRoC 60.8
ODOM 10.220 6.080 0.031 2.000 0.000 0 1031745885.858 iRoC 60.9
ODOM 10.240 6.080 0.031 2.000 0.000 0 1031745885.958 iRoC 61.0
ODOM 10.260 6.080 0.031 2.000 0.000 0 1031745886.058 iRoC 61.1
ODOM 10.280 6.080 0.031 2.000 0.000 0 1031745886.158 iRoC 61.2
ODOM 10.300 6.080 0.031 2.000 0.000 0 1031745886.258 iRoC 61.3
ODOM 10.320 6.080 0.031 2.000 0.000 0 1031745886.358 iRoC 61.4
ODOM 10.340 6.080 0.031 2.000 0.000 0 1031745886.458 iRoC 61.5
ODOM 10.360 6.080 0.031 2.000 0.000 0 1031745886.558 iRoC 61.6
ODOM 10.380 6.080 0.031 2.000 0.000 0 1031745886.658 iRoC 61.7
ODOM 10.400 6.080 0.031 2.000 0.000 0 1031745886.758 iRoC 61.8
ODOM 10.420 6.080 0.031 2.000 0.000 0 1031745886.858 iRoC 61.9
ODOM 10.440 6.080 0.031 2.000 0.000 0 1031745886.958 iRoC 62.0
ODOM 10.460 6.100 0.031 2.000 0.000 0 1031745887.058 iRoC 62.1
ODOM 10.480 6.100 0.031 2.000 0.000 0 1031745887.158 iRoC 62.2
ODOM 10.500 6.100 0.031 2.000 0.000 0 1031745887.258 iRoC 62.3
ODOM 10.520 6.100 0.031 2.000 0.000 0 1031745887.358 iRoC 62.4
ODOM 10.540 6.100 0.031 2.000 0.000 0 1031745887.458 iRoC 62.5
ODOM 10.560 6.100 0.031 2.000 0.000 0 1031745887.558 iRoC 62.6
ODOM 10.580 6.100 0.031 2.000 0.000 0 1031745887.658 iRoC 62.7
ODOM 10.600 6.100 0.031 2.000 0.000 0 1031745887.758 iRoC 62.8
ODOM 10.620 6.100 0.031 2.000 0.000 0 1031745887.858 iRoC 62.9
ODOM 10.640 6.100 0.031 2.000 0.000 0 1031745887.958 iRoC 63.0
ODOM 10.660 6.100 0.031 2.000 0.000 0 1031745888.058 iRoC 63.1
ODOM 10.680 6.100 0.031 2.000 0.000 0 1031745888.158 iRoC 63.2
ODOM 10.700 6.100 0.031 2.000 0.000 0 1031745888.258 iRoC 63.3
ODOM 10.720 6.100 0.031 2.000 0.000 0 1031745888.358 iRoC 63.4
ODOM 10.740 6.100 0.031 2.000 0.000 0 1031745888.458 iRoC 63.5
ODOM 10.760 6.100 0.031 2.000 0.000 0 1031745888.558 iRoC 63.6
ODOM 10.780 6.100 0.031 2.000 0.000 0 1031745888.658 iRoC 63.7
ODOM 10.800 6.100 0.031 2.000 0.000 0 1031745888.758 iRoC 63.8
ODOM 10.820 6.100 0.031 2.000 0.000 0 1031745888.858 iRoC 63.9
ODOM 10.840 6.100 0.031 2.000 0.000 0 1031745888.958 iRoC 64.0
ODOM 10.860 6.100 0.031 2.000 0.000 0 1031745889.058 iRoC 64.1
ODOM 10.880 6.100 0.031 2.000 0.000 0 1031745889.158 iRoC 64.2
ODOM 10.900 6.100 0.031 2.000 0.000 0 1031745889.258 iRoC 64.3
ODOM 10.920 6.100 0.031 2.000 0.000 0 1031745889.358 iRoC 64.4
ODOM 10.940 6.100 0.031 2.000 0.000 0 1031745889.458 iRoC 64.5
ODOM 10.960 6.100 0.031 2.000 0.000 0 1031745889.558 iRoC 64.6
ODOM 10.980 6.100 0.031 2.000 0.000 0 1031745889.658 iRoC 64.7
ODOM 11.000 6.100 0.031 2.000 0.000 0 1031745889.758 iRoC 64.8
ODOM 11.020 6.100 0.031 2.000 0.000 0 1031745889.858 iRoC 64.9
ODOM 11.040 6.100 0.031 2.000 0.000 0 1031745889.958 iRoC 65.0
ODOM 11.060 6.100 0.031 2.000 0.000 0 1031745890.058 iRoC 65.1
ODOM 11.080 6.100 0.031 2.000 0.000 0 1031745890.158 iRoC 65.2
ODOM 11.100 6.100 0.031 2.000 0.000 0 1031745890.258 iRoC 65.3
ODOM 11.120 6.120 0.031 2.000 0.000 0 1031745890.358 iRoC 65.4
ODOM 11.140 6.120 0.031 2.000 0.000 0 1031745890.458 iRoC 65.5
ODOM 11.160 6.120 0.031 2.000 0.000 0 1031745890.558 iRoC 65.6
ODOM 11.180 6.120 0.031 2.000 0.000 0 1031745890.658 iRoC 65.7
ODOM 11.200 6.120 0.031 2.000 0.000 0 1031745890.758 iRoC 65.8
ODOM 11.220 6.120 0.031 2.000 0.000 0 1031745890.858 iRoC 65.9
ODOM 11.240 6.120 0.031 2.000 0.000 0 1031745890.958 iRoC 66.0
ODOM 11.260 6.120 0.031 2.000 0.000 0 1031745891.058 iRoC 66.1
ODOM 11.280 6.120 0.031 2.000 0.000 0 1031745891.158 iRoC 66.2
ODOM 11.300 6.120 0.031 2.000 0.000 0 1031745891.258 iRoC 66.3
ODOM 11.320 6.120 0.031 2.000 0.000 0 1031745891.358 iRoC 66.4
ODOM 11.340 6.120 0.031 2.000 0.000 0 1031745891.458 iRoC 66.5
ODOM 11.360 6.120 0.031 2.000 0.000 0 1031745891.558 iRoC 66.6
ODOM 11.380 6.120 0.031 2.000 0.000 0 1031745891.658 iRoC 66.7
ODOM 11.400 6.120 0.031 2.000 0.000 0 1031745891.758 iRoC 66.8
ODOM 11.420 6.120 0.031 2.000 0.000 0 1031745891.858 iRoC 66.9
ODOM 11.440 6.120 0.031 2.000 0.000 0 1031745891.958 iRoC 67.0
ODOM 11.460 6.120 0.031 2.000 0.000 0 1031745892.058 iRoC 67.1
ODOM 11.480 6.120 0.031 2.000 0.000 0 1031745892.158 iRoC 67.2
ODOM 11.500 6.120 0.031 2.000 0.000 0 1031745892.258 iRoC 67.3
ODOM 11.520 6.120 0.031 2.000 0.000 0 1031745892.358 iRoC 67.4
ODOM 11.540 6.120 0.031 2.000 0.000 0 1031745892.458 iRoC 67.5
ODOM 11.560 6.120 0.031 2.000 0.000 0 1031745892.558 iRoC 67.6
ODOM 11.580 6.120 0.031 2.000 0.000 0 1031745892.658 iRoC 67.7
ODOM 11.600 6.120 0.031 2.000 0.000 0 1031745892.758 iRoC 67.8
ODOM 11.620 6.120 0.031 2.000 0.000 0 1031745892.858 iRoC 67.9
ODOM 11.640 6.120 0.031 2.000 0.000 0 1031745892.958 iRoC 68.0
ODOM 11.660 6.120 0.031 2.000 0.000 0 1031745893.058 iRoC 68.1
ODOM 11.680 6.120 0.031 2.000 0.000 0 1031745893.158 iRoC 68.2
ODOM 11.700 6.120 0.031 2.000 0.000 0 1031745893.258 iRoC 68.3
ODOM 11.720 6.120 0.031 2.000 0.000 0 1031745893.358 iRoC 68.4
ODOM 11.740 6.120 0.031 2.000 0.000 0 1031745893.458 iRoC 68.5
ODOM 11.760 6.140 0.031 2.000 0.000 0 1031745893.558 iRoC 68.6
ODOM 11.780 6.140 0.031 2.000 0.000 0 1031745893.658 iRoC 68.7
ODOM 11.800 6.140 0.031 2.000 0.000 0 1031745893.758 iRoC 68.8
ODOM 11.820 6.140 0.031 2.000 0.000 0 1031745893.858 iRoC 68.9
ODOM 11.840 6.140 0.031 2.000 0.000 0 1031745893.958 iRoC 69.0
ODOM 11.860 6.140 0.031 2.000 0.000 0 1031745894.058 iRoC 69.1
ODOM 11.880 6.140 0.031 2.000 0.000 0 1031745894.158 iRoC 69.2
ODOM 11.900 6.140 0.031 2.000 0.000 0 1031745894.258 iRoC 69.3
ODOM 11.920 6.140 0.031 2.000 0.000 0 1031745894.358 iRoC 69.4
ODOM 11.940 6.140 0.031 2.000 0.000 0 1031745894.458 iRoC 69.5
ODOM 11.960 6.140 0.031 2.000 0.000 0 1031745894.558 iRoC 69.6
ODOM 11.980 6.140 0.031 2.000 0.000 0 1031745894.658 iRoC 69.7
ODOM 12.000 6.140 0.031 2.000 0.000 0 1031745894.758 iRoC 69.8
ODOM 12.020 6.140 0.031 2.000 0.000 0 1031745894.858 iRoC 69.9
ODOM 12.040 6.140 0.031 2.000 0.000 0 1031745894.958 iRoC 70.0
ODOM 12.060 6.140 0.031 2.000 0.000 0 1031745895.058 iRoC 70.1
ODOM 12.080 6.140 0.031 2.000 0.000 0 1031745895.158 iRoC 70.2
ODOM 12.100 6.140 0.031 2.000 0.000 0 1031745895.258 iRoC 70.3
ODOM 12.120 6.140 0.031 2.000 0.000 0 1031745895.358 iRoC 70.4
ODOM 12.140 6.140 0.031 2.000 0.000 0 1031745895.458 iRoC 70.5
ODOM 12.160 6.140 0.031 2.000 0.000 0 1031745895.558 iRoC 70.6
ODOM 12.180 6.140 0.031 2.000 0.000 0 1031745895.658 iRoC 70.7
ODOM 12.200 6.140 0.031 2.000 0.000 0 1031745895.758 iRoC 70.8
ODOM 12.220 6.140 0.031 2.000 0.000 0 1031745895.858 iRoC 70.9
ODOM 12.240 6.140 0.031 2.000 0.000 0 1031745895.958 iRoC 71.0
ODOM 12.260 6.140 0.031 2.000 0.000 0 1031745896.058 iRoC 71.1
ODOM 12.280 6.140 0.031 2.000 0.000 0 1031745896.158 iRoC 71.2
ODOM 12.300 6.140 0.031 2.000 0.000 0 1031745896.258 iRoC 71.3
ODOM 12.320 6.140 0.031 2.000 0.000 0 1031745896.358 iRoC 71.4
ODOM 12.340 6.140 0.031 2.000 0.000 0 1031745896.458 iRoC 71.5
ODOM 12.360 6.140 0.031 2.000 0.000 0 1031745896.558 iRoC 71.6
ODOM 12.380 6.140 0.031 2.000 0.000 0 1031745896.658 iRoC 71.7
ODOM 12.400 6.140 0.031 2.000 0.000 0 1031745896.758 iRoC 71.8
ODOM 12.420 6.160 0.031 2.000 0.000 0 1031745896.858 iRoC 71.9
ODOM 12.440 6.160 0.031 2.000 0.000 0 1031745896.958 iRoC 72.0
ODOM 12.460 6.160 0.011 2.000 -2.000 0 1031745897.058 iRoC 72.1
ODOM 12.480 6.160 -0.009 2.000 -2.000 0 1031745897.158 iRoC 72.2
ODOM 12.500 6.160 -0.029 2.000 -2.000 0 1031745897.258 iRoC 72.3
ODOM 12.520 6.160 -0.049 2.000 -2.000 0 1031745897.358 iRoC 72.4
ODOM 12.540 6.140 -0.069 2.000 -2.000 0 1031745897.458 iRoC 72.5
ODOM 12.560 6.140 -0.089 2.000 -2.000 0 1031745897.558 iRoC 72.6
ODOM 12.580 6.140 -0.109 2.000 -2.000 0 1031745897.658 iRoC 72.7
ODOM 12.600 6.140 -0.129 2.000 -2.000 0 1031745897.758 iRoC 72.8
ODOM 12.620 6.140 -0.129 2.000 0.000 0 1031745897.858 iRoC 72.9
ODOM 12.640 6.140 -0.129 2.000 0.000 0 1031745897.958 iRoC 73.0
ODOM 12.660 6.140 -0.129 2.000 0.000 0 1031745898.058 iRoC 73.1
ODOM 12.680 6.140 -0.129 2.000 0.000 0 1031745898.158 iRoC 73.2
ODOM 12.700 6.140 -0.129 2.000 0.000 0 1031745898.258 iRoC 73.3
ODOM 12.720 6.120 -0.129 2.000 0.000 0 1031745898.358 iRoC 73.4
ODOM 12.740 6.120 -0.129 2.000 0.000 0 1031745898.458 iRoC 73.5
ODOM 12.760 6.120 -0.129 2.000 0.000 0 1031745898.558 iRoC 73.6
ODOM 12.780 6.120 -0.129 2.000 0.000 0 1031745898.658 iRoC 73.7
ODOM 12.800 6.120 -0.129 2.000 0.000 0 1031745898.758 iRoC 73.8
ODOM 12.820 6.120 -0.129 2.000 0.000 0 1031745898.858 iRoC 73.9
ODOM 12.840 6.120 -0.129 2.000 0.000 0 1031745898.958 iRoC 74.0
ODOM 12.860 6.100 -0.129 2.000 0.000 0 1031745899.058 iRoC 74.1
ODOM 12.880 6.100 -0.129 2.000 0.000 0 1031745899.158 iRoC 74.2
ODOM 12.900 6.100 -0.129 2.000 0.000 0 1031745899.258 iRoC 74.3
ODOM 12.920 6.100 -0.129 2.000 0.000 0 1031745899.358 iRoC 74.4
ODOM 12.940 6.100 -0.129 2.000 0.000 0 1031745899.458 iRoC 74.5
ODOM 12.960 6.100 -0.129 2.000 0.000 0 1031745899.558 iRoC 74.6
ODOM 12.980 6.100 -0.129 2.000 0.000 0 1031745899.658 iRoC 74.7
ODOM 13.000 6.100 -0.129 2.000 0.000 0 1031745899.758 iRoC 74.8
ODOM 13.020 6.080 -0.129 2.000 0.000 0 1031745899.858 iRoC 74.9
ODOM 13.040 6.080 -0.129 2.000 0.000 0 1031745899.958 iRoC 75.0
ODOM 13.060 6.080 -0.129 2.000 0.000 0 1031745900.058 iRoC 75.1
ODOM 13.080 6.080 -0.129 2.000 0.000 0 1031745900.158 iRoC 75.2
ODOM 13.100 6.080 -0.129 2.000 0.000 0 1031745900.258 iRoC 75.3
ODOM 13.120 6.080 -0.129 2.000 0.000 0 1031745900.358 iRoC 75.4
ODOM 13.140 6.080 -0.129 2.000 0.000 0 1031745900.458 iRoC 75.5
ODOM 13.160 6.080 -0.129 2.000 0.000 0 1031745900.558 iRoC 75.6
ODOM 13.180 6.060 -0.129 2.000 0.000 0 1031745900.658 iRoC 75.7
ODOM 13.200 6.060 -0.129 2.000 0.000 0 1031745900.758 iRoC 75.8
ODOM 13.220 6.060 -0.129 2.000 0.000 0 1031745900.858 iRoC 75.9
ODOM 13.240 6.060 -0.129 2.000 0.000 0 1031745900.958 iRoC 76.0
ODOM 13.260 6.060 -0.129 2.000 0.000 0 1031745901.058 iRoC 76.1
ODOM 13.280 6.060 -0.129 2.000 0.000 0 1031745901.158 iRoC 76.2
ODOM 13.300 6.060 -0.129 2.000 0.000 0 1031745901.258 iRoC 76.3
ODOM 13.320 6.060 -0.129 2.000 0.000 0 1031745901.358 iRoC 76.4
ODOM 13.340 6.040 -0.129 2.000 0.000 0 1031745901.458 iRoC 76.5
ODOM 13.360 6.040 -0.129 2.000 0.000 0 1031745901.558 iRoC 76.6
ODOM 13.380 6.040 -0.129 2.000 0.000 0 1031745901.658 iRoC 76.7
ODOM 13.400 6.040 -0.129 2.000 0.000 0 1031745901.758 iRoC 76.8
ODOM 13.420 6.040 -0.129 2.000 0.000 0 1031745901.858 iRoC 76.9
ODOM 13.440 6.040 -0.129 2.000 0.000 0 1031745901.958 iRoC 77.0
ODOM 13.460 6.040 -0.129 2.000 0.000 0 1031745902.058 iRoC 77.1
ODOM 13.480 6.020 -0.129 2.000 0.000 0 1031745902.158 iRoC 77.2
ODOM 13.500 6.020 -0.109 2.000 2.000 0 1031745902.258 iRoC 77.3
ODOM 13.520 6.020 -0.089 2.000 2.000 0 1031745902.358 iRoC 77.4
ODOM 13.540 6.020 -0.069 2.000 2.000 0 1031745902.458 iRoC 77.5
ODOM 13.560 6.020 -0.069 2.000 0.000 0 1031745902.558 iRoC 77.6
ODOM 13.580 6.020 -0.069 2.000 0.000 0 1031745902.658 iRoC 77.7
ODOM 13.600 6.020 -0.069 2.000 0.000 0 1031745902.758 iRoC 77.8
ODOM 13.620 6.020 -0.069 2.000 0.000 0 1031745902.858 iRoC 77.9
ODOM 13.640 6.020 -0.069 2.000 0.000 0 1031745902.958 iRoC 78.0
ODOM 13.660 6.020 -0.069 2.000 0.000 0 1031745903.058 iRoC 78.1
ODOM 13.680 6.020 -0.069 2.000 0.000 0 1031745903.158 iRoC 78.2
ODOM 13.700 6.020 -0.069 2.000 0.000 0 1031745903.258 iRoC 78.3
ODOM 13.720 6.020 -0.069 2.000 0.000 0 1031745903.358 iRoC 78.4
ODOM 13.740 6.020 -0.069 2.000 0.000 0 1031745903.458 iRoC 78.5
ODOM 13.760 6.000 -0.069 2.000 0.000 0 1031745903.558 iRoC 78.6
ODOM 13.780 6.000 -0.069 2.000 0.000 0 1031745903.658 iRoC 78.7
ODOM 13.800 6.000 -0.069 2.000 0.000 0 1031745903.758 iRoC 78.8
ODOM 13.820 6.000 -0.069 2.000 0.000 0 1031745903.858 iRoC 78.9
ODOM 13.840 6.000 -0.069 2.000 0.000 0 1031745903.958 iRoC 79.0
ODOM 13.860 6.000 -0.069 2.000 0.000 0 1031745904.058 iRoC 79.1
ODOM 13.880 6.000 -0.069 2.000 0.000 0 1031745904.158 iRoC 79.2
ODOM 13.900 6.000 -0.069 2.000 0.000 0 1031745904.258 iRoC 79.3
ODOM 13.920 6.000 -0.069 2.000 0.000 0 1031745904.358 iRoC 79.4
ODOM 13.940 6.000 -0.069 2.000 0.000 0 1031745904.458 iRoC 79.5
ODOM 13.960 6.000 -0.069 2.000 0.000 0 1031745904.558 iRoC 79.6
ODOM 13.980 6.000 -0.069 2.000 0.000 0 1031745904.658 iRoC 79.7
ODOM 14.000 6.000 -0.069 2.000 0.000 0 1031745904.758 iRoC 79.8
ODOM 14.020 6.000 -0.069 2.000 0.000 0 1031745904.858 iRoC 79.9
ODOM 14.040 5.980 -0.069 2.000 0.000 0 1031745904.958 iRoC 80.0
ODOM 14.060 5.980 -0.069 2.000 0.000 0 1031745905.058 iRoC 80.1
ODOM 14.080 5.980 -0.069 2.000 0.000 0 1031745905.158 iRoC 80.2
ODOM 14.100 5.980 -0.069 2.000 0.000 0 1031745905.258 iRoC 80.3
ODOM 14.120 5.980 -0.069 2.000 0.000 0 1031745905.358 iRoC 80.4
ODOM 14.140 5.980 -0.069 2.000 0.000 0 1031745905.458 iRoC 80.5
ODOM 14.160 5.980 -0.069 2.000 0.000 0 1031745905.558 iRoC 80.6
ODOM 14.160 5.980 -0.069 2.000 0.000 0 1031745905.658 iRoC 80.7
ODOM 14.180 5.980 -0.069 2.000 0.000 0 1031745905.758 iRoC 80.8
ODOM 14.200 5.980 -0.069 2.000 0.000 0 1031745905.858 iRoC 80.9
ODOM 14.220 5.980 -0.069 2.000 0.000 0 1031745905.958 iRoC 81.0
ODOM 14.240 5.980 -0.069 2.000 0.000 0 1031745906.058 iRoC 81.1
ODOM 14.260 5.980 -0.069 2.000 0.000 0 1031745906.158 iRoC 81.2
ODOM 14.280 5.980 -0.069 2.000 0.000 0 1031745906.258 iRoC 81.3
ODOM 14.300 5.960 -0.069 2.000 0.000 0 1031745906.358 iRoC 81.4
ODOM 14.320 5.960 -0.069 2.000 0.000 0 1031745906.458 iRoC 81.5
ODOM 14.340 5.960 -0.069 2.000 0.000 0 1031745906.558 iRoC 81.6
ODOM 14.360 5.960 -0.069 2.000 0.000 0 1031745906.658 iRoC 81.7
ODOM 14.380 5.960 -0.069 2.000 0.000 0 1031745906.758 iRoC 81.8
ODOM 14.400 5.960 -0.069 2.000 0.000 0 1031745906.858 iRoC 81.9
ODOM 14.420 5.960 -0.069 2.000 0.000 0 1031745906.958 iRoC 82.0
ODOM 14.440 5.960 -0.069 2.000 0.000 0 1031745907.058 iRoC 82.1
ODOM 14.460 5.960 -0.069 2.000 0.000 0 1031745907.158 iRoC 82.2
ODOM 14.480 5.960 -0.069 2.000 0.000 0 1031745907.258 iRoC 82.3
ODOM 14.500 5.960 -0.069 2.000 0.000 0 1031745907.358 iRoC 82.4
ODOM 14.520 5.960 -0.069 2.000 0.000 0 1031745907.458 iRoC 82.5
ODOM 14.540 5.960 -0.069 2.000 0.000 0 1031745907.558 iRoC 82.6
ODOM 14.560 5.960 -0.069 2.000 0.000 0 1031745907.658 iRoC 82.7
ODOM 14.580 5.960 -0.069 2.000 0.000 0 1031745907.758 iRoC 82.8
ODOM 14.600 5.940 -0.069 2.000 0.000 0 1031745907.858 iRoC 82.9
ODOM 14.620 5.940 -0.069 2.000 0.000 0 1031745907.958 iRoC 83.0
ODOM 14.640 5.940 -0.069 2.000 0.000 0 1031745908.058 iRoC 83.1
ODOM 14.660 5.940 -0.069 2.000 0.000 0 1031745908.158 iRoC 83.2
ODOM 14.680 5.940 -0.069 2.000 0.000 0 1031745908.258 iRoC 83.3
ODOM 14.700 5.940 -0.069 2.000 0.000 0 1031745908.358 iRoC 83.4
ODOM 14.720 5.940 -0.049 2.000 2.000 0 1031745908.458 iRoC 83.5
ODOM 14.740 5.940 -0.029 2.000 2.000 0 1031745908.558 iRoC 83.6
ODOM 14.760 5.940 -0.009 2.000 2.000 0 1031745908.658 iRoC 83.7
ODOM 14.780 5.940 0.011 2.000 2.000 0 1031745908.758 iRoC 83.8
ODOM 14.800 5.940 0.011 2.000 0.000 0 1031745908.858 iRoC 83.9
ODOM 14.820 5.940 0.011 2.000 0.000 0 1031745908.958 iRoC 84.0
ODOM 14.840 5.940 0.011 2.000 0.000 0 1031745909.058 iRoC 84.1
ODOM 14.860 5.940 0.011 2.000 0.000 0 1031745909.158 iRoC 84.2
ODOM 14.880 5.940 0.011 2.000 0.000 0 1031745909.258 iRoC 84.3
ODOM 14.900 5.940 0.011 2.000 0.000 0 1031745909.358 iRoC 84.4
ODOM 14.920 5.940 0.011 2.000 0.000 0 1031745909.458 iRoC 84.5
ODOM 14.940 5.940 0.011 2.000 0.000 0 1031745909.558 iRoC 84.6
ODOM 14.960 5.940 0.011 2.000 0.000 0 1031745909.658 iRoC 84.7
ODOM 14.980 5.940 0.011 2.000 0.000 0 1031745909.758 iRoC 84.8
ODOM 15.000 5.940 0.011 2.000 0.000 0 1031745909.858 iRoC 84.9
ODOM 15.020 5.940 0.011 2.000 0.000 0 1031745909.958 iRoC 85.0
ODOM 15.040 5.940 0.011 2.000 0.000 0 1031745910.058 iRoC 85.1
ODOM 15.060 5.940 0.011 2.000 0.000 0 1031745910.158 iRoC 85.2
ODOM 15.080 5.940 0.011 2.000 0.000 0 1031745910.258 iRoC 85.3
ODOM 15.100 5.940 0.011 2.000 0.000 0 1031745910.358 iRoC 85.4
ODOM 15.120 5.940 0.011 2.000 0.000 0 1031745910.458 iRoC 85.5
ODOM 15.140 5.940 0.011 2.000 0.000 0 1031745910.558 iRoC 85.6
ODOM 15.160 5.940 0.011 2.000 0.000 0 1031745910.658 iRoC 85.7
ODOM 15.180 5.940 0.011 2.000 0.000 0 1031745910.758 iRoC 85.8
ODOM 15.200 5.940 0.011 2.000 0.000 0 1031745910.858 iRoC 85.9
ODOM 15.220 5.940 0.011 2.000 0.000 0 1031745910.958 iRoC 86.0
ODOM 15.240 5.940 0.011 2.000 0.000 0 1031745911.058 iRoC 86.1
ODOM 15.260 5.940 0.011 2.000 0.000 0 1031745911.158 iRoC 86.2
ODOM 15.280 5.940 0.011 2.000 0.000 0 1031745911.258 iRoC 86.3
ODOM 15.300 5.940 0.011 2.000 0.000 0 1031745911.358 iRoC 86.4
ODOM 15.320 5.940 0.011 2.000 0.000 0 1031745911.458 iRoC 86.5
ODOM 15.340 5.940 0.011 2.000 0.000 0 1031745911.558 iRoC 86.6
ODOM 15.360 5.940 0.011 2.000 0.000 0 1031745911.658 iRoC 86.7
ODOM 15.380 5.940 0.011 2.000 0.000 0 1031745911.758 iRoC 86.8
ODOM 15.400 5.940 0.011 2.000 0.000 0 1031745911.858 iRoC 86.9
ODOM 15.420 5.940 0.011 2.000 0.000 0 1031745911.958 iRoC 87.0
ODOM 15.440 5.940 0.011 2.000 0.000 0 1031745912.058 iRoC 87.1
ODOM 15.460 5.940 0.011 2.000 0.000 0 1031745912.158 iRoC 87.2
ODOM 15.480 5.940 0.011 2.000 0.000 0 1031745912.258 iRoC 87.3
ODOM 15.500 5.940 0.011 2.000 0.000 0 1031745912.358 iRoC 87.4
ODOM 15.520 5.940 0.011 2.000 0.000 0 1031745912.458 iRoC 87.5
ODOM 15.540 5.940 0.031 2.000 2.000 0 1031745912.558 iRoC 87.6
ODOM 15.560 5.940 0.051 2.000 2.000 0 1031745912.658 iRoC 87.7
ODOM 15.580 5.960 0.071 2.000 2.000 0 1031745912.758 iRoC 87.8
ODOM 15.600 5.960 0.091 2.000 2.000 0 1031745912.858 iRoC 87.9
ODOM 15.620 5.960 0.111 2.000 2.000 0 1031745912.958 iRoC 88.0
ODOM 15.640 5.960 0.131 2.000 2.000 0 1031745913.058 iRoC 88.1
ODOM 15.660 5.960 0.151 2.000 2.000 0 1031745913.158 iRoC 88.2
ODOM 15.680 5.960 0.171 2.000 2.000 0 1031745913.258 iRoC 88.3
ODOM 15.700 5.960 0.191 2.000 2.000 0 1031745913.358 iRoC 88.4
ODOM 15.720 5.980 0.211 2.000 2.000 0 1031745913.458 iRoC 88.5
ODOM 15.740 5.980 0.231 2.000 2.000 0 1031745913.558 iRoC 88.6
ODOM 15.760 5.980 0.231 2.000 0.000 0 1031745913.658 iRoC 88.7
ODOM 15.780 5.980 0.231 2.000 0.000 0 1031745913.758 iRoC 88.8
ODOM 15.800 5.980 0.231 2.000 0.000 0 1031745913.858 iRoC 88.9
ODOM 15.820 6.000 0.231 2.000 0.000 0 1031745913.958 iRoC 89.0
ODOM 15.840 6.000 0.231 2.000 0.000 0 1031745914.058 iRoC 89.1
ODOM 15.860 6.000 0.231 2.000 0.000 0 1031745914.158 iRoC 89.2
ODOM 15.880 6.000 0.231 2.000 0.000 0 1031745914.258 iRoC 89.3
ODOM 15.900 6.020 0.231 2.000 0.000 0 1031745914.358 iRoC 89.4
ODOM 15.920 6.020 0.231 2.000 0.000 0 1031745914.458 iRoC 89.5
ODOM 15.940 6.020 0.231 2.000 0.000 0 1031745914.558 iRoC 89.6
ODOM 15.960 6.020 0.231 2.000 0.000 0 1031745914.658 iRoC 89.7
ODOM 15.980 6.020 0.231 2.000 0.000 0 1031745914.758 iRoC 89.8
ODOM 16.000 6.040 0.231 2.000 0.000 0 1031745914.858 iRoC 89.9
ODOM 16.020 6.040 0.231 2.000 0.000 0 1031745914.958 iRoC 90.0
ODOM 16.040 6.040 0.231 2.000 0.000 0 1031745915.058 iRoC 90.1
ODOM 16.060 6.040 0.231 2.000 0.000 0 1031745915.158 iRoC 90.2
ODOM 16.080 6.060 0.231 2.000 0.000 0 1031745915.258 iRoC 90.3
ODOM 16.100 6.060 0.231 2.000 0.000 0 1031745915.358 iRoC 90.4
ODOM 16.120 6.060 0.231 2.000 0.000 0 1031745915.458 iRoC 90.5
ODOM 16.140 6.060 0.231 2.000 0.000 0 1031745915.558 iRoC 90.6
ODOM 16.160 6.080 0.231 2.000 0.000 0 1031745915.658 iRoC 90.7
ODOM 16.180 6.080 0.231 2.000 0.000 0 1031745915.758 iRoC 90.8
ODOM 16.200 6.080 0.231 2.000 0.000 0 1031745915.858 iRoC 90.9
ODOM 16.220 6.080 0.231 2.000 0.000 0 1031745915.958 iRoC 91.0
ODOM 16.240 6.080 0.231 2.000 0.000 0 1031745916.058 iRoC 91.1
ODOM 16.260 6.100 0.231 2.000 0.000 0 1031745916.158 iRoC 91.2
ODOM 16.280 6.100 0.231 2.000 0.000 0 1031745916.258 iRoC 91.3
ODOM 16.300 6.100 0.231 2.000 0.000 0 1031745916.358 iRoC 91.4
ODOM 16.320 6.100 0.231 2.000 0.000 0 1031745916.458 iRoC 91.5
ODOM 16.340 6.120 0.231 2.000 0.000 0 1031745916.558 iRoC 91.6
ODOM 16.360 6.120 0.231 2.000 0.000 0 1031745916.658 iRoC 91.7
ODOM 16.360 6.120 0.231 2.000 0.000 0 1031745916.758 iRoC 91.8
ODOM 16.380 6.120 0.231 2.000 0.000 0 1031745916.858 iRoC 91.9
ODOM 16.400 6.120 0.231 2.000 0.000 0 1031745916.958 iRoC 92.0
ODOM 16.420 6.140 0.231 2.000 0.000 0 1031745917.058 iRoC 92.1
ODOM 16.440 6.140 0.231 2.000 0.000 0 1031745917.158 iRoC 92.2
ODOM 16.460 6.140 0.231 2.000 0.000 0 1031745917.258 iRoC 92.3
ODOM 16.480 6.140 0.231 2.000 0.000 0 1031745917.358 iRoC 92.4
ODOM 16.500 6.160 0.231 2.000 0.000 0 1031745917.458 iRoC 92.5
ODOM 16.520 6.160 0.231 2.000 0.000 0 1031745917.558 iRoC 92.6
ODOM 16.540 6.160 0.231 2.000 0.000 0 1031745917.658 iRoC 92.7
ODOM 16.560 6.160 0.211 2.000 -2.000 0 1031745917.758 iRoC 92.8
ODOM 16.580 6.180 0.191 2.000 -2.000 0 1031745917.858 iRoC 92.9
ODOM 16.600 6.180 0.171 2.000 -2.000 0 1031745917.958 iRoC 93.0
ODOM 16.620 6.180 0.151 2.000 -2.000 0 1031745918.058 iRoC 93.1
ODOM 16.640 6.180 0.131 2.000 -2.000 0 1031745918.158 iRoC 93.2
ODOM 16.660 6.180 0.111 2.000 -2.000 0 1031745918.258 iRoC 93.3
ODOM 16.680 6.180 0.091 2.000 -2.000 0 1031745918.358 iRoC 93.4
ODOM 16.700 6.180 0.091 2.000 0.000 0 1031745918.458 iRoC 93.5
ODOM 16.720 6.180 0.091 2.000 0.000 0 1031745918.558 iRoC 93.6
ODOM 16.740 6.180 0.091 2.000 0.000 0 1031745918.658 iRoC 93.7
ODOM 16.760 6.200 0.091 2.000 0.000 0 1031745918.758 iRoC 93.8
ODOM 16.780 6.200 0.091 2.000 0.000 0 1031745918.858 iRoC 93.9
ODOM 16.800 6.200 0.091 2.000 0.000 0 1031745918.958 iRoC 94.0
ODOM 16.820 6.200 0.091 2.000 0.000 0 1031745919.058 iRoC 94.1
ODOM 16.840 6.200 0.091 2.000 0.000 0 1031745919.158 iRoC 94.2
ODOM 16.860 6.200 0.091 2.000 0.000 0 1031745919.258 iRoC 94.3
ODOM 16.880 6.200 0.091 2.000 0.000 0 1031745919.358 iRoC 94.4
ODOM 16.900 6.200 0.091 2.000 0.000 0 1031745919.458 iRoC 94.5
ODOM 16.920 6.200 0.091 2.000 0.000 0 1031745919.558 iRoC 94.6
ODOM 16.940 6.200 0.091 2.000 0.000 0 1031745919.658 iRoC 94.7
ODOM 16.960 6.200 0.091 2.000 0.000 0 1031745919.758 iRoC 94.8
ODOM 16.980 6.220 0.091 2.000 0.000 0 1031745919.858 iRoC 94.9
ODOM 17.000 6.220 0.091 2.000 0.000 0 1031745919.958 iRoC 95.0
ODOM 17.020 6.220 0.091 2.000 0.000 0 1031745920.058 iRoC 95.1
ODOM 17.040 6.220 0.091 2.000 0.000 0 1031745920.158 iRoC 95.2
ODOM 17.060 6.220 0.091 2.000 0.000 0 1031745920.258 iRoC 95.3
ODOM 17.080 6.220 0.091 2.000 0.000 0 1031745920.358 iRoC 95.4
ODOM 17.100 6.220 0.091 2.000 0.000 0 1031745920.458 iRoC 95.5
