ODOM 5.019 5.000 0.000000 0.191 0.000 0  iB21 0.000
FLASER 180 1.940 2.149 2.028 1.959 1.945 1.864 1.953 1.989 2.068 2.033 2.036 2.001 1.981 1.950 1.993 2.051 1.930 1.949 1.933 1.921 2.018 1.937 2.139 1.968 1.933 1.846 2.008 1.952 1.964 1.966 2.017 1.998 1.951 1.864 1.926 1.905 1.854 1.881 1.955 1.917 1.960 1.873 1.850 1.964 1.980 1.912 1.888 1.847 1.730 1.785 1.908 1.820 1.750 1.781 1.732 1.719 1.732 1.770 1.683 1.648 1.763 1.755 1.682 1.729 1.662 1.691 1.802 1.714 1.707 1.733 1.581 1.701 1.659 1.670 1.681 1.627 1.634 1.656 1.635 1.585 1.651 1.564 1.627 1.560 1.619 1.525 1.599 1.536 1.531 1.533 1.450 1.411 1.501 1.481 1.365 1.455 1.451 1.393 1.466 1.368 1.455 1.465 1.363 1.289 1.394 1.371 1.275 1.339 1.318 1.262 1.356 1.271 1.362 1.274 1.289 1.204 1.320 1.292 1.200 1.229 1.243 1.269 1.230 1.194 1.258 1.168 1.204 1.206 1.266 1.233 1.207 1.153 1.200 1.126 1.111 1.103 1.084 1.168 1.151 1.109 1.097 1.091 1.142 1.203 1.164 1.170 1.058 1.077 1.064 1.089 1.069 1.022 1.102 1.128 0.958 0.970 0.954 0.984 1.064 0.976 1.047 1.001 1.021 1.062 1.032 1.094 1.033 0.989 1.023 1.109 0.954 0.996 1.036 0.944 0.963 1.012 0.967 1.014 1.066 1.000 5.019 5.000 0.000000 5.019 5.000 0.000000 1031745824.978 iB21 0.020
ODOM 5.039 5.000 0.001987 0.202 0.020 0 1031745825.058 iB21 0.100
FLASER 180 1.964 1.975 1.959 1.955 1.931 1.949 1.971 1.985 2.001 1.969 2.077 1.997 2.000 1.976 2.065 1.897 1.988 1.892 2.011 1.989 2.001 1.936 1.891 2.018 1.982 1.951 1.922 1.941 2.044 1.919 1.896 1.870 1.884 1.978 1.974 1.972 1.910 1.907 1.860 1.887 1.857 1.917 1.767 1.803 1.928 1.888 1.909 1.795 1.841 1.844 1.844 1.733 1.771 1.778 1.754 1.881 1.721 1.806 1.803 1.814 1.713 1.796 1.746 1.711 1.628 1.701 1.655 1.751 1.679 1.680 1.657 1.677 1.658 1.621 1.604 1.694 1.512 1.693 1.506 1.585 1.586 1.608 1.645 1.563 1.547 1.588 1.371 1.549 1.478 1.396 1.471 1.397 1.489 1.535 1.411 1.405 1.444 1.390 1.479 1.426 1.364 1.437 1.401 1.383 1.339 1.315 1.358 1.314 1.396 1.398 1.303 1.355 1.295 1.284 1.326 1.385 1.303 1.230 1.271 1.288 1.246 1.326 1.194 1.178 1.266 1.180 1.217 1.302 1.240 1.281 1.120 1.143 1.147 1.203 1.167 1.169 1.122 1.135 1.131 1.246 1.109 1.104 1.175 1.078 1.098 1.133 1.025 1.012 1.114 1.214 1.039 1.097 1.052 1.102 1.051 1.035 1.069 1.066 1.067 0.998 0.984 1.039 0.926 0.998 1.106 1.003 1.009 0.998 1.071 0.906 0.943 1.090 1.068 1.005 0.992 1.033 1.061 1.039 1.037 1.074 5.039 5.000 0.001987 5.039 5.000 0.001987 1031745825.078 iB21 0.120
ODOM 5.062 5.000 0.005881 0.227 0.039 0 1031745825.158 iB21 0.200
FLASER 180 1.982 1.882 2.048 1.992 1.977 1.986 1.965 1.967 1.973 1.926 1.886 1.997 2.049 1.997 2.087 1.891 2.008 1.980 1.944 1.885 2.000 2.078 1.976 1.996 1.966 1.856 1.975 2.071 1.946 1.864 1.834 1.900 1.967 1.962 1.936 1.844 1.950 1.908 1.915 1.962 1.947 1.860 1.860 1.818 1.875 1.877 1.933 1.800 1.818 1.822 1.794 1.804 1.885 1.832 1.754 1.824 1.736 1.789 1.653 1.744 1.780 1.801 1.702 1.755 1.757 1.681 1.659 1.658 1.640 1.677 1.763 1.630 1.735 1.616 1.573 1.599 1.650 1.622 1.625 1.652 1.596 1.592 1.503 1.589 1.585 1.529 1.503 1.515 1.606 1.499 1.590 1.554 1.465 1.447 1.411 1.404 1.367 1.445 1.446 1.423 1.409 1.418 1.289 1.317 1.305 1.410 1.361 1.334 1.326 1.385 1.372 1.292 1.329 1.379 1.237 1.382 1.302 1.262 1.214 1.324 1.344 1.245 1.169 1.219 1.254 1.214 1.251 1.143 1.194 1.168 1.145 1.156 1.203 1.161 1.177 1.093 1.065 1.091 1.102 1.254 1.114 1.115 1.075 1.151 1.030 0.989 1.119 0.993 1.055 1.045 1.127 1.026 1.092 1.122 1.019 1.030 1.060 1.126 1.107 0.970 1.053 0.959 1.042 0.966 0.992 1.052 1.053 0.891 1.012 1.015 1.025 1.039 0.946 1.070 0.979 1.105 0.992 0.961 0.985 0.988 5.062 5.000 0.005881 5.062 5.000 0.005881 1031745825.178 iB21 0.220
ODOM 5.082 5.000 0.011527 0.197 0.056 0 1031745825.258 iB21 0.300
FLASER 180 2.039 1.948 2.051 2.019 2.033 2.046 2.046 1.950 1.987 1.998 2.021 1.916 1.988 2.015 1.954 1.972 1.979 2.046 1.927 1.961 1.964 2.008 1.941 1.911 1.911 1.966 1.926 2.019 1.983 1.941 1.974 1.996 1.856 1.933 1.908 1.897 1.952 1.859 1.914 1.878 1.903 1.879 1.919 1.862 1.858 1.895 1.794 1.924 1.860 1.887 1.816 1.844 1.761 1.810 1.687 1.621 1.715 1.769 1.789 1.685 1.715 1.779 1.742 1.738 1.763 1.754 1.693 1.713 1.700 1.630 1.699 1.708 1.652 1.596 1.616 1.667 1.607 1.606 1.581 1.535 1.684 1.578 1.523 1.545 1.480 1.542 1.404 1.554 1.500 1.479 1.565 1.481 1.419 1.522 1.476 1.542 1.470 1.472 1.396 1.432 1.345 1.306 1.387 1.326 1.342 1.350 1.351 1.393 1.286 1.311 1.371 1.382 1.384 1.357 1.349 1.312 1.328 1.249 1.263 1.236 1.199 1.188 1.172 1.162 1.242 1.116 1.151 1.273 1.279 1.245 1.177 1.226 1.167 1.182 1.087 1.199 1.174 1.161 1.116 1.103 1.146 1.208 1.107 1.110 1.074 1.128 1.069 1.079 1.028 1.030 1.060 1.104 1.046 0.984 1.067 1.099 1.142 1.076 1.082 1.028 1.069 0.988 1.002 1.014 1.125 1.018 0.984 1.031 0.972 0.981 0.980 0.975 1.042 0.998 1.046 0.983 1.034 1.032 0.966 1.020 5.082 5.000 0.011527 5.082 5.000 0.011527 1031745825.278 iB21 0.320
ODOM 5.101 5.000 0.018701 0.189 0.072 0 1031745825.358 iB21 0.400
FLASER 180 2.006 1.952 2.134 1.953 2.047 1.932 1.991 2.028 2.024 2.113 1.950 1.957 2.048 2.021 1.987 1.974 1.964 2.005 2.046 1.991 1.976 1.975 1.976 1.943 1.876 1.941 1.946 2.005 2.034 1.865 1.868 1.933 2.044 1.906 1.955 1.857 1.831 1.808 2.017 1.925 1.924 1.804 1.885 1.838 1.902 1.859 1.809 1.798 1.820 1.902 1.836 1.778 1.857 1.745 1.841 1.651 1.789 1.739 1.771 1.782 1.755 1.677 1.792 1.835 1.648 1.655 1.706 1.721 1.707 1.687 1.655 1.601 1.729 1.553 1.601 1.660 1.618 1.610 1.577 1.591 1.606 1.557 1.635 1.583 1.531 1.583 1.513 1.506 1.513 1.585 1.559 1.547 1.545 1.444 1.347 1.460 1.405 1.416 1.421 1.415 1.475 1.372 1.362 1.458 1.388 1.358 1.378 1.430 1.328 1.307 1.401 1.315 1.319 1.258 1.240 1.404 1.228 1.280 1.199 1.267 1.273 1.158 1.256 1.249 1.184 1.271 1.296 1.208 1.134 1.185 1.220 1.181 1.065 1.146 1.198 1.210 1.149 1.195 1.133 1.116 1.169 1.204 1.053 1.129 1.161 1.046 1.098 1.109 1.100 1.011 1.047 1.073 1.054 0.958 0.956 0.983 1.018 1.023 1.003 1.070 1.066 1.011 1.098 1.022 1.074 1.005 1.089 1.028 1.015 1.077 1.032 0.954 0.967 0.999 1.048 0.991 0.952 1.001 1.146 0.960 5.101 5.000 0.018701 5.101 5.000 0.018701 1031745825.378 iB21 0.420
ODOM 5.118 5.001 0.027116 0.177 0.084 0 1031745825.458 iB21 0.500
FLASER 180 1.937 1.991 1.990 1.984 2.040 1.971 1.962 1.924 1.941 2.030 2.035 2.041 1.990 1.951 2.051 1.932 1.930 1.948 1.972 1.970 2.007 1.991 1.994 1.892 1.995 1.953 1.952 1.946 1.878 1.951 2.006 1.854 1.869 1.995 1.986 1.957 1.844 1.869 1.820 1.813 1.884 1.944 1.892 1.863 1.814 1.903 1.950 1.856 1.838 1.787 1.808 1.853 1.776 1.855 1.806 1.758 1.784 1.689 1.789 1.792 1.732 1.825 1.732 1.665 1.700 1.739 1.634 1.703 1.681 1.759 1.610 1.676 1.660 1.697 1.708 1.651 1.514 1.698 1.457 1.538 1.532 1.575 1.494 1.617 1.556 1.568 1.547 1.478 1.550 1.533 1.527 1.495 1.554 1.385 1.410 1.472 1.463 1.520 1.408 1.399 1.310 1.343 1.437 1.448 1.316 1.437 1.325 1.349 1.330 1.437 1.336 1.340 1.295 1.365 1.365 1.279 1.224 1.278 1.267 1.259 1.251 1.211 1.211 1.329 1.175 1.252 1.197 1.206 1.283 1.208 1.209 1.175 1.147 1.115 1.071 1.153 1.208 1.184 1.182 1.113 1.169 1.159 1.148 1.108 1.103 1.051 1.093 1.077 1.115 1.037 1.068 1.127 1.101 1.026 1.050 1.045 0.985 1.087 1.046 0.976 1.019 0.974 1.037 1.010 0.992 0.967 0.967 0.887 0.984 1.052 0.987 0.995 0.925 1.085 1.018 1.013 1.015 0.992 1.020 0.975 5.118 5.001 0.027116 5.118 5.001 0.027116 1031745825.478 iB21 0.520
ODOM 5.135 5.001 0.036436 0.171 0.093 0 1031745825.558 iB21 0.600
FLASER 180 2.084 1.989 1.875 2.013 1.971 2.039 2.017 1.993 2.004 2.090 1.981 1.968 1.951 2.016 2.032 2.109 2.031 1.988 2.003 1.895 1.899 1.894 1.953 2.018 1.945 2.008 2.030 1.927 1.965 1.904 1.888 1.904 1.973 1.928 1.960 1.895 1.917 1.916 1.908 1.903 1.882 1.898 1.898 1.839 1.876 1.785 1.791 1.794 1.917 1.760 1.932 1.872 1.819 1.858 1.795 1.811 1.887 1.839 1.751 1.652 1.728 1.725 1.642 1.671 1.657 1.788 1.655 1.626 1.743 1.718 1.683 1.702 1.681 1.648 1.599 1.592 1.623 1.551 1.577 1.619 1.580 1.541 1.553 1.431 1.548 1.560 1.499 1.559 1.447 1.487 1.506 1.500 1.497 1.468 1.429 1.571 1.386 1.438 1.525 1.394 1.374 1.396 1.470 1.339 1.398 1.306 1.385 1.321 1.271 1.255 1.356 1.295 1.317 1.312 1.456 1.287 1.363 1.317 1.310 1.342 1.213 1.216 1.188 1.207 1.230 1.255 1.291 1.176 1.120 1.129 1.135 1.268 1.088 1.171 1.188 1.333 1.120 1.176 1.158 1.161 1.138 1.148 1.060 1.042 1.033 1.017 1.108 1.065 1.232 1.025 1.067 1.143 1.101 1.169 1.007 1.111 0.995 0.940 1.022 1.039 0.997 1.047 1.085 1.033 1.101 1.065 0.983 0.928 1.026 0.962 1.029 1.054 0.995 1.038 1.024 1.032 1.078 1.004 1.058 1.004 5.135 5.001 0.036436 5.135 5.001 0.036436 1031745825.578 iB21 0.620
ODOM 5.157 5.002 0.046290 0.211 0.099 0 1031745825.658 iB21 0.700
FLASER 180 2.054 1.970 2.026 2.044 2.022 1.956 2.019 1.940 1.974 2.042 1.966 1.949 2.039 2.028 2.054 2.029 2.028 1.951 1.959 2.003 1.949 1.946 2.059 2.081 1.907 1.925 1.993 1.916 1.934 1.952 1.918 1.971 1.994 1.847 1.951 1.726 1.933 1.934 1.888 1.903 1.839 1.898 1.854 1.848 1.823 1.875 1.793 1.868 1.895 1.823 1.740 1.804 1.786 1.864 1.814 1.777 1.797 1.690 1.743 1.707 1.721 1.795 1.724 1.695 1.728 1.592 1.747 1.669 1.625 1.730 1.627 1.619 1.619 1.577 1.621 1.624 1.659 1.524 1.680 1.584 1.636 1.502 1.523 1.573 1.494 1.547 1.520 1.535 1.435 1.495 1.526 1.530 1.449 1.480 1.449 1.476 1.484 1.469 1.452 1.350 1.412 1.263 1.380 1.415 1.358 1.357 1.382 1.283 1.354 1.276 1.242 1.327 1.277 1.337 1.306 1.250 1.344 1.146 1.235 1.186 1.271 1.241 1.137 1.171 1.326 1.229 1.141 1.150 1.241 1.222 1.200 1.153 1.156 1.128 1.162 1.130 1.233 1.120 1.075 1.175 1.131 1.128 1.044 1.244 1.103 1.034 1.085 1.077 1.036 1.181 1.107 1.066 0.989 1.144 0.977 1.022 1.094 1.048 0.969 1.128 1.088 1.031 0.968 1.163 0.997 1.012 1.001 1.013 1.013 0.993 1.081 0.956 1.036 1.018 0.960 0.962 1.026 1.010 0.985 0.917 5.157 5.002 0.046290 5.157 5.002 0.046290 1031745825.678 iB21 0.720
ODOM 5.176 5.003 0.056286 0.191 0.100 0 1031745825.758 iB21 0.800
FLASER 180 2.021 2.061 1.912 2.045 2.004 2.007 1.922 1.895 1.993 1.952 1.933 1.962 1.925 1.909 1.928 1.897 2.016 1.939 1.884 1.913 1.936 1.937 1.952 1.950 1.982 1.938 1.941 2.047 1.961 1.912 1.890 1.885 1.836 1.987 1.893 1.899 1.859 1.872 1.820 1.912 1.926 1.844 1.787 1.915 1.869 1.816 1.865 1.833 1.890 1.871 1.738 1.792 1.785 1.796 1.804 1.720 1.797 1.734 1.751 1.818 1.745 1.837 1.874 1.737 1.773 1.802 1.660 1.695 1.713 1.645 1.608 1.692 1.650 1.695 1.641 1.654 1.600 1.587 1.665 1.637 1.558 1.575 1.550 1.589 1.638 1.534 1.514 1.518 1.507 1.504 1.420 1.532 1.498 1.496 1.362 1.448 1.420 1.378 1.515 1.445 1.452 1.394 1.419 1.395 1.345 1.370 1.422 1.341 1.367 1.389 1.321 1.389 1.421 1.384 1.341 1.250 1.243 1.311 1.293 1.215 1.298 1.289 1.314 1.206 1.203 1.099 1.224 1.213 1.225 1.157 1.130 1.159 1.189 1.141 1.147 1.121 1.077 1.134 1.090 1.067 1.144 1.105 1.066 1.056 1.079 1.101 1.121 1.129 1.075 1.058 1.117 1.121 1.044 1.081 0.957 1.079 1.105 1.051 1.037 0.985 1.134 1.045 0.994 1.015 1.070 1.041 1.110 0.993 1.107 1.090 1.112 0.970 1.007 1.021 1.022 1.044 0.956 1.016 0.972 1.038 5.176 5.003 0.056286 5.176 5.003 0.056286 1031745825.778 iB21 0.820
ODOM 5.197 5.004 0.066025 0.217 0.097 0 1031745825.858 iB21 0.900
FLASER 180 1.966 2.012 2.018 2.008 1.937 1.950 2.012 1.938 1.990 1.976 1.954 1.988 1.891 1.978 2.003 1.876 1.945 2.041 1.922 1.876 1.990 1.955 1.936 1.963 1.867 1.971 2.030 1.935 1.950 1.856 1.968 1.856 1.937 1.944 1.825 1.933 1.795 1.876 1.830 1.907 1.867 1.787 1.862 1.906 1.959 1.833 1.823 1.852 1.768 1.818 1.820 1.791 1.847 1.770 1.821 1.804 1.791 1.730 1.834 1.823 1.711 1.699 1.692 1.685 1.715 1.727 1.695 1.635 1.767 1.702 1.728 1.673 1.693 1.652 1.683 1.708 1.599 1.667 1.561 1.603 1.576 1.714 1.497 1.603 1.425 1.446 1.529 1.568 1.462 1.463 1.466 1.454 1.478 1.506 1.478 1.418 1.565 1.407 1.397 1.332 1.363 1.341 1.391 1.350 1.362 1.382 1.353 1.379 1.385 1.311 1.378 1.336 1.279 1.321 1.374 1.329 1.220 1.212 1.230 1.288 1.245 1.324 1.246 1.195 1.077 1.236 1.163 1.222 1.103 1.239 1.112 1.187 1.197 1.196 1.127 1.076 1.102 1.086 1.114 1.163 1.091 1.036 1.136 1.015 1.123 1.093 1.133 1.057 1.090 1.140 1.019 1.062 1.006 1.104 1.023 1.068 1.076 1.045 1.013 0.932 1.104 0.998 1.006 0.988 1.031 0.986 0.984 1.036 0.987 0.974 0.983 0.993 1.001 1.061 1.017 1.000 1.017 0.989 0.982 0.948 5.197 5.004 0.066025 5.197 5.004 0.066025 1031745825.878 iB21 0.920
ODOM 5.215 5.005 0.075118 0.180 0.091 0 1031745825.958 iB21 1.000
FLASER 180 1.989 1.970 1.975 2.028 2.006 1.861 1.984 1.893 1.975 1.937 2.002 1.951 1.929 2.062 2.063 2.022 1.919 1.960 2.053 1.922 2.038 1.994 1.955 1.949 2.018 1.936 1.904 1.943 1.984 1.900 1.902 1.857 1.982 1.869 1.899 1.859 1.958 1.850 1.812 1.858 1.916 1.864 1.859 1.823 1.865 1.723 1.862 1.837 1.813 1.758 1.875 1.771 1.782 1.878 1.865 1.784 1.786 1.798 1.728 1.741 1.747 1.747 1.616 1.638 1.703 1.700 1.669 1.713 1.656 1.627 1.667 1.688 1.674 1.639 1.659 1.675 1.541 1.675 1.689 1.560 1.590 1.629 1.642 1.561 1.539 1.596 1.566 1.593 1.579 1.498 1.483 1.558 1.540 1.429 1.446 1.468 1.406 1.445 1.384 1.406 1.370 1.516 1.367 1.381 1.380 1.295 1.269 1.442 1.291 1.328 1.351 1.352 1.240 1.215 1.272 1.222 1.310 1.292 1.249 1.279 1.230 1.260 1.252 1.176 1.101 1.256 1.201 1.210 1.290 1.268 1.177 1.157 1.221 1.121 1.113 1.116 1.275 1.145 1.132 1.078 1.082 1.075 1.148 1.068 1.085 1.061 1.085 1.054 1.034 1.018 1.007 0.954 1.088 1.074 1.116 1.090 1.054 1.027 1.010 1.018 1.067 0.983 0.922 1.063 0.986 1.018 0.980 1.036 1.059 1.052 1.023 1.065 0.986 0.960 1.036 1.052 1.021 1.067 0.950 1.035 5.215 5.005 0.075118 5.215 5.005 0.075118 1031745825.978 iB21 1.020
ODOM 5.235 5.007 0.083203 0.201 0.081 0 1031745826.058 iB21 1.100
FLASER 180 2.004 2.020 1.930 1.991 1.988 2.042 2.035 1.934 2.031 1.833 2.002 2.041 1.971 1.922 2.021 1.983 1.920 2.124 1.949 1.944 1.938 1.940 1.974 1.964 1.908 1.940 1.965 1.955 2.034 1.980 1.966 2.049 1.995 1.873 1.853 1.946 1.962 1.902 1.967 1.946 1.894 1.972 1.915 1.845 1.902 1.759 1.847 1.798 1.826 1.884 1.774 1.770 1.851 1.718 1.730 1.772 1.804 1.758 1.669 1.729 1.819 1.796 1.806 1.721 1.787 1.708 1.711 1.703 1.732 1.703 1.651 1.614 1.634 1.558 1.596 1.689 1.604 1.585 1.655 1.646 1.467 1.504 1.540 1.580 1.452 1.510 1.492 1.536 1.518 1.497 1.616 1.501 1.394 1.582 1.504 1.562 1.494 1.429 1.402 1.565 1.438 1.435 1.344 1.381 1.387 1.423 1.391 1.221 1.331 1.318 1.367 1.288 1.310 1.435 1.365 1.240 1.226 1.252 1.178 1.352 1.185 1.251 1.210 1.256 1.246 1.280 1.257 1.232 1.130 1.176 1.173 1.135 1.221 1.131 1.219 1.246 1.133 1.142 1.053 1.053 1.220 1.160 1.130 1.022 1.008 1.131 1.194 1.145 1.037 1.090 1.060 0.936 1.023 1.028 1.049 1.055 1.069 1.088 1.079 1.098 0.944 1.036 0.981 1.068 1.063 1.009 1.010 0.975 1.042 0.986 0.976 1.051 1.021 1.066 1.050 0.986 0.989 0.895 1.028 0.989 5.235 5.007 0.083203 5.235 5.007 0.083203 1031745826.078 iB21 1.120
ODOM 5.255 5.008 0.089957 0.203 0.068 0 1031745826.158 iB21 1.200
FLASER 180 2.040 2.096 2.048 1.959 1.949 1.926 1.946 2.001 2.001 1.971 1.949 2.033 1.988 1.972 2.002 1.987 1.996 1.961 1.980 2.041 2.036 2.029 1.997 1.934 1.938 1.901 1.935 1.934 1.959 1.876 2.016 2.010 2.002 1.905 1.935 1.918 1.951 1.888 1.819 1.833 1.893 1.875 1.844 1.845 1.802 1.862 1.878 1.832 1.760 1.915 1.850 1.800 1.773 1.750 1.776 1.815 1.747 1.819 1.777 1.714 1.674 1.662 1.798 1.739 1.798 1.649 1.767 1.640 1.645 1.617 1.645 1.764 1.621 1.660 1.688 1.713 1.592 1.587 1.552 1.586 1.544 1.496 1.490 1.500 1.611 1.457 1.444 1.522 1.557 1.489 1.510 1.551 1.485 1.366 1.500 1.446 1.464 1.379 1.493 1.408 1.421 1.443 1.379 1.408 1.432 1.397 1.320 1.299 1.282 1.334 1.358 1.327 1.313 1.328 1.336 1.427 1.186 1.210 1.301 1.227 1.299 1.203 1.218 1.312 1.216 1.217 1.165 1.265 1.221 1.248 1.102 1.094 1.162 1.122 1.232 1.142 1.165 1.071 1.047 1.158 1.084 1.134 1.128 1.045 1.086 1.086 1.054 1.053 1.042 1.106 1.083 1.105 1.114 1.115 1.012 1.023 1.042 1.039 1.073 1.036 1.030 1.067 1.120 1.055 1.066 1.012 0.929 0.920 1.029 0.971 1.044 1.048 0.985 0.992 1.016 1.074 0.964 1.030 0.991 0.988 5.255 5.008 0.089957 5.255 5.008 0.089957 1031745826.178 iB21 1.220
ODOM 5.275 5.010 0.095112 0.199 0.052 0 1031745826.258 iB21 1.300
FLASER 180 2.018 1.954 2.092 2.035 1.956 2.115 1.937 2.025 1.957 1.959 2.034 1.980 2.009 1.936 1.916 1.899 2.001 2.047 1.964 1.946 1.831 1.978 2.050 1.976 1.879 1.949 1.961 1.939 1.932 1.984 1.952 1.910 1.912 1.914 1.976 1.981 1.833 1.908 1.898 1.932 1.842 1.909 1.887 1.831 1.874 1.794 1.826 1.852 1.857 1.801 1.819 1.840 1.749 1.802 1.792 1.743 1.795 1.750 1.728 1.745 1.781 1.731 1.730 1.677 1.747 1.706 1.771 1.565 1.762 1.533 1.643 1.681 1.720 1.615 1.575 1.619 1.651 1.539 1.542 1.501 1.589 1.571 1.617 1.516 1.564 1.576 1.592 1.592 1.493 1.561 1.466 1.442 1.557 1.629 1.484 1.476 1.381 1.468 1.395 1.480 1.359 1.408 1.371 1.415 1.360 1.401 1.275 1.384 1.399 1.354 1.354 1.324 1.252 1.337 1.386 1.211 1.232 1.250 1.313 1.235 1.330 1.242 1.280 1.196 1.189 1.279 1.217 1.065 1.110 1.188 1.094 1.171 1.108 1.063 1.172 1.162 1.109 1.197 1.112 1.087 1.141 1.047 1.005 0.940 1.110 1.056 1.152 1.103 1.150 1.011 1.084 1.027 0.987 0.997 1.112 1.071 0.990 1.012 0.978 1.011 1.108 1.019 0.977 1.041 0.994 1.034 0.987 0.984 0.941 0.904 1.003 0.994 1.005 0.962 0.948 0.921 1.062 1.147 0.996 0.841 5.275 5.010 0.095112 5.275 5.010 0.095112 1031745826.278 iB21 1.320
ODOM 5.294 5.012 0.098462 0.190 0.033 0 1031745826.358 iB21 1.400
FLASER 180 2.009 1.962 2.015 2.045 2.130 2.044 2.079 1.940 2.045 1.982 1.997 1.971 1.929 1.939 1.900 2.072 2.023 2.023 1.899 2.002 1.980 1.975 2.005 2.024 1.996 1.977 1.943 1.941 1.911 1.915 1.873 2.029 1.869 1.967 1.926 1.912 1.911 1.967 1.883 1.876 1.893 1.963 1.864 1.819 1.875 1.824 1.830 1.821 1.919 1.828 1.837 1.793 1.775 1.833 1.684 1.768 1.756 1.737 1.763 1.673 1.778 1.710 1.674 1.714 1.694 1.710 1.679 1.657 1.707 1.674 1.568 1.671 1.678 1.613 1.580 1.686 1.670 1.563 1.557 1.488 1.562 1.513 1.528 1.586 1.544 1.531 1.486 1.553 1.505 1.425 1.487 1.503 1.468 1.450 1.381 1.432 1.463 1.547 1.501 1.454 1.423 1.440 1.350 1.395 1.454 1.277 1.288 1.382 1.365 1.489 1.330 1.304 1.351 1.296 1.363 1.229 1.261 1.249 1.314 1.259 1.180 1.230 1.307 1.195 1.246 1.105 1.202 1.257 1.225 1.063 1.132 1.168 1.195 1.073 1.122 1.124 1.131 1.156 1.165 1.073 1.034 1.155 1.136 1.163 1.000 1.079 1.220 1.072 1.047 1.063 1.090 1.065 0.995 1.064 1.072 0.994 0.975 1.015 1.079 1.009 1.037 1.071 1.027 0.960 1.005 0.961 0.987 1.037 1.031 0.973 0.974 0.962 0.933 0.959 1.051 0.934 1.005 1.005 1.008 1.031 5.294 5.012 0.098462 5.294 5.012 0.098462 1031745826.378 iB21 1.420
ODOM 5.313 5.014 0.099873 0.188 0.014 0 1031745826.458 iB21 1.500
FLASER 180 1.975 2.044 1.963 1.963 1.966 1.952 2.020 1.947 2.024 2.007 1.930 1.939 1.993 2.018 2.073 1.966 1.887 1.953 2.015 1.982 1.981 1.959 2.022 1.887 1.956 1.961 1.939 2.072 1.905 1.919 1.998 2.027 1.942 1.896 1.857 1.889 1.931 2.026 1.901 1.910 1.780 1.882 1.863 1.932 1.892 1.838 1.797 1.831 1.825 1.828 1.860 1.747 1.845 1.828 1.832 1.787 1.753 1.716 1.774 1.821 1.788 1.672 1.697 1.740 1.695 1.636 1.614 1.677 1.677 1.581 1.608 1.622 1.610 1.637 1.584 1.541 1.554 1.631 1.650 1.553 1.582 1.544 1.520 1.587 1.575 1.541 1.653 1.522 1.511 1.525 1.483 1.450 1.435 1.510 1.484 1.409 1.587 1.404 1.437 1.354 1.470 1.375 1.379 1.296 1.430 1.400 1.446 1.283 1.241 1.350 1.322 1.321 1.307 1.333 1.275 1.275 1.292 1.239 1.342 1.267 1.228 1.177 1.375 1.311 1.210 1.211 1.229 1.261 1.123 1.228 1.161 1.150 1.060 1.189 1.186 1.155 1.214 1.104 1.125 1.157 1.143 1.028 1.087 1.065 1.079 1.118 1.161 1.040 1.071 0.997 1.015 1.089 1.018 1.064 1.047 1.044 1.063 1.053 1.047 0.992 1.075 0.947 0.954 1.050 1.048 1.030 1.016 1.005 0.957 0.937 0.938 0.998 0.983 1.116 0.911 0.939 1.040 1.078 1.019 1.009 5.313 5.014 0.099873 5.313 5.014 0.099873 1031745826.478 iB21 1.520
ODOM 5.333 5.016 0.099290 0.197 -0.006 0 1031745826.558 iB21 1.600
FLASER 180 2.042 1.988 2.088 2.000 1.962 2.002 1.871 2.047 1.880 1.985 1.927 1.933 2.001 1.940 1.967 1.921 2.027 1.971 2.065 1.973 1.981 1.903 2.006 1.896 2.056 1.917 1.986 1.890 1.972 1.954 1.991 1.929 1.897 1.957 1.902 1.915 1.904 2.028 1.922 1.827 1.896 1.897 1.825 1.833 1.876 1.818 1.852 1.829 1.852 1.868 1.820 1.790 1.817 1.822 1.763 1.761 1.789 1.765 1.763 1.729 1.768 1.765 1.770 1.655 1.774 1.673 1.757 1.673 1.661 1.705 1.701 1.718 1.671 1.659 1.628 1.707 1.604 1.553 1.550 1.613 1.672 1.542 1.510 1.582 1.505 1.551 1.491 1.549 1.532 1.567 1.489 1.501 1.486 1.434 1.478 1.460 1.559 1.470 1.495 1.346 1.377 1.367 1.349 1.411 1.385 1.413 1.353 1.308 1.352 1.380 1.345 1.326 1.267 1.271 1.273 1.312 1.211 1.208 1.253 1.308 1.132 1.202 1.256 1.200 1.190 1.194 1.236 1.131 1.223 1.134 1.124 1.150 1.108 1.190 1.136 1.218 1.201 1.076 1.131 1.098 1.174 1.149 1.168 1.121 1.106 0.980 1.091 1.117 1.165 1.146 1.125 1.056 1.091 1.078 1.045 1.008 1.051 1.074 1.055 0.994 1.086 1.017 1.007 1.028 0.993 1.060 0.987 1.012 0.977 0.924 0.973 1.039 0.979 0.962 1.050 0.995 0.973 1.107 0.907 1.071 5.333 5.016 0.099290 5.333 5.016 0.099290 1031745826.578 iB21 1.620
ODOM 5.350 5.018 0.096734 0.180 -0.026 0 1031745826.658 iB21 1.700
FLASER 180 1.910 2.091 1.946 1.938 1.987 2.019 2.057 1.915 1.994 2.086 1.966 1.910 1.881 1.949 1.921 1.984 1.989 1.952 2.001 1.962 1.890 2.048 1.919 1.961 1.877 1.954 1.982 1.949 1.938 1.991 1.952 1.959 1.887 1.919 1.936 1.926 1.850 1.920 1.891 1.896 1.914 1.939 1.837 1.909 1.844 1.828 1.845 1.962 1.863 1.823 1.801 1.768 1.863 1.874 1.749 1.755 1.748 1.794 1.717 1.809 1.715 1.780 1.729 1.728 1.737 1.733 1.723 1.580 1.665 1.725 1.710 1.714 1.690 1.677 1.631 1.618 1.653 1.711 1.509 1.587 1.645 1.506 1.540 1.610 1.572 1.555 1.616 1.559 1.566 1.416 1.464 1.565 1.493 1.479 1.434 1.369 1.509 1.501 1.460 1.493 1.362 1.427 1.372 1.415 1.388 1.421 1.332 1.346 1.293 1.442 1.356 1.326 1.338 1.302 1.227 1.303 1.201 1.350 1.161 1.285 1.271 1.266 1.290 1.221 1.231 1.255 1.207 1.211 1.190 1.201 1.122 1.170 1.161 1.131 1.034 1.146 1.033 1.204 1.101 1.083 1.174 1.213 1.181 1.030 1.170 1.132 1.144 1.099 1.066 1.106 1.092 1.042 1.073 0.959 1.156 1.133 1.004 1.039 1.052 1.001 0.969 1.072 1.009 1.014 1.026 0.986 0.987 1.040 1.082 0.966 1.008 1.026 1.005 1.025 1.053 0.978 1.007 1.012 1.062 0.984 5.350 5.018 0.096734 5.350 5.018 0.096734 1031745826.678 iB21 1.720
ODOM 5.369 5.019 0.092309 0.190 -0.044 0 1031745826.758 iB21 1.800
FLASER 180 1.946 2.039 1.956 2.067 1.923 2.119 1.977 1.992 2.102 1.991 2.020 1.999 1.991 1.980 1.942 1.999 2.044 2.134 1.969 1.924 2.000 1.943 1.973 2.018 1.962 2.056 1.987 1.935 1.910 1.877 1.914 1.960 1.965 1.895 1.986 1.857 1.918 1.923 1.810 1.912 1.848 1.935 1.813 1.794 1.873 1.750 1.837 1.767 1.845 1.715 1.816 1.861 1.800 1.771 1.826 1.886 1.736 1.767 1.673 1.736 1.876 1.751 1.789 1.832 1.743 1.735 1.600 1.710 1.728 1.602 1.637 1.580 1.669 1.634 1.555 1.707 1.680 1.675 1.559 1.570 1.694 1.589 1.647 1.605 1.499 1.529 1.569 1.500 1.537 1.555 1.528 1.563 1.517 1.549 1.498 1.459 1.429 1.395 1.399 1.408 1.452 1.398 1.396 1.381 1.370 1.361 1.321 1.308 1.319 1.315 1.409 1.333 1.341 1.392 1.271 1.327 1.254 1.300 1.220 1.146 1.325 1.248 1.265 1.071 1.117 1.206 1.159 1.246 1.168 1.123 1.209 1.173 1.163 1.276 1.216 1.078 1.132 1.124 1.129 1.120 1.092 1.118 1.055 1.115 1.115 1.114 1.057 1.035 1.051 1.084 1.030 0.971 1.058 1.012 1.158 0.988 1.000 1.124 1.045 1.040 0.952 1.012 0.965 1.011 0.979 0.942 1.004 1.009 1.011 1.043 0.918 1.017 1.029 1.028 0.988 1.007 1.014 1.038 0.934 1.005 5.369 5.019 0.092309 5.369 5.019 0.092309 1031745826.778 iB21 1.820
ODOM 5.388 5.021 0.086190 0.186 -0.061 0 1031745826.858 iB21 1.900
FLASER 180 2.006 2.025 1.991 1.951 1.971 1.965 2.014 1.950 2.014 1.929 2.005 2.035 2.014 1.925 1.964 2.004 1.958 2.050 2.077 1.974 1.969 1.939 1.937 1.939 1.923 1.960 1.886 2.003 2.076 1.905 1.980 1.873 1.849 2.008 1.950 1.922 1.898 1.860 1.840 1.805 1.813 1.860 1.936 1.867 1.835 1.817 1.883 1.795 1.872 1.891 1.725 1.873 1.800 1.754 1.832 1.765 1.781 1.724 1.686 1.728 1.751 1.717 1.683 1.771 1.682 1.718 1.583 1.731 1.711 1.749 1.688 1.733 1.709 1.640 1.577 1.626 1.657 1.472 1.593 1.572 1.619 1.446 1.613 1.660 1.566 1.524 1.548 1.595 1.429 1.549 1.553 1.448 1.467 1.408 1.395 1.426 1.547 1.502 1.328 1.419 1.421 1.469 1.424 1.478 1.375 1.375 1.386 1.425 1.358 1.385 1.218 1.293 1.388 1.389 1.299 1.324 1.182 1.259 1.235 1.333 1.180 1.283 1.185 1.264 1.205 1.212 1.252 1.245 1.208 1.192 1.221 1.311 1.127 1.095 1.162 1.187 1.107 1.227 1.046 1.055 1.085 1.158 1.100 1.119 0.986 1.076 1.098 1.134 1.009 1.071 1.043 1.125 1.104 1.063 1.084 1.013 1.025 1.020 0.933 1.052 1.022 1.019 0.940 1.126 1.042 1.032 1.051 1.014 1.031 0.965 1.055 1.083 1.055 1.036 1.057 1.165 0.955 1.040 1.059 0.988 5.388 5.021 0.086190 5.388 5.021 0.086190 1031745826.878 iB21 1.920
ODOM 5.410 5.023 0.078622 0.223 -0.076 0 1031745826.958 iB21 2.000
FLASER 180 2.006 1.896 1.909 1.969 2.007 1.973 1.897 1.936 1.956 2.044 2.002 1.936 1.931 1.941 1.948 1.950 1.958 1.957 1.949 2.015 1.975 1.993 1.865 1.962 2.044 1.945 1.958 1.977 2.024 1.928 1.874 1.960 1.918 1.921 1.885 1.883 1.899 1.913 1.871 1.822 1.885 1.895 1.792 1.804 1.797 1.827 1.842 1.847 1.814 1.735 1.878 1.826 1.811 1.751 1.811 1.699 1.803 1.755 1.710 1.750 1.741 1.844 1.718 1.744 1.672 1.634 1.745 1.714 1.627 1.621 1.695 1.720 1.682 1.614 1.570 1.538 1.588 1.543 1.519 1.527 1.584 1.535 1.611 1.527 1.555 1.546 1.516 1.448 1.434 1.638 1.556 1.426 1.521 1.431 1.448 1.425 1.471 1.550 1.490 1.427 1.381 1.469 1.477 1.379 1.388 1.411 1.386 1.257 1.322 1.351 1.462 1.360 1.307 1.319 1.383 1.309 1.340 1.270 1.274 1.174 1.207 1.256 1.239 1.197 1.266 1.279 1.224 1.207 1.257 1.172 1.280 1.176 1.175 1.225 1.223 1.141 1.080 1.044 1.152 1.115 1.067 1.124 1.078 1.110 1.148 1.104 0.987 1.031 1.051 1.015 1.019 1.095 1.068 1.024 1.064 1.040 1.064 1.059 1.042 1.051 1.081 1.068 1.100 0.981 0.958 1.141 1.003 1.035 1.011 0.962 1.010 0.968 1.003 1.022 0.940 1.030 0.983 0.935 1.041 0.944 5.410 5.023 0.078622 5.410 5.023 0.078622 1031745826.978 iB21 2.020
ODOM 5.435 5.025 0.069907 0.248 -0.087 0 1031745827.058 iB21 2.100
FLASER 180 1.891 2.001 1.891 2.018 2.033 2.012 2.143 1.944 2.015 1.987 2.032 1.969 2.021 2.031 2.032 1.990 1.983 1.873 1.901 1.865 1.938 1.993 1.939 2.004 1.878 1.918 1.982 2.043 1.876 1.921 1.961 1.888 2.019 1.878 1.978 1.818 1.904 1.843 1.797 1.961 1.834 1.893 1.909 1.836 1.834 1.996 1.888 1.814 1.873 1.842 1.788 1.768 1.793 1.824 1.828 1.794 1.826 1.724 1.733 1.813 1.706 1.721 1.810 1.719 1.671 1.737 1.746 1.765 1.676 1.773 1.578 1.615 1.626 1.725 1.561 1.638 1.641 1.640 1.467 1.639 1.544 1.597 1.542 1.699 1.511 1.527 1.531 1.492 1.533 1.522 1.521 1.441 1.515 1.456 1.566 1.502 1.546 1.454 1.385 1.368 1.448 1.348 1.447 1.387 1.320 1.355 1.281 1.372 1.399 1.373 1.375 1.321 1.274 1.305 1.187 1.351 1.354 1.326 1.254 1.261 1.264 1.265 1.328 1.312 1.177 1.215 1.227 1.192 1.215 1.198 1.184 1.301 1.299 1.110 1.151 1.184 1.144 1.152 1.189 1.055 1.240 1.090 1.062 1.092 1.075 1.030 1.074 1.069 1.026 1.094 1.050 0.997 0.958 0.995 1.069 0.976 1.129 0.977 1.047 0.984 1.028 0.997 0.943 1.137 1.103 1.008 1.048 1.040 1.029 0.989 0.963 0.964 0.989 0.980 0.957 0.913 1.043 0.955 1.028 1.037 5.435 5.025 0.069907 5.435 5.025 0.069907 1031745827.078 iB21 2.120
ODOM 5.453 5.026 0.060391 0.182 -0.095 0 1031745827.158 iB21 2.200
FLASER 180 1.951 1.991 1.976 1.992 2.048 1.954 1.948 2.079 1.957 2.043 1.943 1.985 2.009 2.045 1.991 1.940 1.980 1.990 1.909 1.973 2.015 1.962 2.006 2.073 1.952 1.938 1.898 1.986 1.949 1.918 1.949 1.944 1.889 1.895 1.906 1.912 1.902 1.929 1.845 1.917 1.839 1.889 1.961 1.867 1.773 1.916 1.885 1.811 1.858 1.824 1.824 1.782 1.787 1.763 1.791 1.834 1.742 1.748 1.698 1.786 1.823 1.748 1.728 1.784 1.662 1.681 1.667 1.804 1.642 1.674 1.607 1.647 1.589 1.610 1.589 1.605 1.644 1.654 1.628 1.553 1.482 1.575 1.573 1.541 1.547 1.615 1.539 1.551 1.483 1.512 1.568 1.433 1.480 1.480 1.419 1.441 1.402 1.415 1.480 1.393 1.355 1.347 1.437 1.474 1.439 1.291 1.357 1.415 1.406 1.399 1.354 1.369 1.410 1.338 1.286 1.326 1.196 1.301 1.300 1.245 1.179 1.227 1.252 1.249 1.183 1.253 1.174 1.285 1.156 1.177 1.269 1.195 1.205 1.038 1.150 1.219 1.132 1.051 1.166 1.053 1.054 1.128 1.118 1.143 1.070 1.027 1.056 1.085 1.016 1.006 1.026 1.043 1.168 1.038 1.084 1.026 1.030 1.056 1.076 1.085 1.049 1.082 1.000 0.969 1.053 0.953 0.945 1.094 1.051 0.939 0.976 1.002 1.017 0.978 1.068 0.965 1.027 0.970 1.098 1.034 5.453 5.026 0.060391 5.453 5.026 0.060391 1031745827.178 iB21 2.220
ODOM 5.474 5.028 0.050454 0.211 -0.099 0 1031745827.258 iB21 2.300
FLASER 180 2.043 1.959 2.037 2.030 2.101 2.040 2.067 1.969 1.945 1.990 1.987 2.013 1.988 1.950 1.918 2.000 1.961 1.958 1.955 1.948 1.976 2.010 1.982 1.928 1.900 1.972 1.902 1.915 1.998 1.865 1.891 1.994 2.000 1.934 1.882 1.905 1.903 1.997 1.899 1.967 1.887 1.851 1.804 1.851 1.859 1.863 1.897 1.921 1.854 1.847 1.761 1.816 1.755 1.789 1.729 1.737 1.764 1.814 1.724 1.750 1.765 1.741 1.676 1.796 1.710 1.670 1.743 1.685 1.845 1.669 1.592 1.643 1.697 1.642 1.573 1.558 1.593 1.554 1.640 1.603 1.597 1.520 1.581 1.534 1.479 1.584 1.479 1.553 1.578 1.475 1.473 1.540 1.435 1.450 1.388 1.471 1.395 1.412 1.461 1.430 1.350 1.434 1.370 1.389 1.421 1.375 1.342 1.346 1.287 1.362 1.328 1.351 1.345 1.340 1.290 1.255 1.277 1.289 1.285 1.240 1.233 1.254 1.220 1.228 1.220 1.246 1.263 1.276 1.244 1.175 1.272 1.163 1.204 1.145 1.195 1.201 1.096 1.167 1.099 1.096 1.114 1.125 1.154 1.129 1.135 1.065 1.066 1.037 1.121 1.087 0.985 1.155 1.161 1.057 1.054 1.108 1.041 1.082 1.061 1.016 1.017 1.094 0.940 1.012 0.991 1.090 1.017 1.018 1.001 0.967 1.019 1.012 0.952 0.930 0.930 0.973 0.989 0.994 1.012 1.074 5.474 5.028 0.050454 5.474 5.028 0.050454 1031745827.278 iB21 2.320
ODOM 5.492 5.028 0.040492 0.177 -0.100 0 1031745827.358 iB21 2.400
FLASER 180 2.048 2.046 1.949 2.021 2.066 2.008 2.001 2.094 1.970 1.995 2.012 1.965 1.931 2.022 2.004 1.979 2.015 1.943 1.887 2.009 2.009 1.896 2.024 1.940 2.006 1.864 1.921 1.930 1.992 1.915 1.907 1.958 1.921 1.954 1.910 1.899 1.870 1.832 1.912 1.868 1.946 1.859 1.812 1.908 1.797 1.934 1.826 1.820 1.848 1.813 1.804 1.807 1.834 1.774 1.887 1.839 1.744 1.771 1.831 1.779 1.753 1.739 1.632 1.723 1.782 1.667 1.721 1.747 1.695 1.554 1.645 1.618 1.557 1.657 1.642 1.723 1.611 1.725 1.520 1.605 1.569 1.590 1.553 1.612 1.504 1.503 1.567 1.549 1.492 1.535 1.424 1.427 1.425 1.534 1.471 1.493 1.457 1.423 1.409 1.415 1.389 1.419 1.489 1.461 1.336 1.409 1.369 1.365 1.377 1.413 1.341 1.314 1.318 1.303 1.269 1.341 1.266 1.230 1.233 1.237 1.234 1.286 1.187 1.271 1.150 1.207 1.218 1.206 1.193 1.137 1.121 1.151 1.092 1.095 1.087 1.146 1.059 1.103 1.081 1.021 1.025 1.084 1.128 1.043 1.078 1.102 1.024 1.129 0.957 1.045 1.014 1.078 1.046 0.988 1.048 1.003 0.900 1.032 1.060 1.106 1.056 0.963 0.962 1.027 1.034 1.008 1.032 0.950 1.075 1.068 1.063 1.060 1.008 1.082 1.092 0.985 1.005 1.037 0.991 1.011 5.492 5.028 0.040492 5.492 5.028 0.040492 1031745827.378 iB21 2.420
ODOM 5.511 5.029 0.030903 0.190 -0.096 0 1031745827.458 iB21 2.500
FLASER 180 1.957 1.998 1.969 1.953 2.061 1.947 1.939 1.895 2.108 1.983 1.980 2.017 1.908 1.950 1.985 1.971 1.910 1.990 1.928 1.955 1.980 1.985 1.994 2.017 1.967 1.954 1.936 1.876 1.918 1.917 1.893 1.992 1.892 1.941 1.897 1.939 1.860 1.862 1.904 1.837 1.890 1.891 1.755 1.868 1.854 1.832 1.874 1.794 1.685 1.820 1.794 1.780 1.756 1.838 1.844 1.773 1.851 1.855 1.678 1.724 1.691 1.782 1.759 1.686 1.777 1.698 1.692 1.689 1.776 1.684 1.761 1.667 1.661 1.636 1.506 1.745 1.621 1.578 1.634 1.600 1.565 1.679 1.550 1.627 1.537 1.585 1.610 1.494 1.512 1.499 1.523 1.482 1.455 1.471 1.387 1.432 1.497 1.504 1.450 1.482 1.432 1.372 1.479 1.388 1.286 1.445 1.406 1.348 1.402 1.351 1.405 1.188 1.319 1.345 1.318 1.304 1.319 1.347 1.341 1.366 1.233 1.223 1.265 1.242 1.212 1.194 1.163 1.102 1.202 1.161 1.168 1.138 1.176 1.167 1.151 1.166 1.243 1.068 1.134 1.167 1.083 1.065 1.101 1.010 1.093 1.031 1.181 1.080 1.020 0.965 1.061 1.029 1.106 0.939 1.063 1.089 1.058 1.078 1.141 0.971 1.093 0.983 0.980 1.045 0.928 1.016 0.927 1.008 1.003 1.003 1.047 0.938 0.935 1.099 0.949 0.991 0.964 1.018 1.044 0.915 5.511 5.029 0.030903 5.511 5.029 0.030903 1031745827.478 iB21 2.520
ODOM 5.527 5.030 0.022068 0.165 -0.088 0 1031745827.558 iB21 2.600
FLASER 180 2.018 2.012 2.071 1.971 2.024 1.990 1.968 2.027 1.997 1.984 1.953 1.966 1.958 2.009 1.947 1.976 1.945 1.998 1.977 1.955 1.890 2.028 1.972 1.954 1.983 1.840 1.992 1.950 1.888 1.934 2.010 1.915 1.937 1.890 1.884 1.941 1.942 1.890 1.908 1.906 1.976 1.884 1.818 1.908 1.735 1.815 1.874 1.807 1.856 1.833 1.790 1.879 1.838 1.812 1.621 1.805 1.821 1.766 1.760 1.778 1.811 1.590 1.695 1.822 1.734 1.724 1.659 1.673 1.658 1.693 1.678 1.734 1.644 1.639 1.707 1.585 1.520 1.509 1.623 1.637 1.702 1.575 1.542 1.598 1.603 1.589 1.496 1.509 1.445 1.494 1.496 1.495 1.446 1.353 1.438 1.434 1.454 1.384 1.437 1.407 1.388 1.454 1.394 1.365 1.437 1.367 1.317 1.238 1.359 1.293 1.250 1.308 1.335 1.315 1.336 1.274 1.244 1.317 1.204 1.335 1.170 1.210 1.175 1.213 1.255 1.223 1.255 1.182 1.191 1.243 1.205 1.168 1.112 1.146 1.133 1.149 1.101 1.126 1.196 1.140 1.086 1.090 1.159 1.108 0.995 0.987 1.034 1.182 1.092 1.102 1.090 1.103 1.045 1.085 1.095 1.069 1.026 1.032 1.082 1.078 1.075 0.948 1.063 1.061 1.064 0.939 1.000 1.071 1.086 0.945 1.018 1.007 1.061 1.035 1.088 1.008 0.991 0.987 1.011 0.838 5.527 5.030 0.022068 5.527 5.030 0.022068 1031745827.578 iB21 2.620
ODOM 5.547 5.030 0.014341 0.195 -0.077 0 1031745827.658 iB21 2.700
FLASER 180 1.875 1.919 2.068 1.940 1.935 2.065 1.947 2.085 2.039 2.087 1.952 2.017 1.974 1.986 2.085 2.050 1.982 1.962 1.950 2.004 2.018 2.010 1.899 1.943 1.972 1.959 1.964 1.897 1.839 1.927 1.958 1.902 1.917 1.947 1.900 1.908 1.936 1.827 1.870 1.897 1.954 1.900 1.807 1.830 1.830 1.842 1.776 1.920 1.880 1.804 1.805 1.868 1.863 1.717 1.823 1.799 1.758 1.804 1.736 1.742 1.747 1.751 1.612 1.720 1.776 1.708 1.729 1.716 1.753 1.651 1.717 1.606 1.614 1.636 1.660 1.591 1.588 1.624 1.715 1.584 1.622 1.555 1.518 1.512 1.482 1.441 1.459 1.547 1.498 1.537 1.506 1.426 1.457 1.546 1.466 1.448 1.358 1.442 1.423 1.490 1.390 1.384 1.375 1.302 1.281 1.352 1.303 1.311 1.318 1.375 1.385 1.322 1.336 1.315 1.261 1.268 1.194 1.222 1.354 1.294 1.254 1.287 1.242 1.267 1.256 1.242 1.139 1.145 1.202 1.222 1.212 1.191 1.098 1.168 1.194 1.113 1.097 1.162 1.152 1.051 1.228 1.142 1.156 1.057 1.081 1.169 1.113 1.089 1.090 1.073 1.086 0.975 1.012 1.100 1.065 1.141 1.138 1.021 1.039 0.996 1.065 1.058 1.021 1.061 1.047 0.972 1.073 1.007 0.918 1.165 0.993 1.058 1.021 0.926 0.969 1.120 1.029 0.889 0.908 0.961 5.547 5.030 0.014341 5.547 5.030 0.014341 1031745827.678 iB21 2.720
ODOM 5.568 5.030 0.008028 0.212 -0.063 0 1031745827.758 iB21 2.800
FLASER 180 2.031 2.089 2.106 1.906 2.018 2.069 1.937 2.003 1.958 1.930 1.922 1.994 1.989 2.053 2.108 2.102 1.968 1.883 1.942 1.985 1.945 1.918 1.959 1.995 1.918 1.930 2.016 1.854 1.856 1.920 2.009 1.930 1.955 1.916 1.918 1.893 1.903 1.890 1.857 1.905 1.821 1.902 1.834 1.959 1.861 1.855 1.872 1.892 1.878 1.804 1.823 1.763 1.768 1.783 1.796 1.840 1.703 1.707 1.767 1.754 1.820 1.775 1.799 1.779 1.712 1.757 1.619 1.714 1.745 1.631 1.681 1.771 1.662 1.624 1.608 1.595 1.650 1.587 1.706 1.551 1.622 1.579 1.619 1.463 1.541 1.510 1.427 1.538 1.513 1.506 1.501 1.500 1.418 1.518 1.556 1.525 1.408 1.468 1.513 1.398 1.407 1.469 1.411 1.477 1.392 1.340 1.394 1.342 1.304 1.359 1.370 1.426 1.300 1.356 1.281 1.318 1.242 1.292 1.309 1.180 1.274 1.288 1.225 1.216 1.255 1.256 1.254 1.199 1.175 1.220 1.170 1.081 1.154 1.211 1.172 1.193 1.136 1.129 1.146 1.038 1.055 1.096 1.152 1.028 1.060 1.079 1.062 1.061 1.062 1.031 1.085 1.110 1.004 1.108 1.068 1.073 1.034 1.145 1.039 1.084 1.098 1.036 1.110 1.118 1.065 0.942 0.957 1.057 0.937 1.100 0.994 1.036 0.961 0.939 1.081 1.082 1.049 1.016 0.973 0.966 5.568 5.030 0.008028 5.568 5.030 0.008028 1031745827.778 iB21 2.820
ODOM 5.587 5.031 0.003382 0.194 -0.046 0 1031745827.858 iB21 2.900
FLASER 180 2.027 2.008 2.017 2.089 1.934 2.060 1.974 1.965 2.027 1.978 1.957 2.029 1.922 1.977 2.008 1.996 1.953 1.961 1.866 1.978 1.987 1.945 1.998 1.999 1.990 1.894 1.884 2.003 1.944 1.870 1.922 1.958 1.874 1.932 1.913 1.894 1.991 1.861 1.933 1.893 1.928 1.908 1.798 1.885 1.880 1.866 1.827 1.804 1.833 1.778 1.822 1.808 1.754 1.811 1.734 1.873 1.785 1.744 1.693 1.804 1.844 1.700 1.836 1.756 1.712 1.674 1.617 1.726 1.671 1.643 1.635 1.660 1.608 1.739 1.670 1.679 1.660 1.619 1.627 1.596 1.605 1.575 1.606 1.575 1.481 1.542 1.458 1.520 1.471 1.521 1.534 1.516 1.567 1.470 1.489 1.533 1.444 1.501 1.459 1.436 1.361 1.410 1.311 1.399 1.348 1.263 1.403 1.303 1.381 1.295 1.334 1.273 1.253 1.361 1.335 1.254 1.335 1.304 1.277 1.310 1.222 1.256 1.211 1.277 1.236 1.213 1.175 1.240 1.124 1.170 1.221 1.095 1.114 1.115 1.143 1.119 1.127 1.161 1.122 1.204 1.109 1.069 1.104 1.045 1.125 1.059 1.041 1.096 0.964 1.023 1.029 1.077 1.132 1.110 0.997 1.127 1.045 0.999 1.034 1.049 1.015 0.999 1.032 1.096 1.081 1.008 0.882 0.942 1.032 1.074 1.084 0.956 0.979 1.012 0.956 1.057 0.997 0.989 0.940 1.042 5.587 5.031 0.003382 5.587 5.031 0.003382 1031745827.878 iB21 2.920
ODOM 5.608 5.031 0.000588 0.211 -0.028 0 1031745827.958 iB21 3.000
FLASER 180 1.967 1.984 1.982 1.967 1.950 1.915 2.000 1.997 1.989 1.961 1.985 2.087 1.940 2.051 2.005 2.033 1.978 2.001 1.906 1.954 1.952 1.935 1.941 1.933 1.925 1.952 1.889 1.943 1.936 1.851 1.948 1.883 1.912 1.865 1.934 2.000 1.881 1.928 1.857 1.891 1.906 1.874 1.866 1.896 1.844 1.795 1.723 1.842 1.884 1.793 1.829 1.805 1.761 1.696 1.828 1.758 1.787 1.817 1.734 1.761 1.762 1.716 1.749 1.725 1.743 1.724 1.674 1.595 1.630 1.688 1.670 1.590 1.622 1.563 1.636 1.654 1.596 1.544 1.675 1.616 1.645 1.503 1.482 1.500 1.562 1.519 1.442 1.430 1.438 1.562 1.531 1.495 1.406 1.514 1.416 1.494 1.536 1.407 1.427 1.504 1.345 1.446 1.453 1.324 1.365 1.409 1.388 1.373 1.275 1.404 1.342 1.355 1.332 1.320 1.258 1.283 1.196 1.265 1.246 1.253 1.284 1.270 1.182 1.127 1.180 1.332 1.233 1.143 1.242 1.200 1.120 1.176 1.188 1.262 1.068 1.212 1.189 1.111 1.162 1.124 1.039 1.120 1.051 1.045 1.109 1.080 1.032 1.049 1.052 1.020 1.097 1.180 1.073 1.064 1.125 1.027 1.069 1.030 1.113 0.994 1.007 1.067 1.011 1.029 1.004 1.097 0.996 0.994 0.967 1.014 0.997 0.902 1.063 0.940 1.004 1.000 0.914 0.992 0.998 1.043 5.608 5.031 0.000588 5.608 5.031 0.000588 1031745827.978 iB21 3.020
ODOM 5.628 5.031 -0.000243 0.198 -0.008 0 1031745828.058 iB21 3.100
FLASER 180 1.933 1.952 1.961 2.003 1.960 2.103 1.964 2.117 1.978 2.053 1.985 1.958 1.957 1.983 1.953 1.948 1.985 2.034 2.017 1.936 1.943 1.918 1.965 1.930 1.922 1.987 1.997 1.963 1.970 1.960 1.847 1.905 1.864 1.873 1.954 1.905 1.886 1.934 1.949 1.905 1.882 1.826 1.880 1.881 1.880 1.782 1.818 1.787 1.838 1.810 1.844 1.783 1.802 1.835 1.821 1.781 1.805 1.766 1.786 1.813 1.729 1.768 1.709 1.704 1.783 1.723 1.751 1.653 1.664 1.674 1.623 1.651 1.677 1.682 1.638 1.660 1.577 1.662 1.609 1.687 1.656 1.654 1.560 1.557 1.516 1.565 1.532 1.568 1.483 1.467 1.422 1.533 1.523 1.448 1.490 1.395 1.445 1.375 1.402 1.434 1.396 1.391 1.373 1.468 1.357 1.351 1.381 1.443 1.205 1.418 1.290 1.352 1.314 1.275 1.321 1.310 1.382 1.181 1.250 1.315 1.267 1.266 1.136 1.236 1.300 1.243 1.198 1.182 1.174 1.036 1.203 1.236 1.109 1.179 1.175 1.228 1.118 1.168 1.129 1.072 0.993 1.130 1.099 1.175 1.041 1.084 0.980 1.045 0.999 0.999 1.078 1.097 1.101 1.071 1.005 1.034 1.080 1.012 1.126 1.032 1.023 1.028 1.010 0.970 1.078 0.923 1.101 0.947 0.935 1.004 0.953 1.068 1.043 1.026 1.029 1.022 0.972 1.057 0.995 0.911 5.628 5.031 -0.000243 5.628 5.031 -0.000243 1031745828.078 iB21 3.120
ODOM 5.649 5.031 0.000922 0.208 0.012 0 1031745828.158 iB21 3.200
FLASER 180 2.014 2.058 2.016 1.944 1.980 1.953 1.969 1.942 2.027 2.015 2.020 1.893 1.986 1.913 1.962 1.941 2.030 2.022 1.986 1.944 2.038 2.039 2.024 1.968 1.919 1.905 1.955 1.992 1.895 1.966 1.865 1.896 1.892 1.961 1.861 1.937 1.913 1.880 1.884 1.942 1.817 1.867 1.908 1.949 1.805 1.897 1.854 1.795 1.858 1.891 1.792 1.720 1.895 1.807 1.770 1.770 1.712 1.795 1.774 1.755 1.742 1.668 1.655 1.659 1.631 1.744 1.697 1.752 1.727 1.605 1.619 1.755 1.617 1.703 1.715 1.612 1.682 1.563 1.535 1.612 1.577 1.553 1.538 1.539 1.568 1.535 1.540 1.513 1.537 1.505 1.468 1.511 1.472 1.493 1.446 1.459 1.519 1.506 1.383 1.363 1.428 1.445 1.449 1.358 1.270 1.376 1.400 1.400 1.289 1.358 1.267 1.274 1.244 1.369 1.242 1.304 1.271 1.301 1.193 1.285 1.310 1.351 1.262 1.241 1.178 1.165 1.128 1.185 1.210 1.246 1.137 1.131 1.148 1.114 1.127 1.191 1.069 1.084 1.152 1.158 1.031 1.015 1.156 1.079 1.102 1.060 1.045 1.188 1.083 1.040 1.088 1.052 1.042 1.037 1.057 1.080 1.076 1.012 1.083 1.014 0.905 1.021 0.984 0.991 1.005 1.050 1.078 1.102 0.954 1.054 1.086 1.008 1.028 1.046 0.967 0.997 1.011 0.928 0.973 0.927 5.649 5.031 0.000922 5.649 5.031 0.000922 1031745828.178 iB21 3.220
ODOM 5.670 5.031 0.004038 0.217 0.031 0 1031745828.258 iB21 3.300
FLASER 180 2.026 1.972 1.935 1.955 2.041 1.958 1.977 2.030 1.996 1.962 2.022 1.882 1.965 2.070 2.071 1.943 2.060 1.951 1.975 1.970 2.011 1.932 1.981 2.011 1.950 1.972 2.071 1.953 1.988 1.830 1.931 1.877 2.018 1.917 1.936 1.777 1.966 1.903 1.885 1.909 1.925 1.805 1.890 1.817 1.836 1.898 1.804 1.847 1.878 1.817 1.806 1.817 1.848 1.724 1.730 1.790 1.797 1.820 1.815 1.778 1.713 1.684 1.800 1.682 1.666 1.720 1.719 1.574 1.688 1.665 1.647 1.681 1.675 1.692 1.659 1.700 1.603 1.636 1.599 1.611 1.535 1.560 1.548 1.504 1.555 1.620 1.577 1.454 1.555 1.593 1.493 1.548 1.448 1.413 1.518 1.466 1.522 1.382 1.383 1.344 1.366 1.434 1.342 1.306 1.362 1.384 1.398 1.444 1.410 1.292 1.452 1.318 1.333 1.383 1.329 1.311 1.380 1.246 1.296 1.282 1.264 1.243 1.198 1.223 1.264 1.143 1.195 1.137 1.209 1.178 1.203 1.144 1.169 1.119 1.108 1.081 1.179 1.228 1.162 1.128 1.117 1.121 1.179 1.108 1.015 1.052 1.123 1.067 1.039 1.078 1.118 1.091 1.061 0.997 0.969 1.057 1.017 0.992 1.055 1.073 1.068 1.001 1.035 0.988 1.008 1.044 1.070 0.977 0.937 0.922 0.991 1.062 1.016 1.042 0.952 0.999 1.011 1.033 1.003 1.038 5.670 5.031 0.004038 5.670 5.031 0.004038 1031745828.278 iB21 3.320
ODOM 5.690 5.031 0.008979 0.192 0.049 0 1031745828.358 iB21 3.400
FLASER 180 2.034 2.014 2.047 2.014 1.987 1.993 1.960 1.968 1.944 1.963 2.048 2.026 1.948 1.902 1.936 2.039 1.964 1.917 2.046 1.919 1.925 1.944 1.941 1.836 1.988 1.987 1.958 1.868 2.002 1.990 1.875 1.893 1.907 1.936 1.967 1.898 1.944 1.870 1.923 1.874 1.891 1.823 1.897 1.793 1.789 1.842 1.846 1.721 1.807 1.830 1.903 1.753 1.774 1.768 1.744 1.769 1.756 1.750 1.842 1.825 1.704 1.732 1.736 1.790 1.708 1.746 1.733 1.721 1.678 1.713 1.745 1.588 1.635 1.694 1.633 1.734 1.597 1.575 1.612 1.536 1.678 1.633 1.523 1.584 1.471 1.518 1.540 1.555 1.535 1.373 1.503 1.442 1.467 1.508 1.560 1.448 1.443 1.443 1.410 1.364 1.345 1.405 1.446 1.351 1.343 1.390 1.309 1.294 1.380 1.383 1.347 1.375 1.268 1.354 1.295 1.315 1.305 1.351 1.346 1.231 1.213 1.344 1.251 1.228 1.265 1.279 1.220 1.249 1.183 1.197 1.248 1.126 1.197 1.124 1.254 1.103 1.099 1.136 1.163 1.017 1.052 1.191 1.086 1.053 1.147 1.096 1.125 1.000 1.076 1.080 1.029 1.068 1.029 1.062 1.058 1.041 1.003 1.024 1.076 1.100 0.978 1.030 0.996 1.039 1.004 1.056 0.966 1.034 1.030 1.055 1.032 0.999 0.999 1.094 1.057 1.011 1.002 1.064 0.898 1.003 5.690 5.031 0.008979 5.690 5.031 0.008979 1031745828.378 iB21 3.420
ODOM 5.710 5.031 0.015549 0.199 0.066 0 1031745828.458 iB21 3.500
FLASER 180 1.999 2.037 1.999 1.971 2.068 2.076 2.074 1.984 2.063 2.017 1.954 1.950 2.020 2.044 2.010 1.955 1.971 1.992 1.918 1.946 2.011 1.946 1.945 1.915 1.974 2.039 2.002 1.881 1.871 1.871 1.903 1.906 1.913 1.956 1.965 1.906 1.844 1.888 1.849 1.904 1.889 1.814 1.838 1.865 1.874 1.896 1.780 1.868 1.867 1.820 1.813 1.744 1.755 1.775 1.841 1.834 1.752 1.792 1.718 1.743 1.751 1.808 1.700 1.732 1.737 1.746 1.640 1.742 1.691 1.575 1.609 1.594 1.634 1.618 1.583 1.732 1.625 1.651 1.595 1.571 1.608 1.604 1.649 1.599 1.614 1.516 1.493 1.482 1.459 1.469 1.561 1.528 1.412 1.452 1.425 1.416 1.466 1.392 1.543 1.387 1.366 1.358 1.349 1.444 1.319 1.344 1.352 1.333 1.309 1.370 1.426 1.341 1.396 1.329 1.388 1.319 1.313 1.342 1.331 1.325 1.192 1.256 1.177 1.275 1.226 1.132 1.148 1.174 1.177 1.219 1.206 1.119 1.146 1.077 1.135 1.224 1.202 1.103 1.090 1.115 1.108 1.077 1.078 1.106 1.247 1.099 1.017 1.027 1.024 1.107 1.155 1.039 1.131 1.004 1.093 1.052 1.056 1.109 1.083 1.116 0.990 0.939 1.019 1.091 1.014 1.070 0.991 1.026 1.040 1.055 0.884 0.978 0.972 1.065 0.933 0.939 1.082 0.989 0.941 1.008 5.710 5.031 0.015549 5.710 5.031 0.015549 1031745828.478 iB21 3.520
ODOM 5.727 5.031 0.023485 0.178 0.079 0 1031745828.558 iB21 3.600
FLASER 180 2.036 1.964 1.919 1.952 2.002 1.938 1.967 2.080 1.984 1.966 2.030 1.956 1.940 1.903 2.014 2.003 1.920 2.036 1.964 1.929 1.948 1.931 1.950 1.888 1.912 2.044 1.923 2.036 1.900 1.914 1.952 1.936 1.907 2.010 1.988 1.943 1.887 1.862 1.927 1.870 1.956 1.948 1.848 1.868 1.872 1.870 1.812 1.823 1.866 1.868 1.866 1.785 1.797 1.731 1.858 1.850 1.752 1.785 1.702 1.717 1.750 1.784 1.685 1.747 1.775 1.715 1.739 1.709 1.684 1.633 1.641 1.624 1.635 1.727 1.618 1.616 1.617 1.612 1.645 1.645 1.594 1.589 1.518 1.553 1.633 1.606 1.513 1.508 1.511 1.535 1.579 1.418 1.441 1.512 1.417 1.449 1.342 1.512 1.406 1.341 1.371 1.464 1.379 1.377 1.432 1.360 1.366 1.388 1.398 1.219 1.346 1.343 1.287 1.344 1.365 1.403 1.244 1.268 1.272 1.279 1.261 1.175 1.197 1.276 1.173 1.267 1.214 1.188 1.117 1.078 1.192 1.124 1.173 1.219 1.182 1.217 1.206 1.135 1.147 1.102 1.053 1.119 1.139 1.122 1.075 1.125 1.138 1.073 1.058 1.048 1.100 1.008 1.124 1.154 1.062 0.958 1.068 0.985 0.967 1.091 1.056 1.067 1.045 1.004 1.078 1.096 1.086 1.107 0.953 1.032 1.015 0.959 0.940 0.975 1.016 1.031 0.960 1.031 0.911 1.045 5.727 5.031 0.023485 5.727 5.031 0.023485 1031745828.578 iB21 3.620
ODOM 5.747 5.032 0.032473 0.194 0.090 0 1031745828.658 iB21 3.700
FLASER 180 1.978 1.975 1.971 2.054 1.906 1.913 1.981 1.901 1.938 2.078 2.034 1.897 1.972 1.940 2.007 1.989 1.949 2.011 1.944 1.909 1.991 1.938 1.976 2.001 2.034 1.904 1.954 1.858 1.887 1.973 1.964 1.928 1.866 1.896 1.892 1.929 1.906 1.974 1.922 1.905 1.797 1.872 1.778 1.962 1.827 1.833 1.917 1.806 1.851 1.866 1.828 1.813 1.817 1.723 1.756 1.847 1.709 1.750 1.762 1.750 1.726 1.813 1.745 1.722 1.689 1.690 1.792 1.649 1.633 1.664 1.646 1.624 1.706 1.752 1.570 1.655 1.653 1.607 1.621 1.558 1.679 1.532 1.544 1.555 1.516 1.588 1.538 1.541 1.484 1.422 1.539 1.406 1.514 1.518 1.484 1.437 1.386 1.324 1.408 1.371 1.469 1.411 1.406 1.358 1.405 1.407 1.325 1.341 1.258 1.383 1.359 1.339 1.358 1.277 1.179 1.308 1.159 1.273 1.422 1.229 1.312 1.330 1.268 1.190 1.221 1.189 1.168 1.167 1.261 1.227 1.205 1.136 1.246 1.134 1.091 1.119 1.190 1.148 1.083 1.172 1.114 1.214 1.130 1.025 1.144 1.000 1.113 1.151 1.113 1.038 1.074 1.029 1.118 0.997 0.930 1.014 0.973 1.030 1.030 1.059 0.978 1.053 0.992 1.058 1.062 1.091 0.972 1.031 0.996 0.948 0.943 1.039 1.062 0.964 0.975 1.100 1.027 1.046 0.977 0.917 5.747 5.032 0.032473 5.747 5.032 0.032473 1031745828.678 iB21 3.720
ODOM 5.764 5.032 0.042152 0.176 0.097 0 1031745828.758 iB21 3.800
FLASER 180 1.963 2.005 2.033 2.019 1.996 2.020 1.995 2.100 2.030 1.941 2.061 2.007 2.057 1.961 1.952 2.073 1.932 1.962 1.909 1.935 1.964 1.958 1.990 1.884 1.995 1.953 1.963 1.912 1.904 1.955 1.890 1.849 1.954 1.981 1.926 1.821 1.859 1.920 1.825 1.920 1.881 1.852 1.856 1.807 1.818 1.868 1.965 1.788 1.887 1.795 1.848 1.759 1.819 1.907 1.768 1.741 1.689 1.853 1.804 1.716 1.675 1.794 1.715 1.648 1.684 1.651 1.705 1.681 1.644 1.683 1.665 1.599 1.705 1.681 1.635 1.694 1.549 1.607 1.530 1.597 1.585 1.613 1.512 1.448 1.575 1.548 1.593 1.544 1.469 1.460 1.426 1.444 1.451 1.477 1.472 1.477 1.478 1.537 1.380 1.395 1.414 1.438 1.449 1.385 1.374 1.283 1.374 1.368 1.325 1.269 1.323 1.408 1.317 1.338 1.159 1.214 1.256 1.164 1.358 1.255 1.190 1.148 1.235 1.194 1.186 1.185 1.152 1.183 1.240 1.238 1.197 1.258 1.111 1.198 1.251 1.189 1.104 1.143 1.132 1.132 1.129 1.051 1.047 1.128 1.160 1.015 0.949 1.142 1.065 0.991 1.110 1.072 1.051 1.069 0.976 1.035 1.141 0.993 0.930 1.075 1.013 0.983 1.148 1.084 1.082 1.116 0.987 1.073 1.005 1.025 0.958 0.956 1.008 1.014 0.907 0.992 0.958 0.959 1.091 1.014 5.764 5.032 0.042152 5.764 5.032 0.042152 1031745828.778 iB21 3.820
ODOM 5.782 5.033 0.052137 0.181 0.100 0 1031745828.858 iB21 3.900
FLASER 180 2.052 1.990 1.951 2.012 2.061 2.008 2.055 1.985 2.026 1.940 1.925 1.956 1.950 2.034 1.996 2.022 2.011 2.089 1.973 1.946 2.011 1.969 1.905 1.974 1.937 2.000 1.977 1.821 1.912 1.943 1.942 2.056 1.929 1.867 1.897 1.820 1.871 1.808 1.891 1.903 1.891 1.917 1.818 1.888 1.934 1.843 1.882 1.855 1.806 1.824 1.837 1.824 1.786 1.753 1.832 1.829 1.836 1.795 1.823 1.730 1.841 1.726 1.751 1.705 1.772 1.671 1.683 1.696 1.673 1.628 1.696 1.578 1.705 1.633 1.655 1.566 1.630 1.654 1.665 1.676 1.574 1.631 1.581 1.567 1.570 1.540 1.522 1.447 1.614 1.535 1.451 1.449 1.399 1.450 1.466 1.387 1.468 1.460 1.379 1.466 1.465 1.513 1.321 1.381 1.423 1.322 1.367 1.373 1.303 1.281 1.260 1.354 1.351 1.320 1.301 1.365 1.255 1.309 1.247 1.246 1.218 1.282 1.178 1.185 1.237 1.243 1.165 1.127 1.241 1.130 1.165 1.163 1.228 1.234 1.144 1.133 1.162 1.002 1.052 1.141 1.069 1.160 1.174 1.056 1.092 1.152 1.034 1.126 1.069 1.094 1.089 1.043 1.027 1.001 1.135 1.057 1.047 1.087 1.012 1.001 0.962 1.080 0.986 0.921 1.044 0.983 1.012 1.047 0.977 1.047 0.991 1.001 0.973 1.089 0.909 0.991 0.972 0.929 1.087 0.988 5.782 5.033 0.052137 5.782 5.033 0.052137 1031745828.878 iB21 3.920
ODOM 5.803 5.034 0.062031 0.204 0.099 0 1031745828.958 iB21 4.000
FLASER 180 2.078 2.007 1.969 2.050 1.948 1.927 1.998 2.067 2.058 2.049 2.032 1.929 2.083 1.919 2.006 2.042 1.989 1.950 1.980 1.934 1.911 1.934 2.003 2.035 2.048 1.951 2.003 1.885 1.910 1.975 1.991 1.923 1.866 1.918 1.932 1.926 1.895 1.825 1.843 1.977 1.858 1.956 1.879 1.874 1.802 1.741 1.752 1.831 1.869 1.839 1.898 1.808 1.803 1.852 1.761 1.819 1.765 1.808 1.818 1.811 1.722 1.812 1.709 1.810 1.748 1.745 1.715 1.727 1.670 1.640 1.699 1.566 1.641 1.586 1.602 1.682 1.616 1.579 1.576 1.559 1.594 1.561 1.619 1.653 1.544 1.522 1.600 1.425 1.464 1.538 1.475 1.479 1.481 1.473 1.452 1.378 1.391 1.515 1.419 1.415 1.388 1.486 1.369 1.414 1.353 1.384 1.347 1.375 1.366 1.442 1.274 1.327 1.404 1.318 1.355 1.235 1.226 1.264 1.267 1.207 1.231 1.139 1.198 1.193 1.205 1.162 1.218 1.227 1.176 1.183 1.227 1.274 1.196 1.160 1.157 1.052 1.069 1.194 1.137 1.113 1.107 1.123 1.100 1.140 1.084 1.023 1.055 1.041 1.038 1.144 1.044 1.226 1.064 1.107 1.086 1.091 0.928 1.041 0.904 1.060 1.096 1.119 1.057 1.032 0.991 0.978 1.033 1.064 0.950 0.949 0.990 1.066 1.022 0.972 1.049 0.994 1.043 0.985 0.924 1.001 5.803 5.034 0.062031 5.803 5.034 0.062031 1031745828.978 iB21 4.020
ODOM 5.825 5.036 0.071438 0.224 0.094 0 1031745829.058 iB21 4.100
FLASER 180 2.064 2.025 1.994 1.967 1.955 1.965 2.013 1.982 1.961 2.045 1.911 2.041 1.950 2.035 2.016 2.060 1.894 1.970 1.970 1.947 1.992 2.015 1.926 1.955 1.923 1.932 1.949 2.023 1.933 2.037 2.064 1.912 1.916 1.881 1.872 1.843 1.887 1.932 1.916 1.846 1.837 1.865 1.872 1.780 1.854 1.836 1.796 1.837 1.851 1.831 1.842 1.830 1.811 1.742 1.738 1.740 1.733 1.796 1.690 1.713 1.751 1.795 1.745 1.702 1.787 1.663 1.771 1.612 1.644 1.767 1.642 1.621 1.644 1.652 1.664 1.490 1.554 1.666 1.635 1.637 1.580 1.724 1.542 1.590 1.567 1.577 1.528 1.557 1.538 1.554 1.495 1.601 1.439 1.413 1.422 1.424 1.460 1.449 1.409 1.386 1.426 1.409 1.405 1.382 1.352 1.364 1.262 1.383 1.368 1.412 1.365 1.255 1.325 1.383 1.375 1.266 1.268 1.239 1.270 1.377 1.325 1.196 1.199 1.224 1.193 1.252 1.107 1.153 1.217 1.186 1.172 1.105 1.142 1.171 1.193 1.147 1.120 1.082 1.046 1.168 1.120 1.204 1.132 1.101 1.135 1.076 1.006 1.025 1.080 1.094 1.031 0.992 0.995 1.148 1.019 1.053 1.020 1.036 1.079 1.016 1.041 1.066 1.023 1.031 1.049 1.045 1.064 1.052 1.124 1.136 0.911 0.954 0.899 0.992 1.001 1.007 0.994 1.114 1.059 0.954 5.825 5.036 0.071438 5.825 5.036 0.071438 1031745829.078 iB21 4.120
ODOM 5.842 5.037 0.079984 0.165 0.085 0 1031745829.158 iB21 4.200
FLASER 180 2.081 1.996 1.927 1.992 2.044 1.980 2.037 1.999 1.970 2.000 1.988 1.971 1.943 1.966 1.952 2.026 2.034 1.918 2.015 1.989 1.954 1.957 1.950 1.865 2.009 1.920 1.971 1.924 1.995 1.894 2.009 1.925 1.864 1.874 1.806 1.895 1.945 1.880 1.901 1.946 1.808 1.838 1.918 1.864 1.861 1.934 1.691 1.888 1.790 1.849 1.867 1.824 1.843 1.833 1.812 1.778 1.653 1.787 1.727 1.797 1.757 1.805 1.680 1.654 1.800 1.637 1.786 1.775 1.618 1.644 1.663 1.707 1.664 1.678 1.645 1.616 1.603 1.640 1.584 1.625 1.545 1.556 1.595 1.484 1.562 1.615 1.584 1.541 1.563 1.408 1.499 1.521 1.487 1.400 1.469 1.430 1.472 1.509 1.350 1.485 1.407 1.369 1.303 1.391 1.318 1.423 1.368 1.348 1.372 1.335 1.299 1.304 1.259 1.253 1.218 1.268 1.297 1.304 1.206 1.316 1.222 1.226 1.246 1.192 1.260 1.235 1.251 1.275 1.192 1.151 1.125 1.113 1.209 1.143 1.195 1.074 1.206 1.184 0.988 1.155 1.151 1.068 1.115 1.099 1.090 1.060 1.148 1.100 1.130 1.108 1.085 1.098 1.119 1.014 1.049 1.158 1.080 1.105 1.108 1.026 1.059 0.959 0.926 0.964 0.976 1.007 0.998 0.970 1.013 0.921 0.923 1.047 0.960 0.995 0.944 0.967 0.913 0.943 1.028 0.999 5.842 5.037 0.079984 5.842 5.037 0.079984 1031745829.178 iB21 4.220
ODOM 5.864 5.039 0.087328 0.229 0.073 0 1031745829.258 iB21 4.300
FLASER 180 2.032 2.102 1.975 1.966 1.976 1.993 1.998 1.944 1.936 2.035 1.961 1.982 2.031 1.955 1.949 1.976 2.030 1.897 1.986 1.891 1.965 1.993 1.917 1.942 1.982 1.923 1.992 1.997 1.898 1.931 1.904 1.959 1.915 1.947 1.917 1.893 1.904 1.912 1.868 1.842 1.942 1.881 1.828 1.946 1.858 1.843 1.899 1.850 1.881 1.787 1.834 1.731 1.850 1.874 1.743 1.785 1.852 1.720 1.812 1.826 1.790 1.669 1.745 1.770 1.656 1.678 1.675 1.656 1.725 1.718 1.641 1.694 1.540 1.691 1.678 1.658 1.575 1.700 1.555 1.574 1.596 1.606 1.534 1.620 1.565 1.526 1.460 1.500 1.552 1.497 1.487 1.492 1.453 1.485 1.446 1.465 1.451 1.412 1.415 1.467 1.395 1.457 1.378 1.438 1.380 1.422 1.415 1.327 1.362 1.352 1.318 1.315 1.259 1.410 1.327 1.273 1.240 1.183 1.279 1.271 1.181 1.270 1.222 1.232 1.308 1.260 1.278 1.191 1.192 1.205 1.186 1.176 1.145 1.122 1.162 1.145 1.176 1.087 1.077 1.081 1.061 1.099 1.021 1.080 1.055 1.206 1.128 1.041 1.106 1.099 1.096 1.080 0.997 1.088 1.026 1.070 1.016 1.057 0.992 0.998 1.049 1.084 1.031 1.090 0.962 0.938 1.028 0.981 1.008 1.085 0.988 1.004 1.023 1.057 1.072 1.071 1.082 1.036 1.000 1.032 5.864 5.039 0.087328 5.864 5.039 0.087328 1031745829.278 iB21 4.320
ODOM 5.884 5.040 0.093177 0.201 0.058 0 1031745829.358 iB21 4.400
FLASER 180 1.950 2.085 2.044 1.957 2.038 2.059 2.047 1.977 2.054 2.024 1.978 2.050 1.985 1.956 1.937 1.939 1.963 1.980 1.998 1.847 1.931 1.973 1.843 1.952 1.971 1.918 1.867 1.863 2.062 2.006 1.886 1.910 2.055 1.924 2.003 1.968 1.892 1.931 1.903 1.906 1.955 1.834 1.788 1.937 1.805 1.874 1.818 1.824 1.783 1.843 1.941 1.853 1.774 1.808 1.801 1.747 1.722 1.769 1.763 1.727 1.815 1.747 1.743 1.722 1.739 1.777 1.649 1.697 1.643 1.671 1.643 1.671 1.690 1.603 1.625 1.677 1.586 1.596 1.576 1.581 1.517 1.588 1.575 1.529 1.602 1.594 1.514 1.475 1.463 1.478 1.579 1.535 1.494 1.440 1.579 1.495 1.479 1.381 1.356 1.494 1.347 1.390 1.362 1.424 1.408 1.374 1.277 1.285 1.290 1.334 1.322 1.323 1.290 1.348 1.377 1.208 1.288 1.263 1.383 1.279 1.363 1.280 1.266 1.232 1.180 1.202 1.266 1.165 1.187 1.265 1.204 1.131 1.140 1.212 1.154 1.163 1.198 1.106 1.081 1.129 1.183 1.054 1.042 1.129 1.094 1.028 1.108 1.097 1.039 1.065 1.009 1.114 1.215 1.097 1.133 1.048 1.028 1.046 0.998 1.118 1.048 1.097 1.028 1.006 1.014 1.047 1.029 1.021 1.037 1.053 0.928 1.056 1.015 0.992 1.023 1.032 0.926 0.950 0.979 1.036 5.884 5.040 0.093177 5.884 5.040 0.093177 1031745829.378 iB21 4.420
ODOM 5.904 5.042 0.097298 0.192 0.041 0 1031745829.458 iB21 4.500
FLASER 180 2.043 2.054 1.905 2.008 2.020 2.054 1.947 2.063 2.039 1.992 2.019 2.004 2.061 1.947 1.926 2.051 2.045 1.985 2.002 1.975 2.058 1.985 1.855 2.055 1.971 1.951 1.958 1.891 1.935 1.919 1.975 1.947 1.867 1.963 1.939 1.908 1.892 1.924 1.969 1.953 1.846 1.757 1.900 1.814 1.858 1.958 1.904 1.894 1.789 1.882 1.742 1.821 1.813 1.726 1.745 1.753 1.739 1.844 1.721 1.681 1.780 1.694 1.669 1.700 1.731 1.731 1.743 1.666 1.765 1.670 1.650 1.637 1.501 1.675 1.687 1.627 1.538 1.574 1.481 1.518 1.552 1.638 1.594 1.583 1.544 1.535 1.526 1.569 1.438 1.519 1.496 1.464 1.494 1.437 1.516 1.551 1.400 1.528 1.358 1.423 1.396 1.378 1.359 1.322 1.429 1.369 1.371 1.366 1.304 1.404 1.408 1.311 1.299 1.172 1.298 1.292 1.310 1.297 1.353 1.140 1.181 1.212 1.112 1.234 1.292 1.163 1.213 1.221 1.221 1.196 1.144 1.157 1.161 1.205 1.007 1.088 1.076 1.133 1.069 1.114 1.109 1.079 1.063 1.138 1.103 1.032 0.960 1.197 1.207 1.085 1.151 0.977 1.059 1.063 1.089 1.004 1.026 0.978 0.975 1.093 1.013 0.996 1.084 0.970 1.023 1.056 0.991 0.904 0.972 1.015 0.942 0.928 0.951 1.109 0.898 0.972 0.998 1.019 1.000 1.074 5.904 5.042 0.097298 5.904 5.042 0.097298 1031745829.478 iB21 4.520
ODOM 5.921 5.044 0.099527 0.179 0.022 0 1031745829.558 iB21 4.600
FLASER 180 2.061 2.079 1.934 2.051 1.998 1.927 1.973 1.992 1.932 1.955 2.042 1.999 2.061 2.026 2.028 1.962 2.065 1.941 2.058 1.983 2.042 2.024 1.891 1.950 1.927 1.975 2.043 1.956 2.016 1.935 1.974 1.891 1.912 1.942 1.930 1.884 1.936 1.980 1.895 1.895 1.951 1.815 1.910 1.862 1.833 1.813 1.830 1.837 1.912 1.775 1.761 1.719 1.808 1.825 1.798 1.761 1.762 1.757 1.795 1.741 1.789 1.799 1.751 1.720 1.801 1.731 1.667 1.691 1.751 1.704 1.797 1.587 1.700 1.591 1.596 1.581 1.632 1.596 1.667 1.636 1.661 1.566 1.568 1.552 1.493 1.701 1.596 1.596 1.451 1.481 1.530 1.449 1.482 1.466 1.470 1.439 1.460 1.414 1.431 1.459 1.374 1.528 1.380 1.324 1.310 1.455 1.362 1.303 1.385 1.396 1.334 1.359 1.334 1.336 1.325 1.298 1.276 1.311 1.256 1.369 1.254 1.242 1.272 1.246 1.271 1.173 1.231 1.176 1.291 1.141 1.111 1.209 1.220 1.128 1.121 1.195 1.175 1.177 1.058 1.105 1.095 1.196 1.184 1.144 1.086 0.990 1.049 1.035 1.048 1.023 1.099 0.996 1.058 1.095 0.968 1.030 1.067 1.062 1.027 1.090 0.952 1.108 1.041 1.028 0.998 1.117 0.999 0.953 1.104 1.059 1.011 1.060 1.053 1.064 0.959 1.042 0.961 1.051 0.984 0.976 5.921 5.044 0.099527 5.921 5.044 0.099527 1031745829.578 iB21 4.620
ODOM 5.941 5.046 0.099775 0.201 0.002 0 1031745829.658 iB21 4.700
FLASER 180 2.006 2.051 1.932 2.046 1.956 2.057 2.011 1.998 1.951 1.955 1.946 1.990 1.932 2.020 1.927 2.000 2.022 2.064 2.028 1.970 1.927 2.056 2.046 1.941 1.976 1.982 1.960 1.957 1.931 1.796 1.985 1.922 1.939 1.924 1.901 1.966 1.947 1.912 1.892 1.806 1.840 1.904 1.860 1.906 1.832 1.857 1.830 1.816 1.891 1.903 1.797 1.866 1.774 1.789 1.803 1.738 1.727 1.833 1.796 1.781 1.740 1.758 1.740 1.676 1.716 1.732 1.744 1.728 1.663 1.699 1.666 1.610 1.649 1.598 1.640 1.628 1.674 1.571 1.667 1.663 1.596 1.538 1.535 1.506 1.485 1.515 1.497 1.510 1.520 1.410 1.503 1.562 1.504 1.576 1.464 1.472 1.515 1.376 1.395 1.417 1.444 1.437 1.458 1.343 1.338 1.326 1.387 1.377 1.358 1.310 1.326 1.342 1.387 1.353 1.331 1.333 1.293 1.281 1.369 1.273 1.353 1.283 1.255 1.253 1.210 1.232 1.252 1.222 1.137 1.194 1.117 1.191 1.223 1.152 1.134 1.201 1.120 1.174 1.111 1.096 1.133 1.116 1.140 1.193 1.159 1.055 1.043 1.105 1.071 1.009 1.115 1.012 1.071 1.009 1.034 1.068 1.077 1.062 1.074 0.985 0.998 0.975 1.102 1.045 1.073 0.954 1.067 0.963 1.046 1.044 1.065 1.000 0.895 0.961 1.053 0.993 0.974 1.042 1.105 1.003 5.941 5.046 0.099775 5.941 5.046 0.099775 1031745829.678 iB21 4.720
ODOM 5.961 5.048 0.098032 0.198 -0.017 0 1031745829.758 iB21 4.800
